timestamp,timestamp_sample,control[0],control[1],control[2],control[3],control[4],control[5],control[6],control[7]
11727165,11727055,-0.43383524,-0.5017772,0.09707658,0.05513535,0.0,0.0,0.0,-1.0
11735973,11735860,-0.40262213,-0.54083216,0.06558543,0.06276196,0.0,0.0,0.0,-1.0
11851270,11851142,-0.038918592,-0.23786284,0.69313127,0.14780675,0.0,0.0,0.0,-1.0
11855157,11855055,-0.012621753,-0.20128563,0.68075347,0.14780675,0.0,0.0,0.0,-1.0
11857564,11857454,0.048327867,-0.1734209,0.6769908,0.14780675,0.0,0.0,0.0,-1.0
11861579,11861470,0.17552266,-0.15893263,0.6739601,0.15079181,0.0,0.0,0.0,-1.0
11864798,11864689,0.080749735,-0.18718098,0.69534934,0.15079181,0.0,0.0,0.0,-1.0
11868766,11868654,0.105692655,-0.16763784,0.67258006,0.15079181,0.0,0.0,0.0,-1.0
11871180,11871069,0.221193,-0.08885151,0.6265398,0.15079181,0.0,0.0,0.0,-1.0
11875198,11875088,0.2368634,-0.09797426,0.6066411,0.15079181,0.0,0.0,0.0,-1.0
11879157,11879055,0.2574131,-0.10130097,0.5703509,0.15079181,0.0,0.0,0.0,-1.0
11882381,11882259,0.32384554,-0.04618288,0.5605273,0.15079181,0.0,0.0,0.0,-1.0
11885592,11885486,0.30996737,-0.041232847,0.53841734,0.15366265,0.0,0.0,0.0,-1.0
11889556,11889454,0.21676192,-0.05407134,0.5139612,0.15366265,0.0,0.0,0.0,-1.0
11892835,11892684,0.25493586,-0.05958392,0.5383442,0.15366265,0.0,0.0,0.0,-1.0
11896766,11896654,0.2770814,-0.06280266,0.54492575,0.15366265,0.0,0.0,0.0,-1.0
11899171,11899062,0.22849175,-0.049807183,0.49238485,0.15366265,0.0,0.0,0.0,-1.0
11903161,11903059,0.20164336,-0.07336367,0.41617933,0.1566774,0.0,0.0,0.0,-1.0
11907177,11907074,0.1795906,-0.06399594,0.35795483,0.1566774,0.0,0.0,0.0,-1.0
11911161,11911055,0.16390014,-0.087451294,0.39493462,0.1566774,0.0,0.0,0.0,-1.0
11914489,11914327,0.16298154,-0.09633159,0.37449995,0.1566774,0.0,0.0,0.0,-1.0
11917559,11917457,0.103618294,-0.1002467,0.2990879,0.1566774,0.0,0.0,0.0,-1.0
11920756,11920654,0.07683697,-0.15296704,0.3057958,0.16033176,0.0,0.0,0.0,-1.0
11924768,11924655,0.091224395,-0.16602041,0.35804772,0.16033176,0.0,0.0,0.0,-1.0
11927189,11927087,0.04952447,-0.14323695,0.32252222,0.16033176,0.0,0.0,0.0,-1.0
11930432,11930261,0.008283812,-0.17116562,0.29049778,0.16033176,0.0,0.0,0.0,-1.0
11935246,11935129,0.016958445,-0.17947955,0.370147,0.16033176,0.0,0.0,0.0,-1.0
11938377,11938259,-0.05109012,-0.13428463,0.34345937,0.16033176,0.0,0.0,0.0,-1.0
11941556,11941454,-0.067302324,-0.14868248,0.3217603,0.16518147,0.0,0.0,0.0,-1.0
11945620,11945462,-0.0025799987,-0.13138719,0.3839134,0.16518147,0.0,0.0,0.0,-1.0
11948763,11948654,-0.083106644,-0.08288483,0.3886026,0.16518147,0.0,0.0,0.0,-1.0
11952792,11952663,-0.16269861,-0.04586964,0.36664405,0.16518147,0.0,0.0,0.0,-1.0
11955960,11955854,-0.016052598,-0.07353605,0.3954437,0.16518147,0.0,0.0,0.0,-1.0
11958407,11958285,-0.029191654,-0.007557668,0.3732657,0.16518147,0.0,0.0,0.0,-1.0
11962381,11962256,-0.12908044,0.06630525,0.33684045,0.16518147,0.0,0.0,0.0,-1.0
11966378,11966261,-0.12997535,0.020231375,0.28718072,0.17105275,0.0,0.0,0.0,-1.0
11969556,11969454,-0.09444366,0.0685149,0.24734336,0.17105275,0.0,0.0,0.0,-1.0
11973619,11973461,-0.08057182,0.14768153,0.23452318,0.17105275,0.0,0.0,0.0,-1.0
11976756,11976654,-0.09061924,0.117079034,0.23519218,0.17105275,0.0,0.0,0.0,-1.0
11980767,11980654,-0.091006,0.083657116,0.23305339,0.17105275,0.0,0.0,0.0,-1.0
11984777,11984665,-0.07319904,0.15754905,0.26158085,0.17105275,0.0,0.0,0.0,-1.0
11986375,11986257,-0.057284605,0.14994709,0.28477344,0.17105275,0.0,0.0,0.0,-1.0
11990374,11990256,-0.04974139,0.047424957,0.30704173,0.17636237,0.0,0.0,0.0,-1.0
11994381,11994254,-0.073443994,0.08502604,0.32920125,0.17636237,0.0,0.0,0.0,-1.0
11997558,11997456,-0.029446203,0.08918759,0.3521313,0.17636237,0.0,0.0,0.0,-1.0
12001556,12001454,0.0051267743,-0.014549094,0.33592454,0.17636237,0.0,0.0,0.0,-1.0
12004758,12004654,-0.025493406,0.008047239,0.34240454,0.17636237,0.0,0.0,0.0,-1.0
12008770,12008656,-0.0616607,0.016414449,0.31814083,0.17636237,0.0,0.0,0.0,-1.0
12011989,12011859,-0.016581021,-0.010296238,0.31262213,0.17636237,0.0,0.0,0.0,-1.0
12014381,12014257,0.04342155,-0.092136994,0.28513062,0.17900802,0.0,0.0,0.0,-1.0
12018377,12018259,-0.05598359,-0.056638997,0.23353244,0.17900802,0.0,0.0,0.0,-1.0
12022379,12022262,-0.06881217,-0.08282833,0.1603778,0.17900802,0.0,0.0,0.0,-1.0
12025559,12025456,0.057364214,-0.15393762,0.12968425,0.17900802,0.0,0.0,0.0,-1.0
12029567,12029454,-0.013967384,-0.12076563,0.14965592,0.17979209,0.0,0.0,0.0,-1.0
12042374,12042257,-0.061228488,-0.1217739,0.18185474,0.17979209,0.0,0.0,0.0,-1.0
12046384,12046259,0.040333837,-0.08496471,0.25530347,0.17979209,0.0,0.0,0.0,-1.0
12050428,12050260,-0.03591293,-0.033390637,0.22259441,0.18069194,0.0,0.0,0.0,-1.0
12053556,12053454,-0.055296812,-0.046706248,0.18967475,0.18069194,0.0,0.0,0.0,-1.0
12057556,12057454,0.06930115,-0.020397753,0.26104742,0.18069194,0.0,0.0,0.0,-1.0
12060756,12060654,0.0010773472,0.054690942,0.24017216,0.18069194,0.0,0.0,0.0,-1.0
12064767,12064654,-0.03968702,0.02208006,0.14107534,0.18069194,0.0,0.0,0.0,-1.0
12067958,12067854,0.058683384,-0.0014165211,0.18995655,0.18069194,0.0,0.0,0.0,-1.0
12070380,12070262,0.04444642,0.06792985,0.12458508,0.18069194,0.0,0.0,0.0,-1.0
12075165,12075054,-0.034462903,0.060909722,0.1381656,0.18101195,0.0,0.0,0.0,-1.0
12077556,12077454,0.08988435,0.032140862,0.09919929,0.18101195,0.0,0.0,0.0,-1.0
12081599,12081461,0.022638332,0.07381463,0.08957754,0.18101195,0.0,0.0,0.0,-1.0
12085563,12085454,-0.07923478,0.11813969,0.039253693,0.18101195,0.0,0.0,0.0,-1.0
12088757,12088655,0.05429279,0.07594126,0.08176468,0.18101195,0.0,0.0,0.0,-1.0
12092773,12092657,0.008620561,0.06454984,0.09939626,0.18101195,0.0,0.0,0.0,-1.0
12096770,12096655,-0.06715401,0.07912466,0.121198155,0.18101195,0.0,0.0,0.0,-1.0
12099173,12099067,0.00548812,0.088922344,0.18876305,0.17982581,0.0,0.0,0.0,-1.0
12103250,12103124,-0.0028786352,0.070450366,0.16017291,0.17982581,0.0,0.0,0.0,-1.0
12105560,12105456,-0.032473568,0.029487457,0.13455155,0.17982581,0.0,0.0,0.0,-1.0
12109567,12109465,0.018503426,0.0402621,0.20378748,0.17982581,0.0,0.0,0.0,-1.0
12113568,12113457,-0.06191824,0.09541617,0.15753824,0.17982581,0.0,0.0,0.0,-1.0
12116775,12116654,-0.04747449,0.021730416,0.11139794,0.17982581,0.0,0.0,0.0,-1.0
12120775,12120655,0.071380645,-0.032573797,0.16071108,0.17861974,0.0,0.0,0.0,-1.0
12123969,12123854,-0.03767584,0.03336246,0.13723277,0.17861974,0.0,0.0,0.0,-1.0
12127159,12127054,-0.068289176,0.049321003,0.113695726,0.17861974,0.0,0.0,0.0,-1.0
12131238,12131063,0.055592965,0.00023138733,0.1305535,0.17861974,0.0,0.0,0.0,-1.0
12133630,12133462,0.015194223,-0.010709802,0.09261367,0.17854735,0.0,0.0,0.0,-1.0
12137557,12137454,-0.06230762,0.012142431,0.06941199,0.17854735,0.0,0.0,0.0,-1.0
12141567,12141454,0.051564142,0.0057918075,0.12628882,0.17854735,0.0,0.0,0.0,-1.0
12144757,12144655,-0.0044748057,0.0026519857,0.091251075,0.17854735,0.0,0.0,0.0,-1.0
12148770,12148654,0.031954855,-0.033933394,0.08490017,0.17854735,0.0,0.0,0.0,-1.0
12153600,12153489,0.033205554,-0.010194809,0.13988246,0.17854735,0.0,0.0,0.0,-1.0
12155224,12155065,-0.02292185,0.018777922,0.12012756,0.17854735,0.0,0.0,0.0,-1.0
12159177,12159054,0.02769472,-0.006241462,0.083107606,0.1788978,0.0,0.0,0.0,-1.0
12161556,12161454,0.17315231,-0.06558613,0.087071456,0.1788978,0.0,0.0,0.0,-1.0
12165556,12165454,-0.007709441,-0.025953624,0.056651246,0.1788978,0.0,0.0,0.0,-1.0
12169618,12169460,0.008054045,0.0016958275,0.037131954,0.1788978,0.0,0.0,0.0,-1.0
12172766,12172656,0.13880159,-0.037505563,0.06729142,0.1788978,0.0,0.0,0.0,-1.0
12177561,12177455,-0.06285952,-0.048105557,0.0049821436,0.17904146,0.0,0.0,0.0,-1.0
12179972,12179854,-0.03190689,-0.0491305,0.029483613,0.17904146,0.0,0.0,0.0,-1.0
12183163,12183054,0.07288741,-0.035472434,0.10639594,0.17904146,0.0,0.0,0.0,-1.0
12187277,12187156,-0.0635276,-0.004161505,0.081858836,0.17904146,0.0,0.0,0.0,-1.0
12189585,12189462,-0.07732465,-0.034152366,0.055415615,0.17904146,0.0,0.0,0.0,-1.0
12193568,12193456,0.09426317,-0.08438529,0.1375288,0.17904146,0.0,0.0,0.0,-1.0
12197594,12197486,-0.15331072,-0.016975759,0.1088051,0.17902593,0.0,0.0,0.0,-1.0
12201557,12201455,-0.07578797,-0.019557398,0.0910918,0.17902593,0.0,0.0,0.0,-1.0
12204806,12204683,0.081683144,-0.07207864,0.106532544,0.17902593,0.0,0.0,0.0,-1.0
12208757,12208655,-0.09985295,-0.06249479,0.045126893,0.17902593,0.0,0.0,0.0,-1.0
12211223,12211061,-0.08749034,-0.027283886,0.05915576,0.17902593,0.0,0.0,0.0,-1.0
12215159,12215057,0.038003795,-0.017296463,0.071236074,0.17902593,0.0,0.0,0.0,-1.0
12218396,12218286,-0.025520477,-0.045216523,0.037424013,0.17902593,0.0,0.0,0.0,-1.0
12220798,12220696,-0.095746934,-0.050549503,-0.009339768,0.17902593,0.0,0.0,0.0,-1.0
12225580,12225476,0.0287271,0.0107882125,0.092042565,0.17899205,0.0,0.0,0.0,-1.0
12228788,12228686,-0.053377997,0.022051504,0.07090272,0.17899205,0.0,0.0,0.0,-1.0
12232826,12232661,-0.05201124,-0.03319994,0.060258593,0.17899205,0.0,0.0,0.0,-1.0
12236757,12236655,0.089126684,0.0056046722,0.17176068,0.17899205,0.0,0.0,0.0,-1.0
12239188,12239086,-0.010898226,0.021116769,0.14123686,0.17898259,0.0,0.0,0.0,-1.0
12243156,12243054,-0.07902903,0.044363216,0.1100355,0.17898259,0.0,0.0,0.0,-1.0
12246372,12246260,0.061619185,-0.0066195177,0.10901876,0.17898259,0.0,0.0,0.0,-1.0
12248761,12248655,0.09767284,0.024155615,0.12787761,0.17898259,0.0,0.0,0.0,-1.0
12252812,12252672,-0.04557296,0.07215688,0.057443596,0.17898259,0.0,0.0,0.0,-1.0
12256814,12256712,0.06879445,0.039326806,0.026349097,0.17898259,0.0,0.0,0.0,-1.0
12260764,12260651,0.06651078,0.022508254,-0.014450282,0.17898259,0.0,0.0,0.0,-1.0
12264767,12264656,0.0029884712,0.06468372,0.0013717748,0.17898571,0.0,0.0,0.0,-1.0
12267172,12267070,0.051140875,0.061227135,0.02572275,0.17898571,0.0,0.0,0.0,-1.0
12271251,12271127,0.049112678,0.020780668,0.0252729,0.17898571,0.0,0.0,0.0,-1.0
12274457,12274293,-0.0138785355,0.012367993,0.03592997,0.17898571,0.0,0.0,0.0,-1.0
12276834,12276661,0.00851821,0.011619707,0.08212578,0.17898571,0.0,0.0,0.0,-1.0
12280789,12280686,0.04395137,0.002631615,0.16400175,0.17912975,0.0,0.0,0.0,-1.0
12284766,12284656,-0.02458562,-0.044865124,0.095524035,0.17912975,0.0,0.0,0.0,-1.0
12288773,12288658,0.022884525,-0.059868976,0.13888131,0.17912975,0.0,0.0,0.0,-1.0
12292757,12292655,0.009689859,-0.063512,0.13314457,0.17912975,0.0,0.0,0.0,-1.0
12295156,12295054,-0.030583346,-0.07792547,0.06764636,0.17912975,0.0,0.0,0.0,-1.0
12299158,12299056,-0.016227512,-0.104506195,0.0026873127,0.17912975,0.0,0.0,0.0,-1.0
12302362,12302254,0.015504247,-0.07587493,0.049021896,0.17918237,0.0,0.0,0.0,-1.0
12304805,12304697,-0.01930756,-0.09050343,0.005463239,0.17918237,0.0,0.0,0.0,-1.0
12308760,12308657,-0.0060941814,-0.08473253,-0.02431672,0.17918237,0.0,0.0,0.0,-1.0
12312757,12312655,0.027176203,-0.10606522,-0.016942922,0.17918237,0.0,0.0,0.0,-1.0
12316773,12316660,-0.026768908,-0.083368815,0.0117838215,0.17918237,0.0,0.0,0.0,-1.0
12320761,12320658,0.029629655,-0.047837034,0.092127785,0.17918237,0.0,0.0,0.0,-1.0
12323160,12323054,0.04175346,-0.05758258,0.10343753,0.17918237,0.0,0.0,0.0,-1.0
12327156,12327054,-0.023158854,-0.06837455,0.07321669,0.17832746,0.0,0.0,0.0,-1.0
12330364,12330254,0.0041244593,-0.036661647,0.09920284,0.17832746,0.0,0.0,0.0,-1.0
12332859,12332709,0.061133433,-0.007554898,0.16546746,0.17832746,0.0,0.0,0.0,-1.0
12336761,12336658,0.009808847,-0.017956166,0.08995637,0.17832746,0.0,0.0,0.0,-1.0
12340765,12340663,-0.012915178,0.0015604214,0.028346708,0.17832746,0.0,0.0,0.0,-1.0
12344771,12344655,0.042037945,0.048561607,0.06703586,0.17616795,0.0,0.0,0.0,-1.0
12347983,12347864,-0.0066521484,0.035560645,-0.012065958,0.17616795,0.0,0.0,0.0,-1.0
12351212,12351066,-0.018196352,0.009698417,-0.064989835,0.17616795,0.0,0.0,0.0,-1.0
12355238,12355124,0.041434452,0.026863074,-0.0032991655,0.17616795,0.0,0.0,0.0,-1.0
12358381,12358279,-0.014323341,0.041836835,0.023830265,0.17616795,0.0,0.0,0.0,-1.0
12360767,12360665,-0.03697731,0.049303625,-0.0041372143,0.17616795,0.0,0.0,0.0,-1.0
12365563,12365454,0.04464256,0.004878095,0.06727369,0.17616795,0.0,0.0,0.0,-1.0
12369563,12369459,-0.034865577,0.042437673,0.102989964,0.17257588,0.0,0.0,0.0,-1.0
12372087,12371925,-0.061581884,0.059238136,0.10838182,0.17257588,0.0,0.0,0.0,-1.0
12375965,12375854,0.07207797,-0.01988907,0.14710797,0.17257588,0.0,0.0,0.0,-1.0
12379169,12379054,0.019723253,-0.01130886,0.14482723,0.17257588,0.0,0.0,0.0,-1.0
12383175,12383073,-0.09013058,0.038541242,0.06515075,0.17257588,0.0,0.0,0.0,-1.0
12386366,12386256,0.034280222,-0.014041906,0.059882402,0.17257588,0.0,0.0,0.0,-1.0
12388798,12388696,0.07665803,-0.06869005,0.036861718,0.17257588,0.0,0.0,0.0,-1.0
12393563,12393458,-0.05523401,-0.009618936,-0.00037167594,0.16828683,0.0,0.0,0.0,-1.0
12395969,12395854,-0.048960168,0.015494836,-0.0632707,0.16828683,0.0,0.0,0.0,-1.0
12399965,12399854,0.07763908,-0.07176946,-0.008082349,0.16828683,0.0,0.0,0.0,-1.0
12403969,12403858,-0.054988004,-0.0642169,-0.028028358,0.16828683,0.0,0.0,0.0,-1.0
12407156,12407054,-0.067438096,-0.0034814691,0.0007385127,0.1648669,0.0,0.0,0.0,-1.0
12411159,12411057,0.040461194,-0.029255366,0.09477854,0.1648669,0.0,0.0,0.0,-1.0
12414372,12414254,-0.005240627,-0.08323709,0.09019813,0.1648669,0.0,0.0,0.0,-1.0
12417557,12417454,-0.02791104,-0.0428939,0.07686938,0.1648669,0.0,0.0,0.0,-1.0
12421556,12421454,0.017682442,-0.0029769111,0.1088171,0.1648669,0.0,0.0,0.0,-1.0
12425568,12425466,0.0012731394,-0.048503075,0.061188057,0.1648669,0.0,0.0,0.0,-1.0
12427974,12427857,0.0073345914,-0.068178035,0.032841757,0.1648669,0.0,0.0,0.0,-1.0
12432026,12431863,-0.0054934435,-0.009984941,-0.00031300634,0.1631738,0.0,0.0,0.0,-1.0
12435240,12435074,-0.050106637,0.017616536,-0.04259415,0.1631738,0.0,0.0,0.0,-1.0
12439242,12439127,0.020452749,-0.05655155,-0.09261474,0.1631738,0.0,0.0,0.0,-1.0
12442381,12442278,0.060357433,-0.07165982,-0.06797004,0.1631738,0.0,0.0,0.0,-1.0
12445556,12445454,-0.04224007,-0.009008017,-0.035624158,0.1631738,0.0,0.0,0.0,-1.0
12449564,12449455,-0.03370307,-0.014364552,-0.043593314,0.1631738,0.0,0.0,0.0,-1.0
12452020,12451862,0.069547586,-0.06397165,0.0123049,0.1631738,0.0,0.0,0.0,-1.0
12456008,12455896,0.013806561,-0.050653357,0.05471401,0.16406395,0.0,0.0,0.0,-1.0
12459965,12459854,-0.09963083,0.017024573,0.03053008,0.16406395,0.0,0.0,0.0,-1.0
12463156,12463054,0.024335677,-0.029654788,0.04268753,0.16406395,0.0,0.0,0.0,-1.0
12467170,12467065,0.05855123,-0.07200869,0.09748222,0.16406395,0.0,0.0,0.0,-1.0
12470365,12470257,-0.06463742,-0.023744881,-0.038879197,0.16712181,0.0,0.0,0.0,-1.0
12473557,12473455,-0.03857135,-0.00048023555,-0.11346775,0.16712181,0.0,0.0,0.0,-1.0
12477556,12477454,0.035378117,-0.053847987,-0.102875255,0.16712181,0.0,0.0,0.0,-1.0
12479965,12479854,0.011028786,-0.06527039,-0.102497295,0.16712181,0.0,0.0,0.0,-1.0
12483965,12483854,-0.051947866,0.004493705,-0.14874308,0.16712181,0.0,0.0,0.0,-1.0
12487967,12487854,0.008738062,-0.03252308,-0.10299897,0.16712181,0.0,0.0,0.0,-1.0
12491208,12491062,0.00090348185,-0.06397379,-0.09364021,0.16934668,0.0,0.0,0.0,-1.0
12495165,12495056,-0.06250163,-0.01577729,-0.070332125,0.16934668,0.0,0.0,0.0,-1.0
12498365,12498257,-0.034447692,-0.009511324,-0.054383077,0.16934668,0.0,0.0,0.0,-1.0
12501556,12501454,-0.0019031819,-0.04490127,-0.056125507,0.16934668,0.0,0.0,0.0,-1.0
12505567,12505456,-0.023443216,-0.04129359,-0.039498944,0.16934668,0.0,0.0,0.0,-1.0
12507978,12507854,-0.026385156,-0.013997224,0.006330138,0.16934668,0.0,0.0,0.0,-1.0
12513557,12513455,0.0007418089,-0.038355757,0.01852056,0.16934668,0.0,0.0,0.0,-1.0
12515156,12515054,0.00376812,-0.04941592,0.02841388,0.16934668,0.0,0.0,0.0,-1.0
12519156,12519054,0.00019065931,-0.022866298,-0.10033603,0.16886494,0.0,0.0,0.0,-1.0
12523243,12523124,-0.001248953,-0.024497751,-0.14941122,0.16886494,0.0,0.0,0.0,-1.0
12526389,12526280,0.021110632,-0.033370167,-0.11945775,0.16886494,0.0,0.0,0.0,-1.0
12530415,12530308,0.03502123,-0.022223068,-0.14385015,0.16886494,0.0,0.0,0.0,-1.0
12534386,12534257,-0.007935797,-0.00837239,-0.15973109,0.16886494,0.0,0.0,0.0,-1.0
12536769,12536654,-0.0038109804,-0.015305003,-0.12237635,0.16886494,0.0,0.0,0.0,-1.0
12540012,12539901,0.053939376,-0.005957252,-0.020628832,0.16886494,0.0,0.0,0.0,-1.0
12543180,12543074,0.05730449,0.0014354857,-0.07062303,0.16684103,0.0,0.0,0.0,-1.0
12547168,12547057,-0.0027578287,0.030207444,-0.04477846,0.16684103,0.0,0.0,0.0,-1.0
12564767,12564654,0.03861011,0.025383985,-0.18188034,0.16491826,0.0,0.0,0.0,-1.0
12568787,12568674,0.059095107,0.004797161,-0.19315717,0.16491826,0.0,0.0,0.0,-1.0
12571160,12571056,0.013974259,0.057259247,-0.17032205,0.16491826,0.0,0.0,0.0,-1.0
12575163,12575054,-0.008226924,0.04552034,-0.12152996,0.16491826,0.0,0.0,0.0,-1.0
12579186,12579069,0.0598366,-0.020820266,-0.069833234,0.16491826,0.0,0.0,0.0,-1.0
12582409,12582307,0.057776697,0.015166544,-0.039361116,0.16491826,0.0,0.0,0.0,-1.0
12586386,12586284,0.013801689,0.01198734,-0.09700556,0.16361691,0.0,0.0,0.0,-1.0
12589572,12589460,0.004064818,-0.058983177,-0.08231312,0.16361691,0.0,0.0,0.0,-1.0
12592788,12592686,0.03696,-0.028094167,-0.1235577,0.16361691,0.0,0.0,0.0,-1.0
12596775,12596661,0.05456246,-0.021296652,-0.13812111,0.16361691,0.0,0.0,0.0,-1.0
12599170,12599054,0.012912346,-0.08353966,-0.117466144,0.16361691,0.0,0.0,0.0,-1.0
12603189,12603086,-0.03969423,-0.09386675,-0.09578203,0.16361691,0.0,0.0,0.0,-1.0
12607236,12607115,0.058275618,-0.08618282,-0.14518332,0.16167924,0.0,0.0,0.0,-1.0
12610417,12610315,0.02382447,-0.13228634,-0.16585217,0.16167924,0.0,0.0,0.0,-1.0
12613688,12613507,-0.0680475,-0.1139499,-0.17285044,0.16167924,0.0,0.0,0.0,-1.0
12619170,12619068,0.03484672,-0.13382016,-0.113722645,0.16167924,0.0,0.0,0.0,-1.0
12620774,12620664,0.029305553,-0.12534244,-0.16481297,0.16167924,0.0,0.0,0.0,-1.0
12624766,12624654,-0.045758747,-0.11881979,-0.21310416,0.15741043,0.0,0.0,0.0,-1.0
12627173,12627064,-0.050108157,-0.10354167,-0.17355824,0.15741043,0.0,0.0,0.0,-1.0
12631159,12631057,0.016135389,-0.1585998,-0.14723171,0.15741043,0.0,0.0,0.0,-1.0
12635164,12635057,-0.06438259,-0.15112889,-0.13776986,0.15741043,0.0,0.0,0.0,-1.0
12638372,12638257,-0.056233842,-0.095172115,-0.1529501,0.15741043,0.0,0.0,0.0,-1.0
12643157,12643055,-0.007338052,-0.13708058,-0.13231191,0.15741043,0.0,0.0,0.0,-1.0
12645571,12645456,-0.033535354,-0.14075644,-0.09896598,0.15741043,0.0,0.0,0.0,-1.0
12648757,12648655,-0.037574764,-0.09252177,-0.16057493,0.15141764,0.0,0.0,0.0,-1.0
12652821,12652662,-0.015051224,-0.10735578,-0.16220696,0.15141764,0.0,0.0,0.0,-1.0
12655188,12655086,-0.020755455,-0.097378455,-0.12872829,0.15141764,0.0,0.0,0.0,-1.0
12659181,12659070,-0.00032191785,-0.038866296,-0.09898728,0.15141764,0.0,0.0,0.0,-1.0
12662364,12662255,-0.007328307,-0.057556473,-0.061971694,0.15141764,0.0,0.0,0.0,-1.0
12666363,12666255,-0.02266107,-0.06561613,-0.06765332,0.14566733,0.0,0.0,0.0,-1.0
12669565,12669454,0.015522028,-0.007913479,-0.09645131,0.14566733,0.0,0.0,0.0,-1.0
12674413,12674298,0.0095931385,-0.021978155,-0.032640606,0.14566733,0.0,0.0,0.0,-1.0
12676756,12676654,-0.0017003949,-0.031574443,-0.018646106,0.14566733,0.0,0.0,0.0,-1.0
12680766,12680654,0.01525524,0.010193922,-0.08853245,0.14566733,0.0,0.0,0.0,-1.0
12683957,12683854,-0.00031509015,-0.003102566,-0.11842082,0.14566733,0.0,0.0,0.0,-1.0
12686398,12686286,0.032861188,0.009405718,-0.08953404,0.14566733,0.0,0.0,0.0,-1.0
12691238,12691116,0.037242755,0.006040213,-0.108231544,0.14175445,0.0,0.0,0.0,-1.0
12694419,12694290,-0.0021907915,0.021683747,-0.093955465,0.14175445,0.0,0.0,0.0,-1.0
12698377,12698271,0.04570341,0.008133395,-0.09205334,0.14175445,0.0,0.0,0.0,-1.0
12701572,12701454,0.03625391,0.016657813,-0.100074515,0.14175445,0.0,0.0,0.0,-1.0
12704766,12704657,-0.011709934,0.026282262,-0.08353521,0.1400243,0.0,0.0,0.0,-1.0
12714398,12714286,-0.008557008,0.0043635033,-0.08690155,0.1400243,0.0,0.0,0.0,-1.0
12715961,12715857,-0.0056574177,0.019167664,-0.10448549,0.1400243,0.0,0.0,0.0,-1.0
12718435,12718269,0.040374123,0.033296656,-0.04504096,0.1400243,0.0,0.0,0.0,-1.0
12722363,12722255,0.068203166,-0.03485174,-0.038331613,0.1400243,0.0,0.0,0.0,-1.0
12725565,12725454,-0.00809643,-0.049619455,-0.05525034,0.1400243,0.0,0.0,0.0,-1.0
12730366,12730255,0.019863475,0.009506954,-0.11025297,0.13958707,0.0,0.0,0.0,-1.0
12732819,12732672,0.05222273,-0.029374663,-0.09954032,0.13958707,0.0,0.0,0.0,-1.0
12736766,12736654,0.011699514,-0.069556355,-0.063194185,0.13958707,0.0,0.0,0.0,-1.0
12739956,12739854,-0.0023073286,-0.009195328,-0.09482552,0.13958707,0.0,0.0,0.0,-1.0
12742372,12742256,-0.01307963,-0.048831046,-0.087407954,0.13958707,0.0,0.0,0.0,-1.0
12746363,12746255,-0.008656075,-0.11352648,-0.10047068,0.13990533,0.0,0.0,0.0,-1.0
12750362,12750254,0.0027691415,-0.05350073,-0.0649261,0.13990533,0.0,0.0,0.0,-1.0
12754403,12754280,-0.023311445,-0.10654753,-0.06580723,0.13990533,0.0,0.0,0.0,-1.0
12757572,12757458,-0.041502096,-0.13217014,-0.072507896,0.13990533,0.0,0.0,0.0,-1.0
12760799,12760698,-0.028909246,-0.07178735,-0.08022606,0.13990533,0.0,0.0,0.0,-1.0
12764766,12764654,0.0070279315,-0.09277401,-0.043913636,0.13990533,0.0,0.0,0.0,-1.0
12767964,12767862,-0.016530234,-0.13085063,-0.062215555,0.1410957,0.0,0.0,0.0,-1.0
12770363,12770255,-0.06800347,-0.13238293,-0.048235565,0.1410957,0.0,0.0,0.0,-1.0
12774370,12774255,-0.051708404,-0.079369046,-0.09238673,0.1410957,0.0,0.0,0.0,-1.0
12778382,12778278,0.03881496,-0.1480788,-0.064444065,0.1410957,0.0,0.0,0.0,-1.0
12782393,12782278,-0.021968774,-0.12088581,-0.06456844,0.1410957,0.0,0.0,0.0,-1.0
12786374,12786255,-0.07547091,-0.096166246,-0.09466039,0.1410957,0.0,0.0,0.0,-1.0
12788770,12788654,-0.026993055,-0.12557805,-0.080763474,0.1410957,0.0,0.0,0.0,-1.0
12792814,12792660,0.045754008,-0.11102984,-0.0934653,0.1435886,0.0,0.0,0.0,-1.0
12795979,12795863,-0.022631044,-0.07846728,-0.09520297,0.1435886,0.0,0.0,0.0,-1.0
12798362,12798254,-0.06319379,-0.07660132,-0.054588154,0.1435886,0.0,0.0,0.0,-1.0
12802371,12802255,-0.014638354,-0.08033102,-0.060613506,0.1435886,0.0,0.0,0.0,-1.0
12806372,12806256,0.0017971821,-0.042248696,-0.09130358,0.1435886,0.0,0.0,0.0,-1.0
12810376,12810272,-0.0025077069,-0.049485933,-0.039134976,0.14695613,0.0,0.0,0.0,-1.0
12813627,12813462,-0.009727626,-0.05301567,-0.029202437,0.14695613,0.0,0.0,0.0,-1.0
12816756,12816654,-0.046682008,-0.033440955,-0.0790866,0.14695613,0.0,0.0,0.0,-1.0
12837571,12837460,0.051820375,0.019706896,-0.063773364,0.14982772,0.0,0.0,0.0,-1.0
12842438,12842336,-0.021584693,0.010435298,-0.021636305,0.14982772,0.0,0.0,0.0,-1.0
12844812,12844665,-0.040903836,0.035018742,-0.030766202,0.14982772,0.0,0.0,0.0,-1.0
12848781,12848661,0.0022104844,0.007916763,-0.04731815,0.14982772,0.0,0.0,0.0,-1.0
12852018,12851866,0.027316215,-0.02077002,-0.041292086,0.15206271,0.0,0.0,0.0,-1.0
12855169,12855054,0.010506779,0.010115986,-0.05148511,0.15206271,0.0,0.0,0.0,-1.0
12859254,12859124,-0.007802582,-0.0023409235,-0.060129404,0.15206271,0.0,0.0,0.0,-1.0
12861565,12861454,0.01663986,-0.03880718,-0.04301717,0.15206271,0.0,0.0,0.0,-1.0
12867160,12867055,0.019906959,0.011925434,-0.084108606,0.15206271,0.0,0.0,0.0,-1.0
12869580,12869454,0.008914272,0.0077826353,-0.07330309,0.15206271,0.0,0.0,0.0,-1.0
12872826,12872661,0.01637427,-0.048537053,-0.04138792,0.15458268,0.0,0.0,0.0,-1.0
12876770,12876654,0.029237974,-0.013387944,-0.050645225,0.15458268,0.0,0.0,0.0,-1.0
12879963,12879854,-0.0158085,0.008415687,-0.0729065,0.15458268,0.0,0.0,0.0,-1.0
12883163,12883059,0.005270212,-0.024732478,-0.030768994,0.15458268,0.0,0.0,0.0,-1.0
12887163,12887054,0.032394398,-0.025081523,0.0017677327,0.15458268,0.0,0.0,0.0,-1.0
12889587,12889468,0.0041535744,-0.0045341784,0.0052538714,0.15458268,0.0,0.0,0.0,-1.0
12893671,12893482,-0.030227223,-0.023593811,0.001962747,0.15458268,0.0,0.0,0.0,-1.0
12897572,12897454,0.020883642,-0.03268489,0.028414195,0.1580377,0.0,0.0,0.0,-1.0
12900763,12900654,0.011403255,-0.032218643,-0.014746143,0.1580377,0.0,0.0,0.0,-1.0
12904803,12904690,-0.005598225,-0.0356861,-0.06883453,0.1580377,0.0,0.0,0.0,-1.0
12907967,12907854,0.0046126163,-0.044171713,-0.07813642,0.1580377,0.0,0.0,0.0,-1.0
12911224,12911060,-0.004322858,-0.023786077,-0.07462424,0.1580377,0.0,0.0,0.0,-1.0
12915209,12915095,-0.026868092,-0.045449782,-0.06918941,0.1580377,0.0,0.0,0.0,-1.0
12917565,12917454,-0.024523437,-0.05648262,-0.053008523,0.16248757,0.0,0.0,0.0,-1.0
12921572,12921454,-0.0471401,-0.04349354,-0.01855041,0.16248757,0.0,0.0,0.0,-1.0
12925597,12925486,-0.0733739,-0.047720585,0.023008376,0.16248757,0.0,0.0,0.0,-1.0
12928763,12928654,-0.034312747,-0.06568208,0.0883431,0.16248757,0.0,0.0,0.0,-1.0
12932920,12932769,-0.03438815,-0.037402183,0.08031157,0.16248757,0.0,0.0,0.0,-1.0
12935995,12935886,-0.08704399,-0.0380886,0.04099942,0.16248757,0.0,0.0,0.0,-1.0
12939165,12939054,-0.061398454,-0.03143099,0.022075986,0.16248757,0.0,0.0,0.0,-1.0
12943248,12943134,-0.020559875,-0.026582332,0.0061396686,0.1679681,0.0,0.0,0.0,-1.0
12945635,12945462,-0.033450954,-0.008667303,-0.039545346,0.1679681,0.0,0.0,0.0,-1.0
12949573,12949454,-0.093380086,-0.013336854,-0.09659408,0.1679681,0.0,0.0,0.0,-1.0
12953580,12953462,-0.021886079,-0.0034237187,-0.05307953,0.1679681,0.0,0.0,0.0,-1.0
12956805,12956698,0.017822,-0.008973844,-0.060576133,0.1679681,0.0,0.0,0.0,-1.0
12960772,12960659,-0.051093794,-0.0056386804,-0.07933126,0.17462184,0.0,0.0,0.0,-1.0
12963966,12963862,-0.08886458,0.02910556,-0.017014032,0.17462184,0.0,0.0,0.0,-1.0
12967194,12967086,-0.040026937,0.0066096596,0.0438585,0.17462184,0.0,0.0,0.0,-1.0
12971957,12971855,0.0014352627,-0.04115555,0.07339869,0.17462184,0.0,0.0,0.0,-1.0
12975210,12975065,-0.08031703,0.01410024,0.10469195,0.17462184,0.0,0.0,0.0,-1.0
12977597,12977494,-0.10899808,0.02990933,0.11163048,0.17462184,0.0,0.0,0.0,-1.0
12980776,12980657,-0.014943475,-0.03779211,0.08731471,0.17462184,0.0,0.0,0.0,-1.0
12984764,12984662,0.01121701,-0.047780838,0.034764323,0.18193035,0.0,0.0,0.0,-1.0
12988766,12988654,-0.13494714,0.047500048,-0.02570972,0.18193035,0.0,0.0,0.0,-1.0
12991958,12991856,-0.08423656,-0.0012962401,-0.08751114,0.18193035,0.0,0.0,0.0,-1.0
12996768,12996666,0.06725252,-0.053094964,-0.07209168,0.18193035,0.0,0.0,0.0,-1.0
12999172,12999057,-0.015664088,0.0064743273,-0.064767465,0.18193035,0.0,0.0,0.0,-1.0
13002364,13002256,-0.11706267,0.02654569,-0.0564873,0.18925108,0.0,0.0,0.0,-1.0
13004769,13004660,-0.04541668,-0.031747825,-0.06490954,0.18925108,0.0,0.0,0.0,-1.0
13008788,13008686,0.08549435,-0.040167645,0.039776474,0.18925108,0.0,0.0,0.0,-1.0
13012759,13012655,-0.09609389,0.054962095,0.07362983,0.18925108,0.0,0.0,0.0,-1.0
13016766,13016654,-0.0046762805,-0.023212258,0.08257817,0.18925108,0.0,0.0,0.0,-1.0
13019957,13019855,0.13180085,-0.037166186,0.13329965,0.18925108,0.0,0.0,0.0,-1.0
13023172,13023054,0.041874833,0.023921547,0.12551859,0.18925108,0.0,0.0,0.0,-1.0
13028759,13028655,0.029296115,-0.02571139,-0.005519096,0.19926858,0.0,0.0,0.0,-1.0
13030454,13030304,0.056941316,-0.029550912,0.0044269487,0.19926858,0.0,0.0,0.0,-1.0
13032763,13032654,0.10585276,-0.020416364,-0.009106876,0.19926858,0.0,0.0,0.0,-1.0
13036769,13036666,0.015408874,0.01651303,-0.08954633,0.19926858,0.0,0.0,0.0,-1.0
13040770,13040654,0.06727117,-0.039488837,-0.12786317,0.19926858,0.0,0.0,0.0,-1.0
13044770,13044656,0.08143055,-0.008625683,-0.049061045,0.19926858,0.0,0.0,0.0,-1.0
13047971,13047859,0.015742794,0.032436635,-0.041687336,0.19926858,0.0,0.0,0.0,-1.0
13052759,13052655,0.07726069,-0.022099905,0.023216708,0.21169044,0.0,0.0,0.0,-1.0
13055982,13055876,0.09668201,-0.010554343,0.111658566,0.21169044,0.0,0.0,0.0,-1.0
13058365,13058256,0.03676653,0.02445254,0.07769811,0.21169044,0.0,0.0,0.0,-1.0
13060839,13060735,0.016253365,0.027967304,0.09756105,0.21169044,0.0,0.0,0.0,-1.0
13064772,13064656,0.09726312,-0.02724403,0.12592152,0.21169044,0.0,0.0,0.0,-1.0
13068758,13068654,0.056612637,0.0047263005,0.12731767,0.21169044,0.0,0.0,0.0,-1.0
13072769,13072657,0.013751068,0.006729068,0.0032686908,0.2237676,0.0,0.0,0.0,-1.0
13076757,13076655,0.08405499,-0.039746568,-0.033777714,0.2237676,0.0,0.0,0.0,-1.0
13079165,13079054,0.066521406,-0.021680567,-0.03726782,0.2237676,0.0,0.0,0.0,-1.0
13083957,13083855,-0.022895299,0.037955504,-0.13066125,0.2237676,0.0,0.0,0.0,-1.0
13086362,13086254,0.031340387,-0.010151048,-0.07081945,0.2237676,0.0,0.0,0.0,-1.0
13088764,13088662,0.06954062,-0.041418087,-0.06758595,0.2430028,0.0,0.0,0.0,-1.0
13092812,13092666,-0.018917669,0.025663137,-0.0062826932,0.2430028,0.0,0.0,0.0,-1.0
13096772,13096670,-0.031260658,0.0030602505,0.012857412,0.2430028,0.0,0.0,0.0,-1.0
13100768,13100655,0.077000454,-0.042811275,0.13862084,0.2430028,0.0,0.0,0.0,-1.0
13103957,13103856,0.0031023803,0.015974646,0.16317084,0.2430028,0.0,0.0,0.0,-1.0
13107968,13107856,-0.052213922,0.019905344,0.099634536,0.2430028,0.0,0.0,0.0,-1.0
13111322,13111162,0.06895532,-0.04235297,0.10129985,0.2430028,0.0,0.0,0.0,-1.0
13114371,13114256,0.052397937,-0.0038675035,0.02609347,0.29611662,0.0,0.0,0.0,-1.0
13117559,13117456,-0.046135407,0.02771367,-0.051929817,0.29611662,0.0,0.0,0.0,-1.0
13121563,13121454,0.04085129,-0.033768464,-0.08463013,0.29611662,0.0,0.0,0.0,-1.0
13123967,13123855,0.12286669,-0.06378383,-0.11079787,0.29611662,0.0,0.0,0.0,-1.0
13128005,13127898,-0.057793427,0.022117542,-0.13534692,0.29611662,0.0,0.0,0.0,-1.0
13131957,13131855,-0.013834421,-0.04054721,-0.090499476,0.29611662,0.0,0.0,0.0,-1.0
13135271,13135070,0.10567531,-0.07866853,0.03660499,0.29611662,0.0,0.0,0.0,-1.0
13139964,13139855,-0.11364909,0.00960073,0.039997365,0.35556003,0.0,0.0,0.0,-1.0
13142362,13142254,-0.07347006,-0.027559198,0.06528213,0.35556003,0.0,0.0,0.0,-1.0
13144862,13144731,0.1042209,-0.08697648,0.14988916,0.35556003,0.0,0.0,0.0,-1.0
13149566,13149462,-0.024484202,-0.02592228,0.073650286,0.35556003,0.0,0.0,0.0,-1.0
13151978,13151856,-0.08385252,-0.014513001,0.07339483,0.35556003,0.0,0.0,0.0,-1.0
13155969,13155865,0.1207365,-0.087572604,0.0648633,0.38119024,0.0,0.0,0.0,-1.0
13159965,13159863,0.0100365495,-0.03559882,-0.039629318,0.38119024,0.0,0.0,0.0,-1.0
13164842,13164740,0.004034836,-0.05293351,-0.09045741,0.38119024,0.0,0.0,0.0,-1.0
13167165,13167054,0.094332054,-0.08162641,-0.08233765,0.38119024,0.0,0.0,0.0,-1.0
13170425,13170263,0.041408382,-0.048104513,-0.09998414,0.38119024,0.0,0.0,0.0,-1.0
13173616,13173477,-0.04464021,-0.013751066,-0.07160442,0.38119024,0.0,0.0,0.0,-1.0
13177556,13177454,0.08608718,-0.05990572,0.012206066,0.3662084,0.0,0.0,0.0,-1.0
13179957,13179855,0.09639136,-0.058470216,0.05682089,0.3662084,0.0,0.0,0.0,-1.0
13183958,13183856,-0.037433084,-0.0054365126,0.08227341,0.3662084,0.0,0.0,0.0,-1.0
13187962,13187855,0.08452556,-0.04561683,0.18165481,0.3662084,0.0,0.0,0.0,-1.0
13191176,13191064,0.058324043,-0.027923234,0.14914115,0.3662084,0.0,0.0,0.0,-1.0
13195994,13195892,0.026699698,-0.009053538,0.115789585,0.3662084,0.0,0.0,0.0,-1.0
13198377,13198272,0.103690736,-0.03229042,0.097975634,0.3662084,0.0,0.0,0.0,-1.0
13201560,13201454,0.05864896,-0.027379457,0.0088399295,0.34966892,0.0,0.0,0.0,-1.0
13205574,13205464,0.007842117,-0.01738117,-0.03246387,0.34966892,0.0,0.0,0.0,-1.0
13207959,13207856,0.07536156,-0.031154118,-0.08470234,0.34966892,0.0,0.0,0.0,-1.0
13212003,13211898,0.04015133,-0.018175047,-0.13185343,0.34966892,0.0,0.0,0.0,-1.0
13215956,13215854,-0.0177153,-0.02355899,-0.0805579,0.34966892,0.0,0.0,0.0,-1.0
13219964,13219855,0.040863417,-0.048787776,-0.005163136,0.3556981,0.0,0.0,0.0,-1.0
13223172,13223054,-0.017969482,-0.038780544,0.0375638,0.3556981,0.0,0.0,0.0,-1.0
13226368,13226256,-0.032774154,-0.040419538,0.10756236,0.3556981,0.0,0.0,0.0,-1.0
13229561,13229458,0.025597665,-0.070350185,0.09589054,0.3556981,0.0,0.0,0.0,-1.0
13233632,13233462,-0.0109124025,-0.06692383,0.100726336,0.3556981,0.0,0.0,0.0,-1.0
13235957,13235855,-0.037842307,-0.07063606,0.1526441,0.3556981,0.0,0.0,0.0,-1.0
13239960,13239854,-0.002385531,-0.10108522,0.09105926,0.3556981,0.0,0.0,0.0,-1.0
13243968,13243859,-0.029847845,-0.08536227,0.012938793,0.38213766,0.0,0.0,0.0,-1.0
13247165,13247054,-0.035191488,-0.077571034,-0.02803666,0.38213766,0.0,0.0,0.0,-1.0
13251172,13251054,0.020621685,-0.09491319,-0.08812656,0.38213766,0.0,0.0,0.0,-1.0
13254418,13254269,0.012392792,-0.09109578,-0.11387617,0.38213766,0.0,0.0,0.0,-1.0
13257556,13257454,-0.016025057,-0.08163514,-0.11545268,0.37162396,0.0,0.0,0.0,-1.0
13261565,13261456,0.030576529,-0.08974659,-0.06553422,0.37162396,0.0,0.0,0.0,-1.0
13264763,13264654,0.012429553,-0.07268091,-0.010721634,0.37162396,0.0,0.0,0.0,-1.0
13268814,13268712,-0.02729125,-0.063915536,0.01745367,0.37162396,0.0,0.0,0.0,-1.0
13271171,13271056,0.01244791,-0.066077866,0.09747242,0.37162396,0.0,0.0,0.0,-1.0
13275186,13275057,0.028937923,-0.046495892,0.12771672,0.37162396,0.0,0.0,0.0,-1.0
13279307,13279174,0.00030681817,-0.024372555,0.110637434,0.35577157,0.0,0.0,0.0,-1.0
13282376,13282264,0.060571548,-0.037287254,0.13919441,0.35577157,0.0,0.0,0.0,-1.0
13286377,13286275,0.029306373,-0.027175387,0.0536841,0.35577157,0.0,0.0,0.0,-1.0
13289594,13289486,0.010858152,0.0003726345,0.0038868934,0.35577157,0.0,0.0,0.0,-1.0
13317570,13317468,0.007288187,-0.054140173,0.07753022,0.35876244,0.0,0.0,0.0,-1.0
13320805,13320703,0.02114208,-0.025354994,0.101769805,0.35876244,0.0,0.0,0.0,-1.0
13324768,13324654,0.02671768,-0.047412205,0.08713384,0.36195326,0.0,0.0,0.0,-1.0
13327172,13327054,0.009462285,-0.06313601,0.08436939,0.36195326,0.0,0.0,0.0,-1.0
13332779,13332675,0.0124996845,-0.037850942,0.053621184,0.36195326,0.0,0.0,0.0,-1.0
13335165,13335054,-0.013608284,-0.07094316,-0.030792713,0.36195326,0.0,0.0,0.0,-1.0
13338371,13338268,0.0127273705,-0.07390408,-0.066804454,0.36195326,0.0,0.0,0.0,-1.0
13342380,13342278,0.006101648,-0.054762393,-0.083546445,0.36195326,0.0,0.0,0.0,-1.0
13345600,13345470,-0.03774857,-0.08064956,-0.1437832,0.36220717,0.0,0.0,0.0,-1.0
13348774,13348666,0.020688144,-0.077781714,-0.060114264,0.36220717,0.0,0.0,0.0,-1.0
13352849,13352687,-0.0057445685,-0.057267148,-0.034476355,0.36220717,0.0,0.0,0.0,-1.0
13355172,13355054,-0.051088076,-0.08573534,-0.04263014,0.36220717,0.0,0.0,0.0,-1.0
13359173,13359062,0.02735563,-0.068566054,0.064852364,0.36220717,0.0,0.0,0.0,-1.0
13364759,13364656,-0.0033311974,-0.054433543,0.072143,0.36220717,0.0,0.0,0.0,-1.0
13366397,13366295,0.033554915,-0.058014244,0.13016123,0.36220717,0.0,0.0,0.0,-1.0
13369584,13369482,0.095110625,-0.030392777,0.16350764,0.3637132,0.0,0.0,0.0,-1.0
13373633,13373465,0.035002418,0.025086606,0.10745327,0.3637132,0.0,0.0,0.0,-1.0
13376763,13376654,0.09221842,-0.019841883,0.059910983,0.3637132,0.0,0.0,0.0,-1.0
13380829,13380664,0.11400597,0.02142746,0.04112364,0.3637132,0.0,0.0,0.0,-1.0
13383216,13383105,0.071587935,0.058602747,-0.044501565,0.3637132,0.0,0.0,0.0,-1.0
13387165,13387054,0.19208643,0.016892398,-0.060379222,0.3645595,0.0,0.0,0.0,-1.0
13391234,13391062,0.18099868,0.061564956,-0.07521278,0.3645595,0.0,0.0,0.0,-1.0
13394372,13394254,0.12732081,0.083791226,-0.09560129,0.3645595,0.0,0.0,0.0,-1.0
13397556,13397454,0.24027051,0.043650746,-0.0101063475,0.3645595,0.0,0.0,0.0,-1.0
13401556,13401454,0.1577661,0.08497248,0.021619374,0.3645595,0.0,0.0,0.0,-1.0
13404764,13404654,0.08719828,0.08295477,0.030222377,0.3645595,0.0,0.0,0.0,-1.0
13408769,13408656,0.25745478,0.07531404,0.14159268,0.36491686,0.0,0.0,0.0,-1.0
13413612,13413497,0.113288954,0.11289849,0.10384407,0.36491686,0.0,0.0,0.0,-1.0
13414428,13414318,0.1052818,0.11812821,0.109672554,0.36491686,0.0,0.0,0.0,-1.0
13418364,13418256,0.23443757,0.10171478,0.13020682,0.36491686,0.0,0.0,0.0,-1.0
13422362,13422254,0.13550828,0.09473369,0.06303879,0.36491686,0.0,0.0,0.0,-1.0
13426381,13426278,0.18375388,0.09776102,0.039086886,0.36491686,0.0,0.0,0.0,-1.0
13429560,13429456,0.18227418,0.079552874,-0.0061926786,0.36491686,0.0,0.0,0.0,-1.0
13432764,13432662,0.08195167,0.09086789,-0.03324809,0.36491686,0.0,0.0,0.0,-1.0
13438367,13438255,0.19108108,0.05497977,-0.038288053,0.36454362,0.0,0.0,0.0,-1.0
13439957,13439854,0.15705466,0.056918547,-0.0062048514,0.36454362,0.0,0.0,0.0,-1.0
13442374,13442272,0.058169734,0.064544715,0.012289343,0.36454362,0.0,0.0,0.0,-1.0
13447275,13447151,0.093823075,0.045362487,0.027876498,0.36454362,0.0,0.0,0.0,-1.0
13450430,13450282,0.09965194,0.008167353,0.07879256,0.36399633,0.0,0.0,0.0,-1.0
13453559,13453455,0.04535306,0.05043039,0.12947054,0.36399633,0.0,0.0,0.0,-1.0
13457566,13457456,0.048602045,0.0015439264,0.101741165,0.36399633,0.0,0.0,0.0,-1.0
13462373,13462255,0.06414078,0.019110719,0.13940002,0.36399633,0.0,0.0,0.0,-1.0
13464776,13464654,0.008974558,0.024653181,0.11038681,0.36399633,0.0,0.0,0.0,-1.0
13467956,13467854,0.07514083,-0.007543509,0.049488235,0.36399633,0.0,0.0,0.0,-1.0
13470408,13470271,0.11808102,-0.020712834,0.039769053,0.36399633,0.0,0.0,0.0,-1.0
13474379,13474256,-0.021429852,-0.023911417,-0.001921819,0.36352763,0.0,0.0,0.0,-1.0
13478367,13478257,0.07364726,-0.05747562,-0.046997044,0.36352763,0.0,0.0,0.0,-1.0
13481559,13481456,0.09875481,-0.034874797,-0.054105036,0.36352763,0.0,0.0,0.0,-1.0
13486365,13486255,0.0022988156,-0.07157001,-0.0071436083,0.36352763,0.0,0.0,0.0,-1.0
13488769,13488654,0.07279689,-0.054188363,-0.002450361,0.36352763,0.0,0.0,0.0,-1.0
13493567,13493455,0.02333229,-0.0751612,0.057646427,0.3627826,0.0,0.0,0.0,-1.0
13495956,13495854,0.035481274,-0.07047369,0.07368774,0.3627826,0.0,0.0,0.0,-1.0
13498365,13498257,0.094977684,-0.08209438,0.101169646,0.3627826,0.0,0.0,0.0,-1.0
13502372,13502262,0.0434191,-0.07687639,0.09657259,0.3627826,0.0,0.0,0.0,-1.0
13506365,13506257,0.057505377,-0.08763711,0.120591365,0.3627826,0.0,0.0,0.0,-1.0
13510374,13510272,0.079553634,-0.08256394,0.04438942,0.3627826,0.0,0.0,0.0,-1.0
13513620,13513461,0.042891398,-0.0831396,0.047110546,0.3627826,0.0,0.0,0.0,-1.0
13517572,13517469,0.078267485,-0.08209629,-0.0121627,0.36225963,0.0,0.0,0.0,-1.0
13520776,13520654,0.07023874,-0.08251427,-0.052554153,0.36225963,0.0,0.0,0.0,-1.0
13523956,13523854,0.039518353,-0.06591554,0.011605467,0.36225963,0.0,0.0,0.0,-1.0
13526367,13526257,0.031374566,-0.076053046,-0.026685704,0.36225963,0.0,0.0,0.0,-1.0
13530373,13530264,0.060850695,-0.083661996,-0.02983078,0.36225963,0.0,0.0,0.0,-1.0
13534371,13534258,0.039613362,-0.0633401,0.060391307,0.36225963,0.0,0.0,0.0,-1.0
13537559,13537456,0.02888567,-0.066654965,0.048118144,0.36225963,0.0,0.0,0.0,-1.0
13541565,13541455,0.07755032,-0.06415243,0.09335762,0.3622122,0.0,0.0,0.0,-1.0
13544773,13544654,0.059045244,-0.04257101,0.13579632,0.3622122,0.0,0.0,0.0,-1.0
13549604,13549500,0.061474677,-0.06522812,0.08029541,0.3622122,0.0,0.0,0.0,-1.0
13552008,13551860,0.092837505,-0.060305253,0.06859265,0.3622122,0.0,0.0,0.0,-1.0
13555175,13555060,0.054781735,-0.04058494,0.058934923,0.3626366,0.0,0.0,0.0,-1.0
13559157,13559054,0.05090034,-0.066968955,0.019186111,0.3626366,0.0,0.0,0.0,-1.0
13561575,13561462,0.12723379,-0.054645695,-0.0030588494,0.3626366,0.0,0.0,0.0,-1.0
13565560,13565455,0.03857462,-0.020021005,-0.024907093,0.3626366,0.0,0.0,0.0,-1.0
13569620,13569463,0.07692187,-0.05736562,-0.0067683975,0.3626366,0.0,0.0,0.0,-1.0
13573564,13573455,0.10011875,-0.034573298,0.0044651427,0.3626366,0.0,0.0,0.0,-1.0
13576783,13576654,-0.0077965655,-0.013495052,0.009607185,0.3626366,0.0,0.0,0.0,-1.0
13579956,13579854,0.06950256,-0.039966065,0.06484266,0.3641607,0.0,0.0,0.0,-1.0
13583157,13583054,0.09578455,-0.057388943,0.068394415,0.3641607,0.0,0.0,0.0,-1.0
13587163,13587054,0.0064130123,-0.02672596,0.075344354,0.3641607,0.0,0.0,0.0,-1.0
13589557,13589455,0.06316509,-0.02270673,0.10996157,0.3641607,0.0,0.0,0.0,-1.0
13593567,13593465,0.046557277,-0.062048424,0.10004065,0.3641607,0.0,0.0,0.0,-1.0
13597567,13597456,-0.0074097333,-0.02020579,0.06421725,0.3641607,0.0,0.0,0.0,-1.0
13600765,13600654,0.06883499,-0.036076892,0.086523205,0.36633825,0.0,0.0,0.0,-1.0
13605557,13605455,-0.023321379,-0.05124674,0.054093223,0.36633825,0.0,0.0,0.0,-1.0
13607963,13607854,-0.020852057,-0.015463934,0.030488705,0.36633825,0.0,0.0,0.0,-1.0
13611217,13611060,0.036144055,-0.049734406,0.04918357,0.36633825,0.0,0.0,0.0,-1.0
13615249,13615130,-0.0013996558,-0.06236601,0.060097035,0.36633825,0.0,0.0,0.0,-1.0
13617561,13617457,-0.055888977,-0.008222258,0.0018947353,0.36633825,0.0,0.0,0.0,-1.0
13621557,13621455,-0.01673175,-0.048741836,0.1003221,0.36684448,0.0,0.0,0.0,-1.0
13625569,13625454,-0.007798802,-0.052854728,0.1609255,0.36684448,0.0,0.0,0.0,-1.0
13629566,13629464,-0.061014652,-0.011116087,0.13239878,0.36684448,0.0,0.0,0.0,-1.0
13632884,13632725,-0.02282383,-0.050336547,0.19532198,0.36684448,0.0,0.0,0.0,-1.0
13635970,13635860,0.0054409853,-0.048827596,0.17609656,0.36684448,0.0,0.0,0.0,-1.0
13639168,13639054,-0.04086786,-0.026041616,0.10904202,0.36684448,0.0,0.0,0.0,-1.0
13643304,13643133,-0.023806736,-0.037468854,0.19846803,0.36490765,0.0,0.0,0.0,-1.0
13645564,13645455,0.013184517,-0.034736376,0.1248532,0.36490765,0.0,0.0,0.0,-1.0
13649563,13649454,-0.034423247,-0.02570221,0.04127856,0.36490765,0.0,0.0,0.0,-1.0
13653617,13653505,-0.020311063,-0.023365403,0.09550488,0.36490765,0.0,0.0,0.0,-1.0
13656772,13656654,0.0016583088,-0.024675816,0.067735024,0.36490765,0.0,0.0,0.0,-1.0
13661561,13661455,-0.016131872,-0.018792033,0.09720478,0.36490765,0.0,0.0,0.0,-1.0
13664017,13663914,-0.013011837,-0.016144805,0.11902411,0.36490765,0.0,0.0,0.0,-1.0
13667163,13667054,-0.0014953739,-0.019711172,0.21110925,0.36273485,0.0,0.0,0.0,-1.0
13671246,13671075,0.004636146,-0.019754635,0.2304647,0.36273485,0.0,0.0,0.0,-1.0
13673556,13673454,-0.006616774,0.0073551936,0.198732,0.36273485,0.0,0.0,0.0,-1.0
13677566,13677455,0.021839755,-0.006494598,0.19802088,0.36273485,0.0,0.0,0.0,-1.0
13681569,13681466,0.04306801,-0.005897293,0.16415685,0.36273485,0.0,0.0,0.0,-1.0
13685571,13685469,-0.03307383,0.012119891,0.08821842,0.36273485,0.0,0.0,0.0,-1.0
13688837,13688726,0.04820152,0.0018090873,0.12955269,0.36273485,0.0,0.0,0.0,-1.0
13692010,13691859,0.07496809,0.004388609,0.15192999,0.3619717,0.0,0.0,0.0,-1.0
13695201,13695099,-0.028059438,0.00522815,0.19681168,0.3619717,0.0,0.0,0.0,-1.0
13699238,13699124,0.027840205,0.021556469,0.23468468,0.3619717,0.0,0.0,0.0,-1.0
13702397,13702287,0.03907975,0.012053171,0.19122192,0.3619717,0.0,0.0,0.0,-1.0
13705601,13705499,-0.042105187,-0.022786682,0.18683454,0.3619717,0.0,0.0,0.0,-1.0
13710363,13710255,0.019839158,0.041007485,0.28900403,0.3614362,0.0,0.0,0.0,-1.0
13712843,13712672,0.045085855,0.018064838,0.23587543,0.3614362,0.0,0.0,0.0,-1.0
13716776,13716654,0.021828895,-0.011536292,0.24778023,0.3614362,0.0,0.0,0.0,-1.0
13719958,13719856,0.010967167,0.03867794,0.21059604,0.3614362,0.0,0.0,0.0,-1.0
13723164,13723062,0.042252,0.029360596,0.19048072,0.3614362,0.0,0.0,0.0,-1.0
13727156,13727054,0.06913733,-0.00633955,0.15751138,0.3603692,0.0,0.0,0.0,-1.0
13730365,13730257,0.000993497,0.013188048,0.19146082,0.3603692,0.0,0.0,0.0,-1.0
13735160,13735056,0.077413194,0.029010344,0.12714759,0.3603692,0.0,0.0,0.0,-1.0
13736814,13736699,0.09056993,0.01737548,0.1057439,0.3603692,0.0,0.0,0.0,-1.0
13740769,13740654,0.024521608,0.0008841674,0.14962591,0.3603692,0.0,0.0,0.0,-1.0
13744786,13744654,0.043685768,0.060953517,0.17049201,0.3603692,0.0,0.0,0.0,-1.0
13747960,13747858,0.060581803,0.012837048,0.16754803,0.36007988,0.0,0.0,0.0,-1.0
13751209,13751063,0.05066277,-0.022760497,0.23664811,0.36007988,0.0,0.0,0.0,-1.0
13755156,13755054,0.0057609505,0.08447796,0.20845176,0.36007988,0.0,0.0,0.0,-1.0
13758367,13758257,0.04377486,0.024740864,0.24003968,0.36007988,0.0,0.0,0.0,-1.0
13760772,13760654,0.093045905,-0.00808824,0.23255661,0.36007988,0.0,0.0,0.0,-1.0
13764773,13764662,0.026213221,0.03519914,0.166037,0.36007988,0.0,0.0,0.0,-1.0
13768777,13768657,0.055508763,0.055094548,0.16916145,0.36007988,0.0,0.0,0.0,-1.0
13772772,13772650,0.08661286,0.006921738,0.08652441,0.36052132,0.0,0.0,0.0,-1.0
13775969,13775854,0.033073097,-0.009202682,0.11138989,0.36052132,0.0,0.0,0.0,-1.0
13779156,13779054,0.038767774,0.059536528,0.117639914,0.36052132,0.0,0.0,0.0,-1.0
13783246,13783131,0.06468201,0.024716422,0.09258915,0.36052132,0.0,0.0,0.0,-1.0
13786377,13786275,0.075090066,-0.011288817,0.17309286,0.36052132,0.0,0.0,0.0,-1.0
13790377,13790272,0.021221802,0.0483964,0.16653055,0.36052132,0.0,0.0,0.0,-1.0
13792774,13792663,0.03691809,0.04702524,0.19577506,0.36052132,0.0,0.0,0.0,-1.0
13796837,13796663,0.10175437,-0.006035261,0.22869448,0.36108062,0.0,0.0,0.0,-1.0
13800789,13800654,-5.1334733e-05,0.0035435383,0.21736568,0.36108062,0.0,0.0,0.0,-1.0
13803956,13803854,0.06749427,0.04300294,0.25862485,0.36108062,0.0,0.0,0.0,-1.0
13807156,13807054,0.11064559,0.02534428,0.19922352,0.36108062,0.0,0.0,0.0,-1.0
13811235,13811063,0.045757253,-0.037260827,0.15271655,0.36108062,0.0,0.0,0.0,-1.0
13815160,13815056,0.076666065,0.035896763,0.12904683,0.36108062,0.0,0.0,0.0,-1.0
13816827,13816715,0.07554079,0.04220585,0.10105724,0.36108062,0.0,0.0,0.0,-1.0
13820765,13820654,0.08925065,-0.036568716,0.081717014,0.3618798,0.0,0.0,0.0,-1.0
13824765,13824654,0.023871105,-0.012659477,0.06457429,0.3618798,0.0,0.0,0.0,-1.0
13828776,13828654,0.09166724,0.0086976485,0.12822196,0.3618798,0.0,0.0,0.0,-1.0
13832009,13831862,0.115974784,-0.016530575,0.13263889,0.3618798,0.0,0.0,0.0,-1.0
13835156,13835054,0.024987822,-0.056639686,0.15143321,0.3627447,0.0,0.0,0.0,-1.0
13839159,13839057,0.07322123,-0.00019935273,0.23826489,0.3627447,0.0,0.0,0.0,-1.0
13842367,13842259,0.077496916,-0.009054682,0.22905135,0.3627447,0.0,0.0,0.0,-1.0
13844765,13844654,0.06575567,-0.06944967,0.22761351,0.3627447,0.0,0.0,0.0,-1.0
13849567,13849456,0.07075873,-0.010639349,0.21787953,0.3627447,0.0,0.0,0.0,-1.0
13852812,13852660,0.094635576,-0.03222996,0.21125197,0.3627447,0.0,0.0,0.0,-1.0
13855961,13855855,0.14451875,-0.026783634,0.1497081,0.3627447,0.0,0.0,0.0,-1.0
13859966,13859854,0.04021266,-0.054198135,0.09197879,0.3632472,0.0,0.0,0.0,-1.0
13863966,13863855,0.12755533,-0.01889013,0.1060449,0.3632472,0.0,0.0,0.0,-1.0
13867240,13867124,0.13337186,-0.016102275,0.06583129,0.3632472,0.0,0.0,0.0,-1.0
13871157,13871055,0.05394685,-0.07422564,0.059475172,0.3632472,0.0,0.0,0.0,-1.0
13873623,13873463,0.09117894,-0.034190137,0.12785125,0.3632472,0.0,0.0,0.0,-1.0
13877563,13877454,0.09497164,-0.031279385,0.15206762,0.3632472,0.0,0.0,0.0,-1.0
13879973,13879870,0.10929421,-0.061689503,0.15785176,0.3632472,0.0,0.0,0.0,-1.0
13884002,13883896,0.06235963,-0.031792328,0.19018656,0.36292416,0.0,0.0,0.0,-1.0
13887964,13887857,0.099056624,-0.04697645,0.2758801,0.36292416,0.0,0.0,0.0,-1.0
13891180,13891067,0.14932965,-0.020355927,0.2257673,0.36292416,0.0,0.0,0.0,-1.0
13895157,13895055,0.041145265,-0.061652284,0.18557632,0.36292416,0.0,0.0,0.0,-1.0
13898372,13898254,0.08782343,-0.035147883,0.2073587,0.36292416,0.0,0.0,0.0,-1.0
13901556,13901454,0.121413864,-0.010452664,0.15603063,0.36270627,0.0,0.0,0.0,-1.0
13905556,13905454,0.07218808,-0.062090963,0.13747504,0.36270627,0.0,0.0,0.0,-1.0
13907956,13907854,0.062389445,-0.034913376,0.074677184,0.36270627,0.0,0.0,0.0,-1.0
13912010,13911863,0.084451586,-0.019041091,0.04816235,0.36270627,0.0,0.0,0.0,-1.0
13915956,13915854,0.111228704,-0.031756494,0.060414843,0.36270627,0.0,0.0,0.0,-1.0
13919964,13919855,0.0050538457,-0.029565569,0.06260638,0.36270627,0.0,0.0,0.0,-1.0
13923156,13923054,0.08993458,-0.023511523,0.14668873,0.36270627,0.0,0.0,0.0,-1.0
13927166,13927055,0.075062945,-0.022488851,0.15344211,0.36268905,0.0,0.0,0.0,-1.0
13929556,13929454,0.01932512,-0.04757479,0.17430502,0.36268905,0.0,0.0,0.0,-1.0
13933641,13933472,0.091261566,-0.0075839297,0.22151959,0.36268905,0.0,0.0,0.0,-1.0
13935957,13935855,0.08598631,0.0035903372,0.20927063,0.36268905,0.0,0.0,0.0,-1.0
13939963,13939860,0.048314627,-0.057914134,0.18017173,0.36268905,0.0,0.0,0.0,-1.0
13943971,13943867,0.049460012,0.008575244,0.1466321,0.36268905,0.0,0.0,0.0,-1.0
13947156,13947054,0.0401061,-0.0068216864,0.084380314,0.36268905,0.0,0.0,0.0,-1.0
13951248,13951125,0.0889596,-0.031128239,0.06940362,0.3620463,0.0,0.0,0.0,-1.0
13954468,13954286,0.020353127,-0.03215871,0.043111794,0.3620463,0.0,0.0,0.0,-1.0
13957559,13957454,0.051549003,0.0023009838,0.08048506,0.3620463,0.0,0.0,0.0,-1.0
13961588,13961467,0.069011964,-0.03269747,0.06955239,0.3620463,0.0,0.0,0.0,-1.0
13963956,13963854,0.02501085,-0.06125786,0.058625765,0.36181223,0.0,0.0,0.0,-1.0
13968006,13967899,0.049275074,0.034541775,0.10454084,0.36181223,0.0,0.0,0.0,-1.0
13972051,13971870,0.048782982,-0.042165935,0.15118065,0.36181223,0.0,0.0,0.0,-1.0
13975162,13975055,0.06253557,-0.061305203,0.20581228,0.36181223,0.0,0.0,0.0,-1.0
13979175,13979056,0.016181765,0.03165299,0.17915344,0.36181223,0.0,0.0,0.0,-1.0
13983964,13983856,0.09684905,-0.04811568,0.19305024,0.36181223,0.0,0.0,0.0,-1.0
13985559,13985454,0.08720193,-0.036383722,0.15952672,0.36181223,0.0,0.0,0.0,-1.0
13989569,13989457,0.023421993,-0.01866054,0.11476274,0.3618516,0.0,0.0,0.0,-1.0
13991962,13991855,0.065964885,-0.0020912003,0.08673552,0.3618516,0.0,0.0,0.0,-1.0
13995963,13995857,0.06752693,-0.05242857,0.01983434,0.3618516,0.0,0.0,0.0,-1.0
13999161,13999059,0.03681399,-0.054422833,0.02596382,0.3618516,0.0,0.0,0.0,-1.0
14003173,14003057,0.05876445,0.015709605,-0.0066833347,0.3618516,0.0,0.0,0.0,-1.0
14007218,14007101,0.043490127,-0.06602659,0.03629428,0.36191195,0.0,0.0,0.0,-1.0
14010382,14010257,0.054533873,-0.044395346,0.10107038,0.36191195,0.0,0.0,0.0,-1.0
14015164,14015055,0.029260553,-0.011184419,0.08772163,0.36191195,0.0,0.0,0.0,-1.0
14017601,14017499,0.055154916,-0.062656075,0.16328038,0.36191195,0.0,0.0,0.0,-1.0
14020763,14020654,0.05617624,-0.034275863,0.16330102,0.36191195,0.0,0.0,0.0,-1.0
14024785,14024671,0.010707264,-0.0037707414,0.12060214,0.36191195,0.0,0.0,0.0,-1.0
14028008,14027906,0.08142291,-0.022511002,0.18100064,0.3636241,0.0,0.0,0.0,-1.0
14031172,14031056,0.053190228,-0.03547011,0.12574598,0.3636241,0.0,0.0,0.0,-1.0
14035239,14035125,0.00093572075,-0.008765817,0.05650229,0.3636241,0.0,0.0,0.0,-1.0
14039157,14039055,0.061011948,-0.005477261,0.04861636,0.3636241,0.0,0.0,0.0,-1.0
14041565,14041456,0.029111736,-0.026472338,0.015968448,0.3636241,0.0,0.0,0.0,-1.0
14045577,14045462,0.0047961725,-0.0050731963,0.0028967522,0.3636241,0.0,0.0,0.0,-1.0
14048808,14048705,0.024157416,0.0032243722,0.04123757,0.3636241,0.0,0.0,0.0,-1.0
14052083,14051932,0.00528444,-0.03510386,0.06730959,0.36763987,0.0,0.0,0.0,-1.0
14055178,14055069,0.04457273,-0.010766583,0.11358867,0.36763987,0.0,0.0,0.0,-1.0
14059211,14059103,-0.03063266,-4.7978247e-05,0.07337586,0.36763987,0.0,0.0,0.0,-1.0
14063157,14063055,0.018436536,-0.04204225,0.17087144,0.36763987,0.0,0.0,0.0,-1.0
14066386,14066262,0.05800522,-0.006277719,0.16889107,0.36763987,0.0,0.0,0.0,-1.0
14069601,14069499,-0.03760301,-0.03694128,0.08770626,0.3745601,0.0,0.0,0.0,-1.0
14073624,14073459,0.014387896,-0.047441907,0.13481107,0.3745601,0.0,0.0,0.0,-1.0
14076764,14076662,0.038672537,-0.04777356,0.0884895,0.3745601,0.0,0.0,0.0,-1.0
14080766,14080654,-0.018281726,-0.039728563,0.045277186,0.3745601,0.0,0.0,0.0,-1.0
14083163,14083054,0.012353839,-0.035347573,0.05095936,0.3745601,0.0,0.0,0.0,-1.0
14087172,14087064,0.024384279,-0.045768887,0.0047960673,0.3745601,0.0,0.0,0.0,-1.0
14091222,14091061,0.009178728,-0.024352256,0.0018018391,0.3745601,0.0,0.0,0.0,-1.0
14095157,14095055,-0.0012165587,-0.07918152,0.044735454,0.3851579,0.0,0.0,0.0,-1.0
14097563,14097461,0.0020163464,-0.074646324,0.042958476,0.3851579,0.0,0.0,0.0,-1.0
14101559,14101457,0.041921776,-0.057112716,0.0729541,0.3851579,0.0,0.0,0.0,-1.0
14104756,14104654,-0.009506756,-0.06585877,0.07690242,0.3851579,0.0,0.0,0.0,-1.0
14108771,14108656,0.024050513,-0.06634835,0.10015385,0.3851579,0.0,0.0,0.0,-1.0
14111203,14111100,0.059654854,-0.047617596,0.12094284,0.3851579,0.0,0.0,0.0,-1.0
14115174,14115061,-0.035948537,-0.028531946,0.106125295,0.3851579,0.0,0.0,0.0,-1.0
14119233,14119116,0.08358971,-0.09455719,0.07035567,0.3996014,0.0,0.0,0.0,-1.0
14122375,14122257,0.07613748,-0.079514906,0.022853557,0.3996014,0.0,0.0,0.0,-1.0
14125562,14125460,-0.02996507,-0.06417286,0.0010412298,0.3996014,0.0,0.0,0.0,-1.0
14129570,14129454,0.08501844,-0.04163446,0.0051518083,0.3996014,0.0,0.0,0.0,-1.0
14132816,14132660,0.08828166,-0.14992855,-0.042107828,0.41542497,0.0,0.0,0.0,-1.0
14136771,14136657,0.034465484,-0.119651586,-0.020779362,0.41542497,0.0,0.0,0.0,-1.0
14139194,14139091,0.09685633,-0.08390645,-0.0020125378,0.41542497,0.0,0.0,0.0,-1.0
14142423,14142312,0.09657975,-0.115152106,0.003552299,0.41542497,0.0,0.0,0.0,-1.0
14146382,14146254,0.035672434,-0.060003616,0.058241043,0.41542497,0.0,0.0,0.0,-1.0
14150385,14150264,0.08647561,-0.0504127,0.07838197,0.41542497,0.0,0.0,0.0,-1.0
14153623,14153462,0.1485832,-0.12747993,0.078958906,0.42794997,0.0,0.0,0.0,-1.0
14157556,14157454,0.09882392,-0.04791631,0.07657782,0.42794997,0.0,0.0,0.0,-1.0
14160756,14160654,0.097389735,-0.047911085,0.06068064,0.42794997,0.0,0.0,0.0,-1.0
14164766,14164654,0.12931278,-0.085357286,0.029774792,0.42794997,0.0,0.0,0.0,-1.0
14167958,14167855,0.11388459,-0.045086876,0.00082238205,0.42794997,0.0,0.0,0.0,-1.0
14170379,14170267,0.08529273,0.0004303027,-0.0026629716,0.42794997,0.0,0.0,0.0,-1.0
14174443,14174264,0.1084992,-0.009143315,0.0071341936,0.42794997,0.0,0.0,0.0,-1.0
14178374,14178256,0.16260013,-0.015408555,-0.06174423,0.4372882,0.0,0.0,0.0,-1.0
14181569,14181454,0.12364745,0.0030722953,-0.010051316,0.4372882,0.0,0.0,0.0,-1.0
14185570,14185454,0.13873112,0.008913821,-0.009885041,0.4372882,0.0,0.0,0.0,-1.0
14188756,14188654,0.12695251,0.0069387723,-0.00608808,0.4372882,0.0,0.0,0.0,-1.0
14192775,14192656,0.099064305,0.035694875,0.052087784,0.4372882,0.0,0.0,0.0,-1.0
14195958,14195856,0.1176121,0.0030304454,0.005953692,0.4372882,0.0,0.0,0.0,-1.0
14198371,14198254,0.17896938,-0.01966169,0.02034789,0.4443974,0.0,0.0,0.0,-1.0
14202374,14202257,0.14240645,0.010427307,0.05535141,0.4443974,0.0,0.0,0.0,-1.0
14206379,14206261,0.12673044,-0.023053106,0.005811246,0.4443974,0.0,0.0,0.0,-1.0
14209556,14209454,0.13276903,0.010712586,0.04615809,0.4443974,0.0,0.0,0.0,-1.0
14213627,14213459,0.05629768,0.014645729,0.00434749,0.4443974,0.0,0.0,0.0,-1.0
14216776,14216664,0.10327429,-0.030566161,-0.008724533,0.4443974,0.0,0.0,0.0,-1.0
14220781,14220664,0.10463297,0.010867218,-0.021161204,0.44689327,0.0,0.0,0.0,-1.0
14223957,14223854,0.057241615,-0.023999855,-0.059746362,0.44689327,0.0,0.0,0.0,-1.0
14226374,14226256,0.09803466,-0.06345501,-0.035273682,0.44689327,0.0,0.0,0.0,-1.0
14231964,14231855,0.03417944,0.00206431,-0.038021844,0.44689327,0.0,0.0,0.0,-1.0
14234381,14234254,-0.024754008,-0.035814047,-0.027454667,0.44689327,0.0,0.0,0.0,-1.0
14237560,14237458,0.083769724,-0.030349534,-0.01046027,0.44689327,0.0,0.0,0.0,-1.0
14241556,14241454,-0.03121249,-0.019131204,0.0037313886,0.44608402,0.0,0.0,0.0,-1.0
14244813,14244665,-0.018759605,-0.023674935,0.005631162,0.44608402,0.0,0.0,0.0,-1.0
14248766,14248654,0.009196612,-0.01876154,0.0009697173,0.44608402,0.0,0.0,0.0,-1.0
14252019,14251873,-0.00540795,-0.010317415,-0.007600257,0.44608402,0.0,0.0,0.0,-1.0
14254380,14254256,0.009820208,-0.02029876,0.0065441327,0.44608402,0.0,0.0,0.0,-1.0
14258371,14258254,-0.0201867,-0.009708496,-0.019665528,0.44608402,0.0,0.0,0.0,-1.0
14263983,14263872,0.025197225,-0.00635352,-0.040764093,0.44608402,0.0,0.0,0.0,-1.0
14265556,14265454,-0.007341394,-0.015931848,-0.056645222,0.4439382,0.0,0.0,0.0,-1.0
14269556,14269454,-0.044463728,0.021269044,-0.024630386,0.4439382,0.0,0.0,0.0,-1.0
14272810,14272663,-0.003184149,0.017601538,-0.01975416,0.4439382,0.0,0.0,0.0,-1.0
14276766,14276654,-0.032348834,0.0006071506,-0.04701541,0.4439382,0.0,0.0,0.0,-1.0
14279959,14279856,-0.016353795,0.02717438,-0.012052194,0.4439382,0.0,0.0,0.0,-1.0
14282381,14282259,0.037120767,0.021114696,0.0054171095,0.4439382,0.0,0.0,0.0,-1.0
14286378,14286261,-0.061538376,0.018988006,-0.00655582,0.43990877,0.0,0.0,0.0,-1.0
14290375,14290257,-0.005266551,0.027400583,0.053351793,0.43990877,0.0,0.0,0.0,-1.0
14293623,14293458,-0.006301866,0.023824614,-0.0067206183,0.43990877,0.0,0.0,0.0,-1.0
14297570,14297456,-0.026149292,0.033117015,0.019784782,0.43990877,0.0,0.0,0.0,-1.0
14300763,14300654,0.03882772,0.014478264,0.042486545,0.43990877,0.0,0.0,0.0,-1.0
14304792,14304671,-0.018711023,0.027488373,-0.0450482,0.43990877,0.0,0.0,0.0,-1.0
14307956,14307854,0.021488111,0.025197163,-0.011882508,0.43990877,0.0,0.0,0.0,-1.0
14312760,14312657,-0.0045998194,0.0035100002,-0.075672664,0.4357845,0.0,0.0,0.0,-1.0
14316011,14315871,-0.055700626,0.02997105,-0.06359867,0.4357845,0.0,0.0,0.0,-1.0
14317569,14317456,-0.007817217,0.021494392,-0.016885243,0.4357845,0.0,0.0,0.0,-1.0
14321560,14321454,0.04924838,-0.015380723,-0.043357395,0.4357845,0.0,0.0,0.0,-1.0
14325573,14325454,-0.016979638,0.014458446,-0.0054583577,0.4357845,0.0,0.0,0.0,-1.0
14328761,14328656,0.024665004,0.00061185565,0.03772641,0.43335205,0.0,0.0,0.0,-1.0
14332770,14332654,-0.01818837,0.0026663626,-0.008291852,0.43335205,0.0,0.0,0.0,-1.0
14337610,14337506,0.053875767,-0.013563926,0.048607543,0.43335205,0.0,0.0,0.0,-1.0
14339165,14339054,0.035076126,-0.00019792025,0.0029708575,0.43335205,0.0,0.0,0.0,-1.0
14343954,14343852,0.002445836,0.001724117,-0.026117478,0.43335205,0.0,0.0,0.0,-1.0
14345607,14345461,0.04273128,-0.008318914,0.00071546435,0.43335205,0.0,0.0,0.0,-1.0
14349559,14349457,0.059675656,-0.0048659397,-0.04751583,0.43156323,0.0,0.0,0.0,-1.0
14353568,14353454,-0.02147293,0.023659002,-0.042282507,0.43156323,0.0,0.0,0.0,-1.0
14356763,14356654,0.07238368,-0.008469418,-0.004773559,0.43156323,0.0,0.0,0.0,-1.0
14361557,14361455,0.0014182022,0.021739833,-0.04354229,0.43156323,0.0,0.0,0.0,-1.0
14363972,14363854,-0.0009511234,0.020877354,0.0043448685,0.43156323,0.0,0.0,0.0,-1.0
14367168,14367054,0.066165715,0.006265797,0.008038244,0.43156323,0.0,0.0,0.0,-1.0
14371461,14371311,0.0052429694,0.027250132,-0.006616745,0.43156323,0.0,0.0,0.0,-1.0
14373556,14373454,0.004861704,0.03603407,0.058623463,0.42934155,0.0,0.0,0.0,-1.0
14377568,14377456,0.07324886,0.021591475,0.04271855,0.42934155,0.0,0.0,0.0,-1.0
14381648,14381529,-0.016068013,0.0427533,0.023977898,0.42934155,0.0,0.0,0.0,-1.0
14385561,14385457,0.1042436,0.011679826,0.04184355,0.42934155,0.0,0.0,0.0,-1.0
14388781,14388662,0.039385863,0.0332483,-0.018144706,0.42934155,0.0,0.0,0.0,-1.0
14393559,14393455,0.06613681,0.014409804,0.0067598876,0.42934155,0.0,0.0,0.0,-1.0
14395163,14395054,0.08572363,0.016706677,-0.0051856693,0.42934155,0.0,0.0,0.0,-1.0
14399164,14399062,-0.014712042,0.060512703,-0.05401471,0.4295498,0.0,0.0,0.0,-1.0
14401567,14401456,-0.012236094,0.039840404,-0.022419501,0.4295498,0.0,0.0,0.0,-1.0
14405565,14405456,0.0822983,0.0149252815,-0.008613393,0.4295498,0.0,0.0,0.0,-1.0
14409575,14409466,-0.023967827,0.035741314,-1.1995435e-06,0.4295498,0.0,0.0,0.0,-1.0
14412802,14412699,0.054865193,0.015321707,0.048478596,0.4295498,0.0,0.0,0.0,-1.0
14417558,14417455,-0.015946949,0.04506067,0.0073270663,0.4334568,0.0,0.0,0.0,-1.0
14419973,14419862,-0.03167145,0.04299957,0.03951243,0.4334568,0.0,0.0,0.0,-1.0
14423201,14423099,0.06974398,0.02811037,0.024808964,0.4334568,0.0,0.0,0.0,-1.0
14427156,14427054,0.007335101,0.035745382,-0.0074645737,0.4334568,0.0,0.0,0.0,-1.0
14429572,14429456,-0.006983676,0.021487195,0.03745716,0.4334568,0.0,0.0,0.0,-1.0
14433620,14433507,0.08245805,-0.00084431237,0.015252301,0.4334568,0.0,0.0,0.0,-1.0
14437556,14437454,0.0021333871,0.015872858,-0.017221363,0.43757576,0.0,0.0,0.0,-1.0
14441575,14441473,0.0872599,-0.013319866,0.0051825033,0.43757576,0.0,0.0,0.0,-1.0
14444780,14444668,0.068806395,-0.0076634223,-0.029338403,0.43757576,0.0,0.0,0.0,-1.0
14448768,14448657,0.031266943,-0.0060770838,0.015601547,0.43757576,0.0,0.0,0.0,-1.0
14451226,14451065,0.084743164,-0.026658438,0.023888018,0.43757576,0.0,0.0,0.0,-1.0
14455242,14455127,0.062362723,-0.013302799,-0.013967732,0.44172776,0.0,0.0,0.0,-1.0
14458392,14458290,0.042340383,-0.020223025,0.012856957,0.44172776,0.0,0.0,0.0,-1.0
14460763,14460654,0.089120924,-0.039728627,0.040007364,0.44172776,0.0,0.0,0.0,-1.0
14464807,14464705,0.04660114,-0.011526129,0.022198712,0.44172776,0.0,0.0,0.0,-1.0
14468763,14468654,0.048351865,-0.040137257,0.06590927,0.44172776,0.0,0.0,0.0,-1.0
14472775,14472655,0.06423249,-0.03579054,0.03831177,0.44172776,0.0,0.0,0.0,-1.0
