timestamp,q[0],q[1],q[2],q[3],delta_q_reset[0],delta_q_reset[1],delta_q_reset[2],delta_q_reset[3],quat_reset_counter
11850254,0.7219314,0.16371606,0.039885275,-0.6711344,0.99999213,6.7006494e-09,-3.8543384e-08,0.003968842,2
11854313,0.72217894,0.16025719,0.040915556,-0.67164075,0.99999213,6.7006494e-09,-3.8543384e-08,0.003968842,2
11858282,0.7225588,0.15593752,0.04210976,-0.67217493,0.99999213,6.7006494e-09,-3.8543384e-08,0.003968842,2
11862261,0.7228895,0.1520252,0.043342445,-0.67263705,0.99999213,6.7006494e-09,-3.8543384e-08,0.003968842,2
11866254,0.7233074,0.14773272,0.044563655,-0.67306435,0.99999213,6.7006494e-09,-3.8543384e-08,0.003968842,2
11870259,0.72383446,0.14257714,0.045804117,-0.6735262,0.99999213,6.7006494e-09,-3.8543384e-08,0.003968842,2
11874262,0.7243593,0.13787894,0.04710334,-0.6738504,0.99999213,6.7006494e-09,-3.8543384e-08,0.003968842,2
11878254,0.7250023,0.13274339,0.048600413,-0.67408377,0.99999213,6.7006494e-09,-3.8543384e-08,0.003968842,2
11882259,0.7257073,0.12686045,0.04991529,-0.6743618,0.99999213,6.7006494e-09,-3.8543384e-08,0.003968842,2
11886282,0.7264,0.12169071,0.050899647,-0.67449516,0.99999213,6.7006494e-09,-3.8543384e-08,0.003968842,2
11890256,0.72722185,0.11633787,0.052176934,-0.6744565,0.99999213,6.7006494e-09,-3.8543384e-08,0.003968842,2
11894256,0.7280375,0.11051354,0.05340613,-0.6744598,0.99999213,6.7006494e-09,-3.8543384e-08,0.003968842,2
11898259,0.72881943,0.10513334,0.05425538,-0.6744076,0.99999213,6.7006494e-09,-3.8543384e-08,0.003968842,2
11902256,0.72976637,0.09992562,0.055294853,-0.6740908,0.99999213,6.7006494e-09,-3.8543384e-08,0.003968842,2
11906292,0.7306883,0.09470322,0.05599368,-0.6737883,0.99999213,6.7006494e-09,-3.8543384e-08,0.003968842,2
11910257,0.7315665,0.08969224,0.056737177,-0.67345876,0.99999213,6.7006494e-09,-3.8543384e-08,0.003968842,2
11914327,0.73262626,0.08491621,0.057216313,-0.6728851,0.99999213,6.7006494e-09,-3.8543384e-08,0.003968842,2
11918300,0.73359174,0.08086318,0.05773576,-0.6722879,0.99999213,6.7006494e-09,-3.8543384e-08,0.003968842,2
11922257,0.73454106,0.076739825,0.058276784,-0.67168766,0.99999213,6.7006494e-09,-3.8543384e-08,0.003968842,2
11926254,0.73560125,0.072979316,0.058397558,-0.67093563,0.99999213,6.7006494e-09,-3.8543384e-08,0.003968842,2
11930261,0.7366024,0.06980622,0.058678064,-0.67014986,0.99999213,6.7006494e-09,-3.8543384e-08,0.003968842,2
11934259,0.73759294,0.066610955,0.058789037,-0.6693755,0.99999213,6.7006494e-09,-3.8543384e-08,0.003968842,2
11938259,0.73864675,0.063810535,0.058285393,-0.66852987,0.99999213,6.7006494e-09,-3.8543384e-08,0.003968842,2
11942279,0.73967093,0.061271228,0.05823786,-0.66763854,0.99999213,6.7006494e-09,-3.8543384e-08,0.003968842,2
11946261,0.74064404,0.058819238,0.057651974,-0.66683066,0.99999213,6.7006494e-09,-3.8543384e-08,0.003968842,2
11950256,0.74165106,0.05676624,0.056460425,-0.66599077,0.99999213,6.7006494e-09,-3.8543384e-08,0.003968842,2
11954274,0.74268335,0.054653324,0.055808455,-0.66507137,0.99999213,6.7006494e-09,-3.8543384e-08,0.003968842,2
11958285,0.74375117,0.052347876,0.054437414,-0.6641765,0.99999213,6.7006494e-09,-3.8543384e-08,0.003968842,2
11962256,0.7448137,0.05058046,0.052689135,-0.6632632,0.99999213,6.7006494e-09,-3.8543384e-08,0.003968842,2
11966261,0.7459444,0.048758507,0.051293142,-0.6622376,0.99999213,6.7006494e-09,-3.8543384e-08,0.003968842,2
11970280,0.74714005,0.046535924,0.049178775,-0.66120917,0.99999213,6.7006494e-09,-3.8543384e-08,0.003968842,2
11974256,0.7483293,0.04466496,0.04711002,-0.6601432,0.99999213,6.7006494e-09,-3.8543384e-08,0.003968842,2
11978260,0.74956304,0.042950533,0.045169666,-0.6589918,0.99999213,6.7006494e-09,-3.8543384e-08,0.003968842,2
11982256,0.7508067,0.040865302,0.04278365,-0.6578671,0.99999213,6.7006494e-09,-3.8543384e-08,0.003968842,2
11986257,0.751999,0.038951147,0.040683713,-0.6567536,0.99999213,6.7006494e-09,-3.8543384e-08,0.003968842,2
11990256,0.7531917,0.037377696,0.03859818,-0.6556032,0.99999213,6.7006494e-09,-3.8543384e-08,0.003968842,2
11994254,0.75437635,0.035479397,0.036296826,-0.65447694,0.99999213,6.7006494e-09,-3.8543384e-08,0.003968842,2
11998280,0.755568,0.03372124,0.034624312,-0.65328485,0.99999213,6.7006494e-09,-3.8543384e-08,0.003968842,2
12002301,0.75671756,0.032250777,0.032683596,-0.6521275,0.99999213,6.7006494e-09,-3.8543384e-08,0.003968842,2
12006256,0.7578995,0.030826462,0.030850157,-0.650912,0.99999213,6.7006494e-09,-3.8543384e-08,0.003968842,2
12010318,0.75909,0.029464042,0.02948222,-0.64965,0.99999213,6.7006494e-09,-3.8543384e-08,0.003968842,2
12014257,0.76025987,0.028145213,0.028404266,-0.64838725,0.99999213,6.7006494e-09,-3.8543384e-08,0.003968842,2
12018259,0.76150125,0.027396575,0.026644232,-0.6470359,0.99999213,6.7006494e-09,-3.8543384e-08,0.003968842,2
12022262,0.7628317,0.026381908,0.02598741,-0.6455359,0.99999213,6.7006494e-09,-3.8543384e-08,0.003968842,2
12026279,0.7641629,0.025460858,0.025359314,-0.6440216,0.99999213,6.7006494e-09,-3.8543384e-08,0.003968842,2
12042257,0.76969457,0.023539223,0.022883069,-0.63756776,0.99999213,6.7006494e-09,-3.8543384e-08,0.003968842,2
12046259,0.77107054,0.022717515,0.022602223,-0.6359428,0.99999213,6.7006494e-09,-3.8543384e-08,0.003968842,2
12050260,0.77250177,0.022604164,0.02178854,-0.63423604,0.99999213,6.7006494e-09,-3.8543384e-08,0.003968842,2
12054281,0.7738864,0.021839805,0.021629974,-0.63257825,0.99999213,6.7006494e-09,-3.8543384e-08,0.003968842,2
12058256,0.7752816,0.02105624,0.020896649,-0.6309187,0.99999213,6.7006494e-09,-3.8543384e-08,0.003968842,2
12062292,0.7768004,0.020663135,0.020118695,-0.6290864,0.99999213,6.7006494e-09,-3.8543384e-08,0.003968842,2
12066257,0.7782353,0.019530764,0.019927252,-0.62735254,0.99999213,6.7006494e-09,-3.8543384e-08,0.003968842,2
12070262,0.77979255,0.01888765,0.018727692,-0.6254728,0.99999213,6.7006494e-09,-3.8543384e-08,0.003968842,2
12075054,0.7816949,0.01774027,0.018116552,-0.6231455,0.99999213,6.7006494e-09,-3.8543384e-08,0.003968842,2
12079054,0.7832909,0.016621638,0.017485486,-0.621187,0.99999213,6.7006494e-09,-3.8543384e-08,0.003968842,2
12083854,0.7853215,0.01578042,0.015922653,-0.61868215,0.99999213,6.7006494e-09,-3.8543384e-08,0.003968842,2
12087854,0.7869341,0.014356298,0.015573024,-0.6166734,0.99999213,6.7006494e-09,-3.8543384e-08,0.003968842,2
12091867,0.78860474,0.013727246,0.014272615,-0.61458147,0.99999213,6.7006494e-09,-3.8543384e-08,0.003968842,2
12095854,0.79021966,0.012826324,0.013289806,-0.61254543,0.99999213,6.7006494e-09,-3.8543384e-08,0.003968842,2
12099857,0.79183865,0.011716538,0.012411657,-0.6104919,0.99999213,6.7006494e-09,-3.8543384e-08,0.003968842,2
12103886,0.7935027,0.011153513,0.011490505,-0.608356,0.99999213,6.7006494e-09,-3.8543384e-08,0.003968842,2
12107854,0.7950247,0.010099327,0.010741069,-0.606398,0.99999213,6.7006494e-09,-3.8543384e-08,0.003968842,2
12111854,0.79667884,0.00948484,0.009354424,-0.60425615,0.99999213,6.7006494e-09,-3.8543384e-08,0.003968842,2
12115854,0.7983215,0.008952223,0.00888177,-0.6020996,0.99999213,6.7006494e-09,-3.8543384e-08,0.003968842,2
12119896,0.79990375,0.007986494,0.008401709,-0.6000165,0.99999213,6.7006494e-09,-3.8543384e-08,0.003968842,2
12123854,0.8015686,0.007856579,0.0071291113,-0.5978087,0.99999213,6.7006494e-09,-3.8543384e-08,0.003968842,2
12127854,0.8031818,0.007097056,0.0069227926,-0.59565145,0.99999213,6.7006494e-09,-3.8543384e-08,0.003968842,2
12131888,0.80488795,0.00667181,0.0063709654,-0.5933551,0.99999213,6.7006494e-09,-3.8543384e-08,0.003968842,2
12135890,0.8065914,0.0064975815,0.0055447267,-0.5910479,0.99999213,6.7006494e-09,-3.8543384e-08,0.003968842,2
12139874,0.80820864,0.0056812875,0.0054462054,-0.5888437,0.99999213,6.7006494e-09,-3.8543384e-08,0.003968842,2
12143854,0.8099228,0.0056407456,0.0047830683,-0.58649004,0.99999213,6.7006494e-09,-3.8543384e-08,0.003968842,2
12147854,0.8115706,0.0050438563,0.0048455657,-0.58421254,0.99999213,6.7006494e-09,-3.8543384e-08,0.003968842,2
12151872,0.8132383,0.0046533756,0.0045738937,-0.5818944,0.99999213,6.7006494e-09,-3.8543384e-08,0.003968842,2
12155886,0.8149875,0.0046226447,0.0040366445,-0.579446,0.99999213,6.7006494e-09,-3.8543384e-08,0.003968842,2
12159854,0.8166082,0.0035872445,0.0048276475,-0.57716125,0.99999213,6.7006494e-09,-3.8543384e-08,0.003968842,2
12163854,0.8183323,0.0037240116,0.0043182564,-0.57471704,0.99999213,6.7006494e-09,-3.8543384e-08,0.003968842,2
12167857,0.8200653,0.0033345935,0.0042270306,-0.57224476,0.99999213,6.7006494e-09,-3.8543384e-08,0.003968842,2
12171854,0.8217694,0.0025544977,0.0048612193,-0.5697937,0.99999213,6.7006494e-09,-3.8543384e-08,0.003968842,2
12175854,0.823561,0.0029228013,0.004511698,-0.5672022,0.99999213,6.7006494e-09,-3.8543384e-08,0.003968842,2
12179854,0.8252293,0.002264445,0.00506621,-0.56477064,0.99999213,6.7006494e-09,-3.8543384e-08,0.003968842,2
12183863,0.82693976,0.0022477398,0.0048000067,-0.56226563,0.99999213,6.7006494e-09,-3.8543384e-08,0.003968842,2
12187854,0.82871026,0.0025763633,0.004703793,-0.5596522,0.99999213,6.7006494e-09,-3.8543384e-08,0.003968842,2
12191854,0.8303213,0.0018849757,0.005511481,-0.55725443,0.99999213,6.7006494e-09,-3.8543384e-08,0.003968842,2
12195854,0.8320327,0.0027150314,0.0048320377,-0.5546989,0.99999213,6.7006494e-09,-3.8543384e-08,0.003968842,2
12199854,0.8336987,0.0027321095,0.00490492,-0.55219126,0.99999213,6.7006494e-09,-3.8543384e-08,0.003968842,2
12203896,0.8353685,0.0024895784,0.0054872488,-0.5496574,0.99999213,6.7006494e-09,-3.8543384e-08,0.003968842,2
12207886,0.837093,0.003423424,0.004974573,-0.54702723,0.99999213,6.7006494e-09,-3.8543384e-08,0.003968842,2
12211873,0.8387343,0.0030453324,0.005161734,-0.54450786,0.99999213,6.7006494e-09,-3.8543384e-08,0.003968842,2
12215854,0.8404516,0.003410681,0.0052484493,-0.5418505,0.99999213,6.7006494e-09,-3.8543384e-08,0.003968842,2
12219854,0.842171,0.004043383,0.005000105,-0.53917235,0.99999213,6.7006494e-09,-3.8543384e-08,0.003968842,2
12223864,0.84380466,0.0036956994,0.005172704,-0.5366129,0.99999213,6.7006494e-09,-3.8543384e-08,0.003968842,2
12227854,0.84552133,0.004356775,0.004716172,-0.5339031,0.99999213,6.7006494e-09,-3.8543384e-08,0.003968842,2
12231869,0.84717953,0.0044839345,0.004883889,-0.53126544,0.99999213,6.7006494e-09,-3.8543384e-08,0.003968842,2
12235860,0.8487521,0.004062983,0.004858894,-0.52875316,0.99999213,6.7006494e-09,-3.8543384e-08,0.003968842,2
12239863,0.8504238,0.004579051,0.0042133527,-0.5260615,0.99999213,6.7006494e-09,-3.8543384e-08,0.003968842,2
12243857,0.85200554,0.004165409,0.004488786,-0.5234969,0.99999213,6.7006494e-09,-3.8543384e-08,0.003968842,2
12247857,0.8535818,0.0038413026,0.0042340215,-0.52092767,0.99999213,6.7006494e-09,-3.8543384e-08,0.003968842,2
12251872,0.85524386,0.0039659757,0.0036289757,-0.5181981,0.99999213,6.7006494e-09,-3.8543384e-08,0.003968842,2
12255859,0.8568679,0.0032132769,0.0038135066,-0.5155119,0.99999213,6.7006494e-09,-3.8543384e-08,0.003968842,2
12259886,0.8585527,0.0030245285,0.003503435,-0.51270455,0.99999213,6.7006494e-09,-3.8543384e-08,0.003968842,2
12263856,0.86017025,0.0026004622,0.003043477,-0.50999147,0.99999213,6.7006494e-09,-3.8543384e-08,0.003968842,2
12267854,0.8618161,0.0019451921,0.0030722015,-0.5072079,0.99999213,6.7006494e-09,-3.8543384e-08,0.003968842,2
12271856,0.86350703,0.0019330153,0.0027868387,-0.50432545,0.99999213,6.7006494e-09,-3.8543384e-08,0.003968842,2
12275862,0.86508006,0.0013464096,0.0026379775,-0.50162524,0.99999213,6.7006494e-09,-3.8543384e-08,0.003968842,2
12279854,0.86666363,0.0009935728,0.0025391185,-0.49888542,0.99999213,6.7006494e-09,-3.8543384e-08,0.003968842,2
12283854,0.8682866,0.0010602645,0.0024850396,-0.4960555,0.99999213,6.7006494e-09,-3.8543384e-08,0.003968842,2
12287918,0.86984295,0.00065154786,0.0026833217,-0.4933212,0.99999213,6.7006494e-09,-3.8543384e-08,0.003968842,2
12291860,0.8713999,0.00065519375,0.002690313,-0.49056575,0.99999213,6.7006494e-09,-3.8543384e-08,0.003968842,2
12295860,0.8730278,0.00085122144,0.0029299671,-0.48766083,0.99999213,6.7006494e-09,-3.8543384e-08,0.003968842,2
12299854,0.874602,0.0007722134,0.00336354,-0.48482934,0.99999213,6.7006494e-09,-3.8543384e-08,0.003968842,2
12303854,0.8762382,0.0010936711,0.0035751814,-0.48186386,0.99999213,6.7006494e-09,-3.8543384e-08,0.003968842,2
12307866,0.8778684,0.00113181,0.003998692,-0.47888398,0.99999213,6.7006494e-09,-3.8543384e-08,0.003968842,2
12311907,0.8794981,0.0013031904,0.0044964054,-0.47587934,0.99999213,6.7006494e-09,-3.8543384e-08,0.003968842,2
12315854,0.8810847,0.0017035783,0.0048316363,-0.4729307,0.99999213,6.7006494e-09,-3.8543384e-08,0.003968842,2
12319854,0.8826399,0.0015401077,0.0052740346,-0.47001767,0.99999213,6.7006494e-09,-3.8543384e-08,0.003968842,2
12323854,0.8842225,0.0018779626,0.005646369,-0.46702802,0.99999213,6.7006494e-09,-3.8543384e-08,0.003968842,2
12327856,0.88574815,0.0020559547,0.0058727725,-0.46412447,0.99999213,6.7006494e-09,-3.8543384e-08,0.003968842,2
12331854,0.88721186,0.0017361053,0.0062964503,-0.46131605,0.99999213,6.7006494e-09,-3.8543384e-08,0.003968842,2
12335854,0.8887738,0.0020467162,0.006470624,-0.45829612,0.99999213,6.7006494e-09,-3.8543384e-08,0.003968842,2
12339864,0.8902861,0.0019296221,0.006500254,-0.45535138,0.99999213,6.7006494e-09,-3.8543384e-08,0.003968842,2
12343854,0.8917876,0.0016253133,0.006466553,-0.4524053,0.99999213,6.7006494e-09,-3.8543384e-08,0.003968842,2
12347864,0.8934083,0.0018834814,0.0064871586,-0.44919476,0.99999213,6.7006494e-09,-3.8543384e-08,0.003968842,2
12351874,0.8949281,0.0014497834,0.0064819288,-0.44616112,0.99999213,6.7006494e-09,-3.8543384e-08,0.003968842,2
12355854,0.8964488,0.0013677716,0.0060928226,-0.44310328,0.99999213,6.7006494e-09,-3.8543384e-08,0.003968842,2
12359854,0.89800584,0.0013720326,0.005854075,-0.43994263,0.99999213,6.7006494e-09,-3.8543384e-08,0.003968842,2
12363886,0.8994904,0.0008746224,0.0058808504,-0.4369,0.99999213,6.7006494e-09,-3.8543384e-08,0.003968842,2
12367854,0.9009667,0.0010099818,0.005217693,-0.43385568,0.99999213,6.7006494e-09,-3.8543384e-08,0.003968842,2
12371925,0.9024523,0.00079461874,0.0049361344,-0.43076074,0.99999213,6.7006494e-09,-3.8543384e-08,0.003968842,2
12375854,0.9038364,0.00039117914,0.0050653387,-0.42784816,0.99999213,6.7006494e-09,-3.8543384e-08,0.003968842,2
12379854,0.90530014,0.0007305469,0.004374817,-0.42474952,0.99999213,6.7006494e-09,-3.8543384e-08,0.003968842,2
12383857,0.90673906,0.00041041232,0.004212694,-0.42167082,0.99999213,6.7006494e-09,-3.8543384e-08,0.003968842,2
12387854,0.9081709,0.00022858524,0.004425266,-0.4185764,0.99999213,6.7006494e-09,-3.8543384e-08,0.003968842,2
12391958,0.90971255,0.0006824182,0.0039237244,-0.41521946,0.99999213,6.7006494e-09,-3.8543384e-08,0.003968842,2
12395854,0.91112834,0.00031141625,0.0038865253,-0.41210443,0.99999213,6.7006494e-09,-3.8543384e-08,0.003968842,2
12399854,0.9125917,0.00033091038,0.004243667,-0.40885013,0.99999213,6.7006494e-09,-3.8543384e-08,0.003968842,2
12403858,0.9140766,0.00080626766,0.0039072055,-0.40552208,0.99999213,6.7006494e-09,-3.8543384e-08,0.003968842,2
12407915,0.91549885,0.0004870826,0.003958197,-0.40230098,0.99999213,6.7006494e-09,-3.8543384e-08,0.003968842,2
12411864,0.91688824,0.00075429835,0.0042307344,-0.3991209,0.99999213,6.7006494e-09,-3.8543384e-08,0.003968842,2
12415886,0.91827136,0.0009851533,0.0042117736,-0.395928,0.99999213,6.7006494e-09,-3.8543384e-08,0.003968842,2
12419854,0.9195883,0.0007819531,0.0042305402,-0.39286005,0.99999213,6.7006494e-09,-3.8543384e-08,0.003968842,2
12423854,0.92097217,0.0010287248,0.0044927597,-0.38960108,0.99999213,6.7006494e-09,-3.8543384e-08,0.003968842,2
12427857,0.9223179,0.0010032662,0.0046505076,-0.38640267,0.99999213,6.7006494e-09,-3.8543384e-08,0.003968842,2
12431863,0.92366236,0.0011491954,0.004461783,-0.3831796,0.99999213,6.7006494e-09,-3.8543384e-08,0.003968842,2
12435854,0.9250561,0.0013441935,0.0046790647,-0.37979934,0.99999213,6.7006494e-09,-3.8543384e-08,0.003968842,2
12439854,0.9263956,0.0010969215,0.0050642155,-0.37651622,0.99999213,6.7006494e-09,-3.8543384e-08,0.003968842,2
12443890,0.9277625,0.0015167298,0.0047727916,-0.3731377,0.99999213,6.7006494e-09,-3.8543384e-08,0.003968842,2
12447857,0.92911345,0.0016703082,0.00483266,-0.3697595,0.99999213,6.7006494e-09,-3.8543384e-08,0.003968842,2
12451862,0.93037194,0.0013096504,0.0054198736,-0.3665748,0.99999213,6.7006494e-09,-3.8543384e-08,0.003968842,2
12455896,0.93163306,0.0018332088,0.0051430403,-0.3633595,0.99999213,6.7006494e-09,-3.8543384e-08,0.003968842,2
12459854,0.9328677,0.0019272049,0.0050776294,-0.3601782,0.99999213,6.7006494e-09,-3.8543384e-08,0.003968842,2
12463854,0.9340396,0.0015873669,0.00566462,-0.35712105,0.99999213,6.7006494e-09,-3.8543384e-08,0.003968842,2
12467892,0.93524605,0.002084984,0.005530276,-0.35394922,0.99999213,6.7006494e-09,-3.8543384e-08,0.003968842,2
12471863,0.9364396,0.0021423271,0.005349199,-0.35078162,0.99999213,6.7006494e-09,-3.8543384e-08,0.003968842,2
12475873,0.9375921,0.001979229,0.005841475,-0.34768263,0.99999213,6.7006494e-09,-3.8543384e-08,0.003968842,2
12479854,0.93875444,0.0023158898,0.0058143437,-0.34453017,0.99999213,6.7006494e-09,-3.8543384e-08,0.003968842,2
12483854,0.9399132,0.0023505017,0.005639941,-0.34135896,0.99999213,6.7006494e-09,-3.8543384e-08,0.003968842,2
12487854,0.94100624,0.0023525546,0.006013438,-0.33832747,0.99999213,6.7006494e-09,-3.8543384e-08,0.003968842,2
12491865,0.942081,0.0027192058,0.0059953174,-0.335321,0.99999213,6.7006494e-09,-3.8543384e-08,0.003968842,2
12495878,0.94313246,0.0028056644,0.0058431653,-0.3323541,0.99999213,6.7006494e-09,-3.8543384e-08,0.003968842,2
12499854,0.9441071,0.002892622,0.006094967,-0.3295699,0.99999213,6.7006494e-09,-3.8543384e-08,0.003968842,2
12503854,0.9450702,0.003162081,0.0061340616,-0.32679465,0.99999213,6.7006494e-09,-3.8543384e-08,0.003968842,2
12507854,0.9460241,0.0032320383,0.006063272,-0.3240234,0.99999213,6.7006494e-09,-3.8543384e-08,0.003968842,2
12512654,0.9471095,0.0033474285,0.0062475624,-0.32083252,0.99999213,6.7006494e-09,-3.8543384e-08,0.003968842,2
12516670,0.9480166,0.0034539504,0.006302386,-0.3181399,0.99999213,6.7006494e-09,-3.8543384e-08,0.003968842,2
12521454,0.94909704,0.0035378975,0.006362016,-0.31489983,0.99999213,6.7006494e-09,-3.8543384e-08,0.003968842,2
12525454,0.949948,0.0034385256,0.006482737,-0.312322,0.99999213,6.7006494e-09,-3.8543384e-08,0.003968842,2
12529466,0.95083743,0.0033733232,0.0064964523,-0.30960423,0.99999213,6.7006494e-09,-3.8543384e-08,0.003968842,2
12533461,0.95168453,0.0034524633,0.006459532,-0.30699012,0.99999213,6.7006494e-09,-3.8543384e-08,0.003968842,2
12537470,0.95247203,0.0031681973,0.006506254,-0.3045405,0.99999213,6.7006494e-09,-3.8543384e-08,0.003968842,2
12541454,0.9532571,0.0029111858,0.0064894157,-0.30207682,0.99999213,6.7006494e-09,-3.8543384e-08,0.003968842,2
12565456,0.9574896,0.00089134806,0.0053653168,-0.2884167,0.99999213,6.7006494e-09,-3.8543384e-08,0.003968842,2
12569458,0.9581492,0.0006415182,0.004717706,-0.28622985,0.99999213,6.7006494e-09,-3.8543384e-08,0.003968842,2
12573532,0.9587903,0.00040057022,0.0043822136,-0.28408056,0.99999213,6.7006494e-09,-3.8543384e-08,0.003968842,2
12577469,0.95937693,-7.5780066e-05,0.0044532446,-0.2820927,0.99999213,6.7006494e-09,-3.8543384e-08,0.003968842,2
12581454,0.9599429,-0.00051139,0.003999777,-0.2801671,0.99999213,6.7006494e-09,-3.8543384e-08,0.003968842,2
12585454,0.9604997,-0.00072388386,0.0038762784,-0.27825335,0.99999213,6.7006494e-09,-3.8543384e-08,0.003968842,2
12589460,0.9610159,-0.0009201206,0.0040126145,-0.27646267,0.99999213,6.7006494e-09,-3.8543384e-08,0.003968842,2
12593473,0.9615256,-0.0014339285,0.003822931,-0.274685,0.99999213,6.7006494e-09,-3.8543384e-08,0.003968842,2
12597454,0.9620289,-0.0014714714,0.004088276,-0.2729131,0.99999213,6.7006494e-09,-3.8543384e-08,0.003968842,2
12601454,0.96249247,-0.0012703612,0.0042221136,-0.2712728,0.99999213,6.7006494e-09,-3.8543384e-08,0.003968842,2
12605454,0.96294594,-0.0017466114,0.004553111,-0.26965055,0.99999213,6.7006494e-09,-3.8543384e-08,0.003968842,2
12609493,0.96340525,-0.0014650009,0.0051688477,-0.26799536,0.99999213,6.7006494e-09,-3.8543384e-08,0.003968842,2
12613507,0.9638239,-0.0011563073,0.005358874,-0.26648355,0.99999213,6.7006494e-09,-3.8543384e-08,0.003968842,2
12617454,0.96421707,-0.0013282342,0.006144265,-0.2650396,0.99999213,6.7006494e-09,-3.8543384e-08,0.003968842,2
12621456,0.9646124,-0.00080075825,0.0068600927,-0.26358148,0.99999213,6.7006494e-09,-3.8543384e-08,0.003968842,2
12625454,0.9649884,-0.0004833303,0.007270532,-0.26219165,0.99999213,6.7006494e-09,-3.8543384e-08,0.003968842,2
12629464,0.96533906,-0.00037300467,0.008250633,-0.2608686,0.99999213,6.7006494e-09,-3.8543384e-08,0.003968842,2
12633456,0.9656833,0.00036413874,0.008874682,-0.25957087,0.99999213,6.7006494e-09,-3.8543384e-08,0.003968842,2
12637454,0.966021,0.0006611446,0.00941897,-0.25829133,0.99999213,6.7006494e-09,-3.8543384e-08,0.003968842,2
12641479,0.9663296,0.0010143569,0.010324746,-0.25709862,0.99999213,6.7006494e-09,-3.8543384e-08,0.003968842,2
12645456,0.966609,0.0016568112,0.0109177455,-0.2560179,0.99999213,6.7006494e-09,-3.8543384e-08,0.003968842,2
12649454,0.9668949,0.0019584864,0.011484125,-0.2549091,0.99999213,6.7006494e-09,-3.8543384e-08,0.003968842,2
12653456,0.9671636,0.0024501064,0.012166221,-0.2538516,0.99999213,6.7006494e-09,-3.8543384e-08,0.003968842,2
12657517,0.96741635,0.0026465694,0.012409631,-0.2528728,0.99999213,6.7006494e-09,-3.8543384e-08,0.003968842,2
12661456,0.9676368,0.0030830053,0.012956023,-0.25199577,0.99999213,6.7006494e-09,-3.8543384e-08,0.003968842,2
12665501,0.9678657,0.0034109454,0.013297046,-0.25109306,0.99999213,6.7006494e-09,-3.8543384e-08,0.003968842,2
12669454,0.9680799,0.0033128045,0.013266851,-0.25026834,0.99999213,6.7006494e-09,-3.8543384e-08,0.003968842,2
12673454,0.96824974,0.0036416126,0.01361197,-0.24958746,0.99999213,6.7006494e-09,-3.8543384e-08,0.003968842,2
12677466,0.96845454,0.0036289655,0.013552995,-0.24879494,0.99999213,6.7006494e-09,-3.8543384e-08,0.003968842,2
12681465,0.9686357,0.0036556046,0.013363968,-0.24809906,0.99999213,6.7006494e-09,-3.8543384e-08,0.003968842,2
12685456,0.9688112,0.0034784204,0.0133402925,-0.24741642,0.99999213,6.7006494e-09,-3.8543384e-08,0.003968842,2
12689454,0.9689871,0.003287236,0.013206422,-0.24673651,0.99999213,6.7006494e-09,-3.8543384e-08,0.003968842,2
12693486,0.969152,0.003292428,0.012875561,-0.24610533,0.99999213,6.7006494e-09,-3.8543384e-08,0.003968842,2
12697468,0.9693102,0.002842972,0.012714548,-0.24549526,0.99999213,6.7006494e-09,-3.8543384e-08,0.003968842,2
12701454,0.9694525,0.0028210462,0.012307755,-0.24495386,0.99999213,6.7006494e-09,-3.8543384e-08,0.003968842,2
12713457,0.9698276,0.002126219,0.01123756,-0.24352339,0.99999213,6.7006494e-09,-3.8543384e-08,0.003968842,2
12717512,0.96992415,0.0014778198,0.010844935,-0.24316117,0.99999213,6.7006494e-09,-3.8543384e-08,0.003968842,2
12721460,0.9700211,0.0012067753,0.010744844,-0.2427801,0.99999213,6.7006494e-09,-3.8543384e-08,0.003968842,2
12725454,0.9701126,0.0012620758,0.010336491,-0.24243197,0.99999213,6.7006494e-09,-3.8543384e-08,0.003968842,2
12729454,0.9702101,0.00077620184,0.009984101,-0.24205847,0.99999213,6.7006494e-09,-3.8543384e-08,0.003968842,2
12733462,0.9702756,0.00064505206,0.010148009,-0.24178886,0.99999213,6.7006494e-09,-3.8543384e-08,0.003968842,2
12737456,0.9703514,0.0005361137,0.009674644,-0.24150456,0.99999213,6.7006494e-09,-3.8543384e-08,0.003968842,2
12741496,0.9704264,0.00046734713,0.009771201,-0.2411989,0.99999213,6.7006494e-09,-3.8543384e-08,0.003968842,2
12745488,0.9704891,0.00047501424,0.0099338535,-0.24094021,0.99999213,6.7006494e-09,-3.8543384e-08,0.003968842,2
12749456,0.97053045,0.0003640554,0.009773927,-0.24078023,0.99999213,6.7006494e-09,-3.8543384e-08,0.003968842,2
12753460,0.9705768,0.0006138542,0.010162784,-0.24057654,0.99999213,6.7006494e-09,-3.8543384e-08,0.003968842,2
12757458,0.97061634,0.0008382881,0.0103345625,-0.24040887,0.99999213,6.7006494e-09,-3.8543384e-08,0.003968842,2
12761466,0.97065014,0.0008391216,0.010334473,-0.24027231,0.99999213,6.7006494e-09,-3.8543384e-08,0.003968842,2
12765454,0.97064203,0.0011345065,0.011088671,-0.24027038,0.99999213,6.7006494e-09,-3.8543384e-08,0.003968842,2
12769509,0.9706689,0.0015963324,0.011262576,-0.2401511,0.99999213,6.7006494e-09,-3.8543384e-08,0.003968842,2
12773480,0.9706806,0.0018146727,0.011589174,-0.24008714,0.99999213,6.7006494e-09,-3.8543384e-08,0.003968842,2
12777454,0.9706653,0.0018698095,0.012332382,-0.24011092,0.99999213,6.7006494e-09,-3.8543384e-08,0.003968842,2
12781454,0.97067845,0.002440268,0.012607901,-0.24003875,0.99999213,6.7006494e-09,-3.8543384e-08,0.003968842,2
12785454,0.970685,0.00289848,0.013072552,-0.23998216,0.99999213,6.7006494e-09,-3.8543384e-08,0.003968842,2
12789454,0.97067213,0.0028579284,0.013815649,-0.23999292,0.99999213,6.7006494e-09,-3.8543384e-08,0.003968842,2
12793454,0.9706677,0.0032055292,0.013993232,-0.23999615,0.99999213,6.7006494e-09,-3.8543384e-08,0.003968842,2
12797493,0.9706415,0.0037480902,0.014450952,-0.24006727,0.99999213,6.7006494e-09,-3.8543384e-08,0.003968842,2
12801454,0.97063476,0.003839175,0.014807989,-0.24007155,0.99999213,6.7006494e-09,-3.8543384e-08,0.003968842,2
12805464,0.9706239,0.0040670596,0.014990492,-0.24010019,0.99999213,6.7006494e-09,-3.8543384e-08,0.003968842,2
12809454,0.97057086,0.004228572,0.015309052,-0.24029146,0.99999213,6.7006494e-09,-3.8543384e-08,0.003968842,2
12813462,0.97054684,0.004480815,0.015361913,-0.24038067,0.99999213,6.7006494e-09,-3.8543384e-08,0.003968842,2
12837460,0.9703608,0.0048679947,0.014168849,-0.24119586,0.99999213,6.7006494e-09,-3.8543384e-08,0.003968842,2
12841467,0.97030735,0.005043164,0.013679951,-0.24143536,0.99999213,6.7006494e-09,-3.8543384e-08,0.003968842,2
12845478,0.97027034,0.0049509276,0.013173122,-0.24161442,0.99999213,6.7006494e-09,-3.8543384e-08,0.003968842,2
12849460,0.9702048,0.0047896667,0.012982116,-0.2418909,0.99999213,6.7006494e-09,-3.8543384e-08,0.003968842,2
12853460,0.97014165,0.0046229744,0.012363791,-0.24217963,0.99999213,6.7006494e-09,-3.8543384e-08,0.003968842,2
12857454,0.97007895,0.0046175076,0.011974722,-0.24245049,0.99999213,6.7006494e-09,-3.8543384e-08,0.003968842,2
12861454,0.9700059,0.004354289,0.011814463,-0.24275513,0.99999213,6.7006494e-09,-3.8543384e-08,0.003968842,2
12865456,0.9699598,0.004111715,0.011225706,-0.24297163,0.99999213,6.7006494e-09,-3.8543384e-08,0.003968842,2
12869454,0.96987134,0.00401987,0.01100247,-0.24333638,0.99999213,6.7006494e-09,-3.8543384e-08,0.003968842,2
12873488,0.96979314,0.0036887156,0.010770844,-0.24366298,0.99999213,6.7006494e-09,-3.8543384e-08,0.003968842,2
12877454,0.9697304,0.0036228967,0.010302196,-0.24393421,0.99999213,6.7006494e-09,-3.8543384e-08,0.003968842,2
12881456,0.96962035,0.0034288021,0.010158415,-0.24437991,0.99999213,6.7006494e-09,-3.8543384e-08,0.003968842,2
12885456,0.9695098,0.0030970161,0.01000682,-0.24482882,0.99999213,6.7006494e-09,-3.8543384e-08,0.003968842,2
12889468,0.96941817,0.0031173069,0.0096256435,-0.24520631,0.99999213,6.7006494e-09,-3.8543384e-08,0.003968842,2
12893482,0.9692884,0.0030089146,0.009495842,-0.24572489,0.99999213,6.7006494e-09,-3.8543384e-08,0.003968842,2
12897454,0.96915984,0.0027472887,0.009337463,-0.24624085,0.99999213,6.7006494e-09,-3.8543384e-08,0.003968842,2
12901459,0.96906364,0.0027606403,0.009131492,-0.24662666,0.99999213,6.7006494e-09,-3.8543384e-08,0.003968842,2
12905456,0.96894944,0.0026388934,0.0091385925,-0.24707606,0.99999213,6.7006494e-09,-3.8543384e-08,0.003968842,2
12909531,0.9688514,0.0025831363,0.008915821,-0.24746895,0.99999213,6.7006494e-09,-3.8543384e-08,0.003968842,2
12913454,0.96874803,0.0027704036,0.008939203,-0.24787042,0.99999213,6.7006494e-09,-3.8543384e-08,0.003968842,2
12917454,0.968626,0.0027386367,0.008875138,-0.24834965,0.99999213,6.7006494e-09,-3.8543384e-08,0.003968842,2
12921454,0.96850914,0.0031040362,0.008728759,-0.2488057,0.99999213,6.7006494e-09,-3.8543384e-08,0.003968842,2
12925486,0.9683493,0.003316006,0.00876386,-0.24942322,0.99999213,6.7006494e-09,-3.8543384e-08,0.003968842,2
12929485,0.968183,0.0033884207,0.008755284,-0.25006735,0.99999213,6.7006494e-09,-3.8543384e-08,0.003968842,2
12933463,0.96803105,0.0039071455,0.008633199,-0.2506517,0.99999213,6.7006494e-09,-3.8543384e-08,0.003968842,2
12937454,0.96784836,0.004249684,0.0085363835,-0.2513538,0.99999213,6.7006494e-09,-3.8543384e-08,0.003968842,2
12941456,0.96768135,0.004373243,0.008522184,-0.25199434,0.99999213,6.7006494e-09,-3.8543384e-08,0.003968842,2
12945462,0.9675432,0.0048142937,0.008298783,-0.2525235,0.99999213,6.7006494e-09,-3.8543384e-08,0.003968842,2
12949454,0.9673957,0.0052701943,0.008052497,-0.25308704,0.99999213,6.7006494e-09,-3.8543384e-08,0.003968842,2
12953462,0.9672511,0.005264893,0.007979783,-0.25364143,0.99999213,6.7006494e-09,-3.8543384e-08,0.003968842,2
12957468,0.9671228,0.0055297227,0.0077598887,-0.25413138,0.99999213,6.7006494e-09,-3.8543384e-08,0.003968842,2
12962254,0.96694344,0.0060561993,0.0072052935,-0.25481722,0.99999213,6.7006494e-09,-3.8543384e-08,0.003968842,2
12966254,0.96676916,0.006117722,0.007131108,-0.2554783,0.99999213,6.7006494e-09,-3.8543384e-08,0.003968842,2
12970260,0.9665865,0.0062455297,0.0070410008,-0.25616795,0.99999213,6.7006494e-09,-3.8543384e-08,0.003968842,2
12974300,0.9663762,0.006758871,0.0063633593,-0.25696495,0.99999213,6.7006494e-09,-3.8543384e-08,0.003968842,2
12979054,0.96614426,0.0068522952,0.006345876,-0.2578336,0.99999213,6.7006494e-09,-3.8543384e-08,0.003968842,2
12983054,0.965946,0.0069007305,0.0062985937,-0.25857517,0.99999213,6.7006494e-09,-3.8543384e-08,0.003968842,2
12987054,0.9657533,0.0075581,0.0054855268,-0.2592939,0.99999213,6.7006494e-09,-3.8543384e-08,0.003968842,2
12991060,0.9655935,0.007597759,0.005556394,-0.25988612,0.99999213,6.7006494e-09,-3.8543384e-08,0.003968842,2
12995062,0.96542263,0.007351154,0.005630672,-0.2605253,0.99999213,6.7006494e-09,-3.8543384e-08,0.003968842,2
12999057,0.9652569,0.008065871,0.0048370827,-0.2611336,0.99999213,6.7006494e-09,-3.8543384e-08,0.003968842,2
13003054,0.9650958,0.00813017,0.0049425466,-0.26172408,0.99999213,6.7006494e-09,-3.8543384e-08,0.003968842,2
13007054,0.9648988,0.0076492936,0.00500611,-0.26246303,0.99999213,6.7006494e-09,-3.8543384e-08,0.003968842,2
13011063,0.96470594,0.008301861,0.004258873,-0.26316416,0.99999213,6.7006494e-09,-3.8543384e-08,0.003968842,2
13015054,0.9645044,0.0081376955,0.0044147028,-0.26390454,0.99999213,6.7006494e-09,-3.8543384e-08,0.003968842,2
13019086,0.9642722,0.007454566,0.004379983,-0.26477224,0.99999213,6.7006494e-09,-3.8543384e-08,0.003968842,2
13023054,0.9640667,0.007845582,0.0037940515,-0.26551726,0.99999213,6.7006494e-09,-3.8543384e-08,0.003968842,2
13027124,0.9638645,0.007408829,0.004003679,-0.2662602,0.99999213,6.7006494e-09,-3.8543384e-08,0.003968842,2
13031060,0.9636586,0.00678036,0.0039452077,-0.2670221,0.99999213,6.7006494e-09,-3.8543384e-08,0.003968842,2
13035054,0.9635011,0.0066973157,0.0035851325,-0.26759666,0.99999213,6.7006494e-09,-3.8543384e-08,0.003968842,2
13039054,0.9633487,0.006140288,0.0038511942,-0.26815438,0.99999213,6.7006494e-09,-3.8543384e-08,0.003968842,2
13043054,0.96316487,0.0055313595,0.0037804325,-0.26882842,0.99999213,6.7006494e-09,-3.8543384e-08,0.003968842,2
13047088,0.96301156,0.005283611,0.0034572016,-0.2693859,0.99999213,6.7006494e-09,-3.8543384e-08,0.003968842,2
13051054,0.9628204,0.0045969225,0.0037010321,-0.2700779,0.99999213,6.7006494e-09,-3.8543384e-08,0.003968842,2
13055063,0.9626019,0.003952195,0.0036479163,-0.27086666,0.99999213,6.7006494e-09,-3.8543384e-08,0.003968842,2
13059056,0.9624,0.003600136,0.0033618174,-0.27159163,0.99999213,6.7006494e-09,-3.8543384e-08,0.003968842,2
13063057,0.9621582,0.0027666814,0.0036213219,-0.27245328,0.99999213,6.7006494e-09,-3.8543384e-08,0.003968842,2
13067054,0.961911,0.0022781766,0.003517387,-0.2733305,0.99999213,6.7006494e-09,-3.8543384e-08,0.003968842,2
13071086,0.96171695,0.0018607046,0.0033919415,-0.27401763,0.99999213,6.7006494e-09,-3.8543384e-08,0.003968842,2
13075054,0.96150494,0.0010811454,0.0036498045,-0.27476135,0.99999213,6.7006494e-09,-3.8543384e-08,0.003968842,2
13079054,0.961311,0.0007597339,0.0034061477,-0.27544352,0.99999213,6.7006494e-09,-3.8543384e-08,0.003968842,2
13083054,0.9611546,0.00044654048,0.00327596,-0.27599096,0.99999213,6.7006494e-09,-3.8543384e-08,0.003968842,2
13087057,0.9609532,-0.00022495698,0.0035615945,-0.27668828,0.99999213,6.7006494e-09,-3.8543384e-08,0.003968842,2
13091054,0.96076137,-0.00033792536,0.0031902108,-0.2773576,0.99999213,6.7006494e-09,-3.8543384e-08,0.003968842,2
13095054,0.96057475,-0.00045865314,0.0031295419,-0.2780042,0.99999213,6.7006494e-09,-3.8543384e-08,0.003968842,2
13099062,0.9603133,-0.0011074413,0.0034519283,-0.27889985,0.99999213,6.7006494e-09,-3.8543384e-08,0.003968842,2
13103054,0.9600705,-0.0009972864,0.0029774979,-0.27974054,0.99999213,6.7006494e-09,-3.8543384e-08,0.003968842,2
13107062,0.9598198,-0.0011103349,0.002975622,-0.28059933,0.99999213,6.7006494e-09,-3.8543384e-08,0.003968842,2
13111162,0.9595447,-0.0017931984,0.0032992465,-0.28153142,0.99999213,6.7006494e-09,-3.8543384e-08,0.003968842,2
13115054,0.9593505,-0.0014205902,0.0027928355,-0.2822001,0.99999213,6.7006494e-09,-3.8543384e-08,0.003968842,2
13119054,0.9591509,-0.0016061629,0.0030039607,-0.28287476,0.99999213,6.7006494e-09,-3.8543384e-08,0.003968842,2
13123107,0.9589285,-0.0022380361,0.0032772094,-0.2836201,0.99999213,6.7006494e-09,-3.8543384e-08,0.003968842,2
13127067,0.95876724,-0.0016527149,0.002725986,-0.28417462,0.99999213,6.7006494e-09,-3.8543384e-08,0.003968842,2
13131070,0.9585435,-0.0019953353,0.0032413076,-0.28492096,0.99999213,6.7006494e-09,-3.8543384e-08,0.003968842,2
13135070,0.9582932,-0.0022408576,0.0033659649,-0.28575867,0.99999213,6.7006494e-09,-3.8543384e-08,0.003968842,2
13139054,0.95807487,-0.0015238369,0.0029161305,-0.286499,0.99999213,6.7006494e-09,-3.8543384e-08,0.003968842,2
13143054,0.95775455,-0.00218487,0.0037208837,-0.28755456,0.99999213,6.7006494e-09,-3.8543384e-08,0.003968842,2
13147054,0.9574665,-0.0017924459,0.0037409302,-0.28851467,0.99999213,6.7006494e-09,-3.8543384e-08,0.003968842,2
13151087,0.9571851,-0.001434187,0.0036615103,-0.28944975,0.99999213,6.7006494e-09,-3.8543384e-08,0.003968842,2
13155054,0.956862,-0.0021872423,0.0043997713,-0.29050124,0.99999213,6.7006494e-09,-3.8543384e-08,0.003968842,2
13159054,0.9566311,-0.0015772406,0.004227372,-0.29126707,0.99999213,6.7006494e-09,-3.8543384e-08,0.003968842,2
13163054,0.95636743,-0.0014957737,0.004619493,-0.29212627,0.99999213,6.7006494e-09,-3.8543384e-08,0.003968842,2
13167054,0.95610476,-0.0018802279,0.0051294854,-0.29297432,0.99999213,6.7006494e-09,-3.8543384e-08,0.003968842,2
13171064,0.9558848,-0.0012791911,0.0048352582,-0.29369923,0.99999213,6.7006494e-09,-3.8543384e-08,0.003968842,2
13175086,0.95558935,-0.0017178167,0.00550242,-0.29464522,0.99999213,6.7006494e-09,-3.8543384e-08,0.003968842,2
13179054,0.95532054,-0.0017637227,0.0057949526,-0.29550976,0.99999213,6.7006494e-09,-3.8543384e-08,0.003968842,2
13183054,0.95500845,-0.001482717,0.0057463576,-0.29651934,0.99999213,6.7006494e-09,-3.8543384e-08,0.003968842,2
13187054,0.954643,-0.0020980884,0.0062877573,-0.2976793,0.99999213,6.7006494e-09,-3.8543384e-08,0.003968842,2
13191064,0.95433223,-0.0018109542,0.006106082,-0.2986794,0.99999213,6.7006494e-09,-3.8543384e-08,0.003968842,2
13195126,0.95397204,-0.0021269382,0.0064433324,-0.29981902,0.99999213,6.7006494e-09,-3.8543384e-08,0.003968842,2
13199054,0.95366997,-0.0025380957,0.006795821,-0.3007672,0.99999213,6.7006494e-09,-3.8543384e-08,0.003968842,2
13203062,0.95337546,-0.0023535558,0.006659028,-0.30170432,0.99999213,6.7006494e-09,-3.8543384e-08,0.003968842,2
13207054,0.9530807,-0.0029924216,0.0070568016,-0.3026192,0.99999213,6.7006494e-09,-3.8543384e-08,0.003968842,2
13211063,0.9528439,-0.002896778,0.006955207,-0.30336758,0.99999213,6.7006494e-09,-3.8543384e-08,0.003968842,2
13215076,0.95256096,-0.00296177,0.0071319123,-0.30425003,0.99999213,6.7006494e-09,-3.8543384e-08,0.003968842,2
13219054,0.9522874,-0.0032304088,0.007416087,-0.3050955,0.99999213,6.7006494e-09,-3.8543384e-08,0.003968842,2
13223054,0.95196885,-0.0029144967,0.0074234065,-0.30609122,0.99999213,6.7006494e-09,-3.8543384e-08,0.003968842,2
13227099,0.95161504,-0.0030845224,0.0078095566,-0.30717817,0.99999213,6.7006494e-09,-3.8543384e-08,0.003968842,2
13231054,0.95128536,-0.0028409665,0.007936355,-0.30819693,0.99999213,6.7006494e-09,-3.8543384e-08,0.003968842,2
13235056,0.95092905,-0.002576556,0.0080967555,-0.3092924,0.99999213,6.7006494e-09,-3.8543384e-08,0.003968842,2
13239054,0.950604,-0.0023986588,0.008604595,-0.31027758,0.99999213,6.7006494e-09,-3.8543384e-08,0.003968842,2
13243054,0.9502683,-0.0019723263,0.008836208,-0.31130087,0.99999213,6.7006494e-09,-3.8543384e-08,0.003968842,2
13247054,0.9499499,-0.0017576244,0.009244006,-0.31226054,0.99999213,6.7006494e-09,-3.8543384e-08,0.003968842,2
13251054,0.9496637,-0.0016007244,0.009666236,-0.31311792,0.99999213,6.7006494e-09,-3.8543384e-08,0.003968842,2
13255062,0.9494144,-0.0011408732,0.009917094,-0.31386745,0.99999213,6.7006494e-09,-3.8543384e-08,0.003968842,2
13259054,0.9491465,-0.00097386574,0.010431709,-0.31466034,0.99999213,6.7006494e-09,-3.8543384e-08,0.003968842,2
13263054,0.9488595,-0.0007794066,0.010808557,-0.3155127,0.99999213,6.7006494e-09,-3.8543384e-08,0.003968842,2
13267054,0.94856757,-0.00029720072,0.011001422,-0.3163836,0.99999213,6.7006494e-09,-3.8543384e-08,0.003968842,2
13271056,0.948235,-0.00034328506,0.011458169,-0.31736287,0.99999213,6.7006494e-09,-3.8543384e-08,0.003968842,2
13275057,0.9479328,-1.2565902e-05,0.01148199,-0.31826335,0.99999213,6.7006494e-09,-3.8543384e-08,0.003968842,2
13279174,0.947583,4.0320992e-06,0.011723994,-0.31929457,0.99999213,6.7006494e-09,-3.8543384e-08,0.003968842,2
13283054,0.9472616,-7.41988e-05,0.0119888745,-0.3202371,0.99999213,6.7006494e-09,-3.8543384e-08,0.003968842,2
13287055,0.94696134,0.00010141187,0.011914756,-0.32112655,0.99999213,6.7006494e-09,-3.8543384e-08,0.003968842,2
13315054,0.9451064,-0.0007463913,0.0119787725,-0.32654247,0.99999213,6.7006494e-09,-3.8543384e-08,0.003968842,2
13319060,0.9447684,-0.00089957647,0.01178817,-0.3275255,0.99999213,6.7006494e-09,-3.8543384e-08,0.003968842,2
13323054,0.9444695,-0.0009690932,0.011878772,-0.32838306,0.99999213,6.7006494e-09,-3.8543384e-08,0.003968842,2
13327054,0.9441538,-0.00097081775,0.01186154,-0.32929033,0.99999213,6.7006494e-09,-3.8543384e-08,0.003968842,2
13331107,0.9438331,-0.0010184955,0.011867067,-0.330208,0.99999213,6.7006494e-09,-3.8543384e-08,0.003968842,2
13335054,0.94358695,-0.00082702516,0.01203805,-0.33090502,0.99999213,6.7006494e-09,-3.8543384e-08,0.003968842,2
13339054,0.9432996,-0.0009933194,0.012108089,-0.33172026,0.99999213,6.7006494e-09,-3.8543384e-08,0.003968842,2
13343054,0.9431004,-0.0005802311,0.012151101,-0.3322856,0.99999213,6.7006494e-09,-3.8543384e-08,0.003968842,2
13347054,0.9428648,-0.00065105053,0.012442163,-0.33294272,0.99999213,6.7006494e-09,-3.8543384e-08,0.003968842,2
13351054,0.94264185,-0.00039632973,0.012415778,-0.33357486,0.99999213,6.7006494e-09,-3.8543384e-08,0.003968842,2
13355054,0.94239825,-2.4096784e-05,0.012712245,-0.33425155,0.99999213,6.7006494e-09,-3.8543384e-08,0.003968842,2
13359062,0.94210815,-0.00015584558,0.012790454,-0.33506536,0.99999213,6.7006494e-09,-3.8543384e-08,0.003968842,2
13363126,0.9418254,0.00021073435,0.012915958,-0.3358541,0.99999213,6.7006494e-09,-3.8543384e-08,0.003968842,2
13367054,0.941498,-0.00020452694,0.013154862,-0.3367619,0.99999213,6.7006494e-09,-3.8543384e-08,0.003968842,2
13371054,0.94120926,-0.000101922604,0.012819883,-0.33758098,0.99999213,6.7006494e-09,-3.8543384e-08,0.003968842,2
13375060,0.9408991,-0.00055526366,0.01305497,-0.33843502,0.99999213,6.7006494e-09,-3.8543384e-08,0.003968842,2
13379054,0.94060373,-0.0012523717,0.012862217,-0.3392604,0.99999213,6.7006494e-09,-3.8543384e-08,0.003968842,2
13383105,0.94036996,-0.0015088976,0.012636012,-0.33991536,0.99999213,6.7006494e-09,-3.8543384e-08,0.003968842,2
13387054,0.9400877,-0.002866312,0.012869472,-0.34067777,0.99999213,6.7006494e-09,-3.8543384e-08,0.003968842,2
13391062,0.93988055,-0.0034049228,0.012275338,-0.34126592,0.99999213,6.7006494e-09,-3.8543384e-08,0.003968842,2
13395054,0.9396067,-0.004714693,0.012319452,-0.34200177,0.99999213,6.7006494e-09,-3.8543384e-08,0.003968842,2
13399054,0.93935406,-0.0058995984,0.011974037,-0.34268928,0.99999213,6.7006494e-09,-3.8543384e-08,0.003968842,2
13403067,0.9390904,-0.0066461517,0.011311644,-0.3434198,0.99999213,6.7006494e-09,-3.8543384e-08,0.003968842,2
13407854,0.93869054,-0.008960368,0.0113066565,-0.34445906,0.99999213,6.7006494e-09,-3.8543384e-08,0.003968842,2
13411863,0.93840486,-0.009656743,0.01045182,-0.34524477,0.99999213,6.7006494e-09,-3.8543384e-08,0.003968842,2
13415854,0.93803686,-0.011512546,0.010169433,-0.3461951,0.99999213,6.7006494e-09,-3.8543384e-08,0.003968842,2
13419854,0.9377271,-0.012679186,0.009608734,-0.3470084,0.99999213,6.7006494e-09,-3.8543384e-08,0.003968842,2
13423854,0.93739516,-0.014070679,0.009040279,-0.3478659,0.99999213,6.7006494e-09,-3.8543384e-08,0.003968842,2
13427854,0.93709856,-0.01553753,0.008691825,-0.34861076,0.99999213,6.7006494e-09,-3.8543384e-08,0.003968842,2
13431877,0.93680036,-0.016419902,0.0078812335,-0.34939015,0.99999213,6.7006494e-09,-3.8543384e-08,0.003968842,2
13436654,0.93645537,-0.018249862,0.0075971074,-0.35022956,0.99999213,6.7006494e-09,-3.8543384e-08,0.003968842,2
13440654,0.9361469,-0.01877316,0.0068677654,-0.35104048,0.99999213,6.7006494e-09,-3.8543384e-08,0.003968842,2
13444657,0.9358685,-0.019756677,0.0062850066,-0.35173908,0.99999213,6.7006494e-09,-3.8543384e-08,0.003968842,2
13448657,0.93553525,-0.020493515,0.006151729,-0.35258487,0.99999213,6.7006494e-09,-3.8543384e-08,0.003968842,2
13452661,0.9351981,-0.02102188,0.005342936,-0.35346028,0.99999213,6.7006494e-09,-3.8543384e-08,0.003968842,2
13456657,0.93485314,-0.021508934,0.005374012,-0.3543419,0.99999213,6.7006494e-09,-3.8543384e-08,0.003968842,2
13460654,0.9344679,-0.02194979,0.0049041547,-0.35533643,0.99999213,6.7006494e-09,-3.8543384e-08,0.003968842,2
13464654,0.9341626,-0.021836353,0.004689279,-0.35614815,0.99999213,6.7006494e-09,-3.8543384e-08,0.003968842,2
13468654,0.933797,-0.02256939,0.0048689526,-0.3570574,0.99999213,6.7006494e-09,-3.8543384e-08,0.003968842,2
13472654,0.9334945,-0.022071142,0.0044916654,-0.3578838,0.99999213,6.7006494e-09,-3.8543384e-08,0.003968842,2
13476699,0.93318963,-0.02234868,0.0047666756,-0.35865706,0.99999213,6.7006494e-09,-3.8543384e-08,0.003968842,2
13480696,0.932908,-0.022260923,0.0046557016,-0.35939586,0.99999213,6.7006494e-09,-3.8543384e-08,0.003968842,2
13484654,0.93262315,-0.021685364,0.004902196,-0.36016646,0.99999213,6.7006494e-09,-3.8543384e-08,0.003968842,2
13488654,0.9323256,-0.022019414,0.00512853,-0.3609125,0.99999213,6.7006494e-09,-3.8543384e-08,0.003968842,2
13492660,0.9319881,-0.021204427,0.0054591093,-0.36182708,0.99999213,6.7006494e-09,-3.8543384e-08,0.003968842,2
13496654,0.9316582,-0.021378819,0.0059027616,-0.3626584,0.99999213,6.7006494e-09,-3.8543384e-08,0.003968842,2
13500666,0.9313286,-0.020802999,0.006280776,-0.36353102,0.99999213,6.7006494e-09,-3.8543384e-08,0.003968842,2
13504669,0.9309495,-0.0204837,0.0068753795,-0.36450818,0.99999213,6.7006494e-09,-3.8543384e-08,0.003968842,2
13508654,0.93062705,-0.020271715,0.0074305357,-0.36533192,0.99999213,6.7006494e-09,-3.8543384e-08,0.003968842,2
13512660,0.930265,-0.019749342,0.00789931,-0.36627123,0.99999213,6.7006494e-09,-3.8543384e-08,0.003968842,2
13516654,0.9299995,-0.019598914,0.0085097,-0.36693928,0.99999213,6.7006494e-09,-3.8543384e-08,0.003968842,2
13520654,0.9296956,-0.019061191,0.00898099,-0.36772564,0.99999213,6.7006494e-09,-3.8543384e-08,0.003968842,2
13524654,0.92939705,-0.018601993,0.009557337,-0.3684885,0.99999213,6.7006494e-09,-3.8543384e-08,0.003968842,2
13528706,0.9291043,-0.01826179,0.010222257,-0.36922505,0.99999213,6.7006494e-09,-3.8543384e-08,0.003968842,2
13532659,0.92876816,-0.017844364,0.010655285,-0.3700782,0.99999213,6.7006494e-09,-3.8543384e-08,0.003968842,2
13536654,0.9284878,-0.017357765,0.011188036,-0.37078837,0.99999213,6.7006494e-09,-3.8543384e-08,0.003968842,2
13540654,0.9281121,-0.017146867,0.011750891,-0.3717203,0.99999213,6.7006494e-09,-3.8543384e-08,0.003968842,2
13544654,0.92777,-0.016532032,0.012104496,-0.3725897,0.99999213,6.7006494e-09,-3.8543384e-08,0.003968842,2
13548654,0.9274131,-0.016420536,0.0126531655,-0.37346387,0.99999213,6.7006494e-09,-3.8543384e-08,0.003968842,2
13552660,0.92707187,-0.016169576,0.012832043,-0.374315,0.99999213,6.7006494e-09,-3.8543384e-08,0.003968842,2
13556661,0.92677957,-0.015555366,0.013214773,-0.3750508,0.99999213,6.7006494e-09,-3.8543384e-08,0.003968842,2
13560654,0.92643154,-0.015852645,0.013793615,-0.37587658,0.99999213,6.7006494e-09,-3.8543384e-08,0.003968842,2
13564703,0.92613035,-0.01518324,0.013828011,-0.37664416,0.99999213,6.7006494e-09,-3.8543384e-08,0.003968842,2
13568654,0.9257897,-0.015428527,0.014440794,-0.37744778,0.99999213,6.7006494e-09,-3.8543384e-08,0.003968842,2
13572657,0.92549384,-0.015116115,0.014478859,-0.37818414,0.99999213,6.7006494e-09,-3.8543384e-08,0.003968842,2
13576654,0.9251977,-0.014657368,0.0145607805,-0.37892255,0.99999213,6.7006494e-09,-3.8543384e-08,0.003968842,2
13580737,0.9248528,-0.015043769,0.015091416,-0.3797279,0.99999213,6.7006494e-09,-3.8543384e-08,0.003968842,2
13584694,0.9245262,-0.014292208,0.014855228,-0.38056058,0.99999213,6.7006494e-09,-3.8543384e-08,0.003968842,2
13588654,0.9241593,-0.014562349,0.015206215,-0.38142675,0.99999213,6.7006494e-09,-3.8543384e-08,0.003968842,2
13592662,0.92381924,-0.014034576,0.015346652,-0.38226387,0.99999213,6.7006494e-09,-3.8543384e-08,0.003968842,2
13596654,0.92348903,-0.013870238,0.015226898,-0.3830716,0.99999213,6.7006494e-09,-3.8543384e-08,0.003968842,2
13600654,0.9231542,-0.013769901,0.015592459,-0.38386685,0.99999213,6.7006494e-09,-3.8543384e-08,0.003968842,2
13604656,0.92284566,-0.013040185,0.015372975,-0.38464227,0.99999213,6.7006494e-09,-3.8543384e-08,0.003968842,2
13608666,0.92256325,-0.012965952,0.0154135395,-0.3853199,0.99999213,6.7006494e-09,-3.8543384e-08,0.003968842,2
13612667,0.9222631,-0.012398751,0.015578107,-0.3860498,0.99999213,6.7006494e-09,-3.8543384e-08,0.003968842,2
13616654,0.9220327,-0.011835219,0.015081509,-0.38663712,0.99999213,6.7006494e-09,-3.8543384e-08,0.003968842,2
13620656,0.92173034,-0.011345972,0.015346095,-0.38736153,0.99999213,6.7006494e-09,-3.8543384e-08,0.003968842,2
13624654,0.9214455,-0.01078946,0.015125938,-0.3880632,0.99999213,6.7006494e-09,-3.8543384e-08,0.003968842,2
13628654,0.92117375,-0.010080554,0.014827634,-0.38873836,0.99999213,6.7006494e-09,-3.8543384e-08,0.003968842,2
13632725,0.9208292,-0.009614559,0.014898581,-0.3895631,0.99999213,6.7006494e-09,-3.8543384e-08,0.003968842,2
13636657,0.9206355,-0.008874375,0.014496859,-0.3900532,0.99999213,6.7006494e-09,-3.8543384e-08,0.003968842,2
13640654,0.92037404,-0.008207274,0.0142703485,-0.39069268,0.99999213,6.7006494e-09,-3.8543384e-08,0.003968842,2
13644654,0.9201857,-0.007875654,0.014143114,-0.39114723,0.99999213,6.7006494e-09,-3.8543384e-08,0.003968842,2
13648697,0.9200042,-0.007052277,0.013767937,-0.3916033,0.99999213,6.7006494e-09,-3.8543384e-08,0.003968842,2
13652660,0.91981363,-0.006608326,0.013599934,-0.39206424,0.99999213,6.7006494e-09,-3.8543384e-08,0.003968842,2
13656654,0.9197055,-0.00607299,0.0133438185,-0.3923351,0.99999213,6.7006494e-09,-3.8543384e-08,0.003968842,2
13660677,0.91953397,-0.0055631804,0.013013195,-0.39275596,0.99999213,6.7006494e-09,-3.8543384e-08,0.003968842,2
13664654,0.91943,-0.005117433,0.012746521,-0.39301378,0.99999213,6.7006494e-09,-3.8543384e-08,0.003968842,2
13668671,0.91929245,-0.0048048184,0.01255916,-0.39334545,0.99999213,6.7006494e-09,-3.8543384e-08,0.003968842,2
13672661,0.9192009,-0.004405071,0.012040121,-0.3935802,0.99999213,6.7006494e-09,-3.8543384e-08,0.003968842,2
13676654,0.91908205,-0.0042766044,0.011883139,-0.39386386,0.99999213,6.7006494e-09,-3.8543384e-08,0.003968842,2
13680664,0.91903675,-0.004061754,0.011572177,-0.39398113,0.99999213,6.7006494e-09,-3.8543384e-08,0.003968842,2
13684703,0.91900676,-0.0036086715,0.011122278,-0.39406848,0.99999213,6.7006494e-09,-3.8543384e-08,0.003968842,2
13688726,0.91896385,-0.004009138,0.011030247,-0.39416716,0.99999213,6.7006494e-09,-3.8543384e-08,0.003968842,2
13692654,0.9190413,-0.0035062109,0.010465217,-0.39400712,0.99999213,6.7006494e-09,-3.8543384e-08,0.003968842,2
13696654,0.91903543,-0.0035436696,0.010153242,-0.39402822,0.99999213,6.7006494e-09,-3.8543384e-08,0.003968842,2
13700654,0.91915303,-0.0037466418,0.009825953,-0.39376023,0.99999213,6.7006494e-09,-3.8543384e-08,0.003968842,2
13704670,0.9191822,-0.0031963787,0.009472719,-0.39370605,0.99999213,6.7006494e-09,-3.8543384e-08,0.003968842,2
13708654,0.9192959,-0.0036046556,0.008879313,-0.39345053,0.99999213,6.7006494e-09,-3.8543384e-08,0.003968842,2
13712672,0.91940194,-0.0034899248,0.008792019,-0.39320555,0.99999213,6.7006494e-09,-3.8543384e-08,0.003968842,2
13716654,0.9195117,-0.0035506228,0.008252289,-0.39295998,0.99999213,6.7006494e-09,-3.8543384e-08,0.003968842,2
13720654,0.919681,-0.0036316405,0.007869711,-0.39257094,0.99999213,6.7006494e-09,-3.8543384e-08,0.003968842,2
13724654,0.9198677,-0.0039061944,0.007751798,-0.39213276,0.99999213,6.7006494e-09,-3.8543384e-08,0.003968842,2
13728654,0.92012596,-0.0038138644,0.007249201,-0.39153692,0.99999213,6.7006494e-09,-3.8543384e-08,0.003968842,2
13732724,0.92037195,-0.0042275675,0.006984118,-0.39095896,0.99999213,6.7006494e-09,-3.8543384e-08,0.003968842,2
13736699,0.92070025,-0.0044524968,0.006769435,-0.39018652,0.99999213,6.7006494e-09,-3.8543384e-08,0.003968842,2
13740654,0.9209417,-0.0045295437,0.00639431,-0.38962147,0.99999213,6.7006494e-09,-3.8543384e-08,0.003968842,2
13744654,0.9212918,-0.004992738,0.0059687486,-0.3887943,0.99999213,6.7006494e-09,-3.8543384e-08,0.003968842,2
13748654,0.92156506,-0.0050869323,0.0060363887,-0.38814378,0.99999213,6.7006494e-09,-3.8543384e-08,0.003968842,2
13752680,0.92190677,-0.005383028,0.005280325,-0.38733867,0.99999213,6.7006494e-09,-3.8543384e-08,0.003968842,2
13756654,0.9222043,-0.00567409,0.005190149,-0.38662645,0.99999213,6.7006494e-09,-3.8543384e-08,0.003968842,2
13760654,0.9225529,-0.0061425404,0.005028869,-0.38578916,0.99999213,6.7006494e-09,-3.8543384e-08,0.003968842,2
13764662,0.922919,-0.006185305,0.0045190845,-0.38491812,0.99999213,6.7006494e-09,-3.8543384e-08,0.003968842,2
13768657,0.9232926,-0.006887903,0.0042937146,-0.38401183,0.99999213,6.7006494e-09,-3.8543384e-08,0.003968842,2
13772650,0.92373073,-0.006959878,0.004199862,-0.38295636,0.99999213,6.7006494e-09,-3.8543384e-08,0.003968842,2
13776654,0.92412096,-0.00734281,0.0037340429,-0.38201132,0.99999213,6.7006494e-09,-3.8543384e-08,0.003968842,2
13780665,0.9246013,-0.0077240355,0.0034433415,-0.3808422,0.99999213,6.7006494e-09,-3.8543384e-08,0.003968842,2
13784660,0.9250059,-0.00807956,0.0035865798,-0.37985015,0.99999213,6.7006494e-09,-3.8543384e-08,0.003968842,2
13788707,0.92549026,-0.00826648,0.0029551608,-0.37866953,0.99999213,6.7006494e-09,-3.8543384e-08,0.003968842,2
13792663,0.9258693,-0.008814226,0.0030048518,-0.3777294,0.99999213,6.7006494e-09,-3.8543384e-08,0.003968842,2
13796663,0.92633176,-0.009063266,0.0028745574,-0.3765889,0.99999213,6.7006494e-09,-3.8543384e-08,0.003968842,2
13800654,0.926732,-0.00913763,0.0026204989,-0.37560302,0.99999213,6.7006494e-09,-3.8543384e-08,0.003968842,2
13804654,0.92716455,-0.0099102715,0.0024821337,-0.3745153,0.99999213,6.7006494e-09,-3.8543384e-08,0.003968842,2
13808654,0.9276321,-0.009755992,0.0026296559,-0.37335852,0.99999213,6.7006494e-09,-3.8543384e-08,0.003968842,2
13812661,0.9280875,-0.01036185,0.0024124107,-0.3722103,0.99999213,6.7006494e-09,-3.8543384e-08,0.003968842,2
13816715,0.9285957,-0.010638179,0.0023842354,-0.37093267,0.99999213,6.7006494e-09,-3.8543384e-08,0.003968842,2
13820654,0.92909276,-0.01092802,0.0026419866,-0.369676,0.99999213,6.7006494e-09,-3.8543384e-08,0.003968842,2
13824654,0.92963153,-0.010942185,0.0024655103,-0.3683198,0.99999213,6.7006494e-09,-3.8543384e-08,0.003968842,2
13828654,0.93012357,-0.011693736,0.002654913,-0.367051,0.99999213,6.7006494e-09,-3.8543384e-08,0.003968842,2
13832663,0.9306829,-0.011491692,0.002849472,-0.36563534,0.99999213,6.7006494e-09,-3.8543384e-08,0.003968842,2
13836666,0.93116933,-0.011885988,0.0029136536,-0.36438176,0.99999213,6.7006494e-09,-3.8543384e-08,0.003968842,2
13840699,0.93168366,-0.01212493,0.0030706418,-0.36305538,0.99999213,6.7006494e-09,-3.8543384e-08,0.003968842,2
13844654,0.9321786,-0.012243582,0.003493218,-0.36177456,0.99999213,6.7006494e-09,-3.8543384e-08,0.003968842,2
13849456,0.9327858,-0.012448811,0.0036195975,-0.36019793,0.99999213,6.7006494e-09,-3.8543384e-08,0.003968842,2
13854258,0.9334246,-0.0131037235,0.004097708,-0.35851088,0.99999213,6.7006494e-09,-3.8543384e-08,0.003968842,2
13858262,0.9339882,-0.012825779,0.0043606665,-0.35704696,0.99999213,6.7006494e-09,-3.8543384e-08,0.003968842,2
13862259,0.93451715,-0.013463258,0.0047465493,-0.3556318,0.99999213,6.7006494e-09,-3.8543384e-08,0.003968842,2
13866256,0.9351299,-0.01367713,0.0051023094,-0.35400435,0.99999213,6.7006494e-09,-3.8543384e-08,0.003968842,2
13870280,0.9357059,-0.013730328,0.005578391,-0.35246974,0.99999213,6.7006494e-09,-3.8543384e-08,0.003968842,2
13874289,0.93629366,-0.014215125,0.0057837865,-0.35088283,0.99999213,6.7006494e-09,-3.8543384e-08,0.003968842,2
13878256,0.9368648,-0.014397371,0.0064380593,-0.34933603,0.99999213,6.7006494e-09,-3.8543384e-08,0.003968842,2
13882312,0.93746483,-0.014584503,0.006534389,-0.347713,0.99999213,6.7006494e-09,-3.8543384e-08,0.003968842,2
13886259,0.93796843,-0.014798337,0.007098007,-0.34633216,0.99999213,6.7006494e-09,-3.8543384e-08,0.003968842,2
13890245,0.93855983,-0.015373713,0.007391761,-0.34469482,0.99999213,6.7006494e-09,-3.8543384e-08,0.003968842,2
13894256,0.9390952,-0.015150215,0.007830012,-0.34323364,0.99999213,6.7006494e-09,-3.8543384e-08,0.003968842,2
13898254,0.9396723,-0.015946826,0.008031829,-0.3416099,0.99999213,6.7006494e-09,-3.8543384e-08,0.003968842,2
13902281,0.94028777,-0.015846053,0.008531624,-0.33990455,0.99999213,6.7006494e-09,-3.8543384e-08,0.003968842,2
13906258,0.9408894,-0.016102353,0.008789464,-0.3382167,0.99999213,6.7006494e-09,-3.8543384e-08,0.003968842,2
13910310,0.94154453,-0.016271958,0.008980236,-0.3363757,0.99999213,6.7006494e-09,-3.8543384e-08,0.003968842,2
13914254,0.94216317,-0.016656434,0.009441277,-0.33460715,0.99999213,6.7006494e-09,-3.8543384e-08,0.003968842,2
13918256,0.94283986,-0.016261945,0.009474637,-0.33271456,0.99999213,6.7006494e-09,-3.8543384e-08,0.003968842,2
13922257,0.9434192,-0.016957233,0.009804596,-0.3310234,0.99999213,6.7006494e-09,-3.8543384e-08,0.003968842,2
13926258,0.944097,-0.01664534,0.009905449,-0.3290986,0.99999213,6.7006494e-09,-3.8543384e-08,0.003968842,2
13930279,0.9446622,-0.01675625,0.010148148,-0.32745937,0.99999213,6.7006494e-09,-3.8543384e-08,0.003968842,2
13934390,0.9453122,-0.017035076,0.01007821,-0.32556587,0.99999213,6.7006494e-09,-3.8543384e-08,0.003968842,2
13938257,0.9458978,-0.016773919,0.010433131,-0.32386285,0.99999213,6.7006494e-09,-3.8543384e-08,0.003968842,2
13942258,0.94653606,-0.016962327,0.010197145,-0.32199034,0.99999213,6.7006494e-09,-3.8543384e-08,0.003968842,2
13946260,0.94719285,-0.016847653,0.010370507,-0.32005385,0.99999213,6.7006494e-09,-3.8543384e-08,0.003968842,2
13950254,0.9478558,-0.01701021,0.010427711,-0.3180747,0.99999213,6.7006494e-09,-3.8543384e-08,0.003968842,2
13954286,0.9485561,-0.016613936,0.010316995,-0.31600457,0.99999213,6.7006494e-09,-3.8543384e-08,0.003968842,2
13958279,0.94924337,-0.017019615,0.0102970665,-0.31391314,0.99999213,6.7006494e-09,-3.8543384e-08,0.003968842,2
13962262,0.94991773,-0.016513908,0.0105062695,-0.31188652,0.99999213,6.7006494e-09,-3.8543384e-08,0.003968842,2
13966267,0.95060027,-0.016730733,0.010061005,-0.30980325,0.99999213,6.7006494e-09,-3.8543384e-08,0.003968842,2
13970268,0.9512602,-0.016447265,0.010293367,-0.30777833,0.99999213,6.7006494e-09,-3.8543384e-08,0.003968842,2
13974256,0.95189035,-0.01647829,0.010310054,-0.30582175,0.99999213,6.7006494e-09,-3.8543384e-08,0.003968842,2
13978260,0.9525522,-0.016179144,0.009869437,-0.3037847,0.99999213,6.7006494e-09,-3.8543384e-08,0.003968842,2
13982257,0.95315105,-0.016375955,0.010239641,-0.30187762,0.99999213,6.7006494e-09,-3.8543384e-08,0.003968842,2
13986342,0.9538305,-0.016032517,0.010040842,-0.2997493,0.99999213,6.7006494e-09,-3.8543384e-08,0.003968842,2
13990256,0.9544557,-0.016142113,0.009938172,-0.29775,0.99999213,6.7006494e-09,-3.8543384e-08,0.003968842,2
13994279,0.9551508,-0.01600843,0.010045103,-0.29551628,0.99999213,6.7006494e-09,-3.8543384e-08,0.003968842,2
13998256,0.9558088,-0.015846081,0.0099918,-0.2933915,0.99999213,6.7006494e-09,-3.8543384e-08,0.003968842,2
14002275,0.95652044,-0.015935099,0.009757417,-0.2910663,0.99999213,6.7006494e-09,-3.8543384e-08,0.003968842,2
14006262,0.957152,-0.015680602,0.010103897,-0.28898466,0.99999213,6.7006494e-09,-3.8543384e-08,0.003968842,2
14010257,0.9578273,-0.015709845,0.009782266,-0.2867479,0.99999213,6.7006494e-09,-3.8543384e-08,0.003968842,2
14014277,0.9584829,-0.01542629,0.009931311,-0.28455946,0.99999213,6.7006494e-09,-3.8543384e-08,0.003968842,2
14018305,0.9590744,-0.0155108115,0.010065567,-0.28255028,0.99999213,6.7006494e-09,-3.8543384e-08,0.003968842,2
14022272,0.95973784,-0.015045867,0.009727477,-0.28032535,0.99999213,6.7006494e-09,-3.8543384e-08,0.003968842,2
14026256,0.9603091,-0.015217449,0.009886873,-0.2783472,0.99999213,6.7006494e-09,-3.8543384e-08,0.003968842,2
14030254,0.9609661,-0.014831177,0.009836891,-0.27609345,0.99999213,6.7006494e-09,-3.8543384e-08,0.003968842,2
14034267,0.96158856,-0.014618853,0.0096191075,-0.2739367,0.99999213,6.7006494e-09,-3.8543384e-08,0.003968842,2
14038328,0.9622334,-0.014630013,0.009589785,-0.27166313,0.99999213,6.7006494e-09,-3.8543384e-08,0.003968842,2
14042290,0.9628928,-0.014142564,0.009449962,-0.26934814,0.99999213,6.7006494e-09,-3.8543384e-08,0.003968842,2
14046256,0.96353304,-0.014143421,0.009185884,-0.26705727,0.99999213,6.7006494e-09,-3.8543384e-08,0.003968842,2
14050254,0.9641647,-0.0136217335,0.009109058,-0.26479793,0.99999213,6.7006494e-09,-3.8543384e-08,0.003968842,2
14054254,0.9647779,-0.013696272,0.008820735,-0.2625609,0.99999213,6.7006494e-09,-3.8543384e-08,0.003968842,2
14058257,0.9654249,-0.012967737,0.008513111,-0.26021978,0.99999213,6.7006494e-09,-3.8543384e-08,0.003968842,2
14062258,0.9659702,-0.0130113615,0.008530853,-0.258185,0.99999213,6.7006494e-09,-3.8543384e-08,0.003968842,2
14066262,0.9665959,-0.012594462,0.008104957,-0.25586757,0.99999213,6.7006494e-09,-3.8543384e-08,0.003968842,2
14070279,0.96718234,-0.012032924,0.007875344,-0.2536762,0.99999213,6.7006494e-09,-3.8543384e-08,0.003968842,2
14074262,0.967766,-0.012129253,0.007673189,-0.25144216,0.99999213,6.7006494e-09,-3.8543384e-08,0.003968842,2
14078259,0.968389,-0.0113674,0.00733258,-0.24907812,0.99999213,6.7006494e-09,-3.8543384e-08,0.003968842,2
14082256,0.9689518,-0.011352721,0.007099029,-0.24688695,0.99999213,6.7006494e-09,-3.8543384e-08,0.003968842,2
14086268,0.969576,-0.0109841935,0.0068376535,-0.24444877,0.99999213,6.7006494e-09,-3.8543384e-08,0.003968842,2
14090355,0.9701612,-0.01073301,0.0064880745,-0.24213634,0.99999213,6.7006494e-09,-3.8543384e-08,0.003968842,2
14094257,0.9707266,-0.010291855,0.006196476,-0.23988688,0.99999213,6.7006494e-09,-3.8543384e-08,0.003968842,2
14098282,0.97129923,-0.010199473,0.005860289,-0.23757006,0.99999213,6.7006494e-09,-3.8543384e-08,0.003968842,2
14102305,0.9718661,-0.009842905,0.0053274273,-0.23526856,0.99999213,6.7006494e-09,-3.8543384e-08,0.003968842,2
14106254,0.9724,-0.009526759,0.0049303537,-0.23307312,0.99999213,6.7006494e-09,-3.8543384e-08,0.003968842,2
14110260,0.97293925,-0.0095886085,0.004466594,-0.23081909,0.99999213,6.7006494e-09,-3.8543384e-08,0.003968842,2
