timestamp,gyro_rad[0],gyro_rad[1],gyro_rad[2],gyro_integral_dt,accelerometer_timestamp_relative,accelerometer_m_s2[0],accelerometer_m_s2[1],accelerometer_m_s2[2],accelerometer_integral_dt
11850254,-1.4206772,-0.7259385,-0.25988823,3998,0,6.0756445,-2.79066,-6.1935096,3998
11854313,-1.5876328,-0.8163025,-0.22888249,4059,0,1.2458748,-2.3347473,-11.100558,4059
11858282,-2.002484,-1.0715028,-0.23033632,3969,0,-0.12128156,-1.4196063,-13.542288,3969
11862261,-1.8601879,-0.91052616,-0.21457626,3979,0,7.2270565,-1.6717956,-5.12252,3979
11866254,-1.9968266,-1.0370829,-0.17297725,3993,0,0.37212992,-0.6524392,-11.63266,3993
11870259,-2.3162878,-1.3221558,-0.16907184,4005,0,-0.5653172,0.27340314,-14.326891,4005
11874262,-2.174763,-1.137927,-0.11389055,4003,0,8.3210125,-2.6973312,-5.6094365,4003
11878254,-2.4165661,-1.2134285,-0.06536362,3992,0,2.3697393,-0.8100299,-8.221519,3992
11882259,-2.6222944,-1.5304881,-0.062412616,4005,0,-2.5641422,3.4512675,-14.905398,4005
11886282,-2.2452097,-1.394379,0.024354646,4023,0,5.8796334,-2.3791835,-8.269592,4023
11890256,-2.4515076,-1.359652,0.10853094,3974,0,9.137713,-4.3294406,-5.1845727,3974
11894256,-2.5893538,-1.529582,0.08100584,4000,0,-4.2369413,4.8982644,-12.6911955,4000
11898259,-2.2973647,-1.5132463,0.122425705,4003,0,2.3265467,0.12873837,-8.7168045,4003
11902256,-2.3179672,-1.3785007,0.26945964,3997,0,9.132254,-4.005309,-7.238914,3997
11906292,-2.1871166,-1.4921362,0.27506196,4036,0,0.26771474,4.111591,-12.002499,4036
11910257,-2.1621556,-1.4280597,0.27876693,3965,0,0.16370732,1.095269,-11.42481,3965
11914327,-1.949076,-1.4032006,0.43726557,4070,0,5.661927,-0.9835981,-8.864963,4070
11918300,-1.7403239,-1.1739668,0.44380993,3973,0,3.974544,0.45854282,-9.976233,3973
11922257,-1.7800189,-1.1944082,0.43797243,3957,0,2.3816392,1.1998222,-8.884191,3957
11926254,-1.4962811,-1.2123662,0.55336666,3997,0,2.9032214,0.69194925,-10.554825,3997
11930261,-1.3307104,-0.9501529,0.56113344,4007,0,6.8511395,-1.5237046,-6.5798235,4007
11934259,-1.2842702,-1.0223327,0.55965656,3998,0,1.7978673,3.0050244,-9.381963,3998
11938259,-0.93617016,-1.1163597,0.6384692,4000,0,-1.5164838,0.9464402,-13.5752,4000
11942279,-0.98764914,-0.854027,0.6353116,4020,0,7.7750306,-1.6293561,-5.0883274,4020
11946261,-0.7835115,-1.0317934,0.62425923,3982,0,1.0476052,4.213269,-7.7979813,3982
11950256,-0.43262637,-1.119969,0.6743711,3995,0,0.5394695,-0.6498602,-9.916066,3995
11954274,-0.6335582,-0.9335338,0.69064564,4018,0,6.6265473,-0.63993156,-5.6465383,4018
11958285,-0.46778816,-1.2669615,0.7087941,4011,0,1.349578,3.033344,-8.338634,4011
11962256,-0.1445896,-1.2412814,0.7452383,3971,0,0.9864924,-0.25312078,-8.968343,3971
11966261,-0.28500947,-1.1167367,0.79295415,4005,0,5.313679,0.34324512,-5.4874964,4005
11970280,-0.20085113,-1.5116421,0.83283335,4019,0,1.3892502,0.92423767,-9.022413,4019
11974256,-0.08667653,-1.3929936,0.8609571,3976,0,0.47257,0.173283,-9.971569,3976
11978260,-0.07199675,-1.2841575,0.90165603,4004,0,5.314675,-0.31340468,-4.840824,4004
11982256,-0.0638722,-1.5770192,0.8979167,3996,0,2.2163377,-1.5320022,-8.213162,3996
11986257,-0.09558156,-1.409603,0.88833994,4001,0,-1.5152078,1.2800599,-11.359162,4001
11990256,0.02717428,-1.2924211,0.90897673,3999,0,5.0323977,-1.6023777,-4.9038076,3999
11994254,-0.022577098,-1.4826772,0.89449114,3998,0,1.0554897,-3.2225392,-9.704972,3998
11998280,-0.17566667,-1.1901051,0.90666205,4026,0,-1.7270167,2.7749662,-12.564363,4026
12002301,0.021896783,-1.2005203,0.8897664,4021,0,5.093062,-2.090963,-7.147326,4021
12006256,0.0030530107,-1.1638733,0.93657255,3955,0,-0.20634764,-0.66761714,-9.140399,3955
12010318,-0.124962255,-0.9397179,0.93473125,4062,0,0.56571716,-2.2966256,-12.037111,4062
12014257,-0.20731877,-0.8426986,0.9533837,3939,0,3.2751963,2.9162924,-8.437688,3939
12018259,0.23272856,-0.9053088,1.0118219,4002,0,-1.2680875,-0.57950836,-10.3502865,4002
12022262,-0.22838636,-0.57049936,1.0782844,4003,0,1.0299233,-2.4909217,-11.910248,4003
12026279,-0.20021728,-0.528788,1.0800257,4017,0,3.6050656,1.0997956,-8.095446,4017
12042257,-0.0705767,-0.30491143,1.1466795,4000,0,0.03863924,-2.2024145,-11.375487,4000
12046259,-0.27606094,-0.36529675,1.145172,4002,0,2.0545049,1.4855222,-8.293808,4002
12050260,0.16409965,-0.34573087,1.2169837,4001,0,-2.3465114,-0.108301714,-10.4388485,4001
12054281,-0.29236618,-0.29780003,1.1626883,4021,0,2.0543299,-2.1996732,-8.844414,4021
12058256,-0.1190629,-0.5320309,1.1846229,3975,0,2.055403,1.7346783,-8.212395,3975
12062292,0.043620694,-0.4185341,1.2761992,4036,0,-2.4437058,-1.6842493,-12.710224,4036
12066257,-0.42814404,-0.4316782,1.2185601,3965,0,3.034739,0.6606933,-7.032114,3965
12070262,0.0794565,-0.6656698,1.3160918,4005,0,0.40189442,1.0264639,-7.990355,4005
12075054,-0.2576587,-0.49561387,1.333722,4792,0,-0.59585434,-3.480859,-11.292379,4792
12079054,-0.28506848,-0.59317863,1.358374,4000,0,2.34206,4.3950763,-6.0524483,4000
12083854,0.08840107,-0.7263537,1.4313973,4800,0,-1.3306609,-3.420836,-11.006735,4800
12087854,-0.49084154,-0.5761679,1.3793336,4000,0,1.2763926,1.1941262,-9.169152,4000
12091867,0.11533087,-0.7030547,1.4372209,4013,0,-1.3850955,3.1575713,-10.180048,4013
12095854,-0.08859055,-0.66581476,1.4031284,3987,0,2.116073,-4.430192,-8.582188,3987
12099857,-0.2036271,-0.68502986,1.4205734,4003,0,-0.2720667,1.5598013,-9.290292,4003
12103886,0.025089279,-0.5318343,1.4603134,4029,0,-1.036043,-1.3163075,-11.469406,4029
12107854,-0.21984516,-0.6223986,1.3603736,3968,0,-0.004777757,2.00307,-10.508084,3968
12111854,0.14824985,-0.73719,1.468202,4000,0,-1.6780393,0.43315145,-10.584576,4000
12115854,-0.09504138,-0.34777424,1.4765406,4000,0,-1.0807996,-3.4184022,-10.364923,4000
12119896,-0.26220092,-0.47631514,1.4118717,4042,0,2.9030018,2.917802,-6.914556,4042
12123854,0.31099507,-0.5534789,1.5206186,3958,0,-3.2211585,-0.046811085,-12.320111,3958
12127854,-0.2629384,-0.30852762,1.4625125,4000,0,-1.2811728,-2.406312,-10.419224,4000
12131888,-0.025113663,-0.34467056,1.5318149,4034,0,0.8826208,4.0997014,-6.7873964,4034
12135890,0.15699947,-0.38332695,1.5493615,4002,0,-2.4175844,-3.2103348,-11.780768,4002
12139874,-0.317612,-0.28052658,1.4929954,3984,0,1.0971271,0.968688,-8.83606,3984
12143854,0.16363265,-0.2805254,1.5872196,3980,0,-2.7354848,1.0189906,-9.3468275,3980
12147854,-0.27403346,-0.14855833,1.5219955,4000,0,-0.34425712,-2.3734689,-10.455809,4000
12151872,-0.09239655,-0.22280797,1.5387393,4018,0,1.9151882,3.5250807,-6.966635,4018
12155886,0.12962435,-0.22580992,1.6261457,4014,0,-2.466766,-4.564316,-10.848433,4014
12159854,-0.6687423,0.02352681,1.5347289,3968,0,0.39297703,1.1695725,-8.536365,3968
12163854,0.19073215,-0.1692941,1.6189371,4000,0,-1.5439992,5.2023263,-9.331286,4000
12167857,-0.14469756,-0.14925347,1.6298285,4003,0,-1.1534483,-5.937713,-11.076041,4003
12171854,-0.5119443,0.036414135,1.6098601,3997,0,0.8682399,3.1058192,-7.422134,3997
12175854,0.24010327,-0.04066259,1.6953397,4000,0,-1.7646171,-0.5066322,-8.69407,4000
12179854,-0.43832293,0.040890116,1.596949,4000,0,-1.4327855,-0.5362125,-10.950458,4000
12183863,0.05792911,-0.116415605,1.6377258,4009,0,-0.034726594,4.331151,-9.538132,4009
12187854,0.15403956,0.050595034,1.7048777,3991,0,-0.524934,-6.665998,-10.16257,3991
12191854,-0.5211786,0.13969089,1.5634948,4000,0,1.1136779,4.1158547,-8.874531,4000
12195854,0.5253189,-0.053994626,1.6596973,4000,0,-0.68148047,3.0126078,-7.6185465,4000
12199854,-0.021374658,0.033552807,1.6241869,4000,0,-2.668258,-5.342877,-10.778072,4000
12203896,-0.26750603,0.17328273,1.6291999,4042,0,2.2085464,4.2860513,-7.6138134,4042
12207886,0.5231155,0.040956575,1.7099017,3990,0,-0.55859697,-1.0461504,-9.729837,3990
12211873,-0.21809454,-0.02510538,1.6332196,3987,0,-0.28582814,-1.7568221,-10.62145,3987
12215854,0.121844314,0.13591486,1.7166897,3981,0,-1.7179527,4.769484,-8.9947,3981
12219854,0.32468954,0.06750026,1.7251265,4000,0,0.2274727,-3.5007312,-8.569626,4000
12223864,-0.20053846,-0.019625016,1.6442844,4010,0,2.134223,0.49955714,-8.017034,4010
12227854,0.39439437,-0.014490875,1.7379779,3990,0,-4.009777,1.7615169,-12.329172,3990
12231869,0.0013412134,0.106502146,1.6786418,4015,0,1.1257037,-4.651132,-8.337057,4015
12235860,-0.17897023,-0.12054006,1.6074065,3991,0,0.2222253,4.078532,-8.961967,3991
12239863,0.38221496,-0.13566254,1.7084134,4003,0,-0.13141577,-3.127838,-10.768819,4003
12243857,-0.25496596,0.011891213,1.6369075,3994,0,-1.2361206,-2.0995908,-9.994072,3994
12247857,-0.07754832,-0.19064258,1.6359602,4000,0,-0.83932006,5.452084,-9.763956,4000
12251872,0.20427822,-0.22226454,1.7175255,4015,0,-0.31024212,-3.785629,-11.33878,4015
12255859,-0.37577832,-0.11317597,1.6978879,3987,0,-0.14607307,-0.62658757,-10.009304,3987
12259886,-0.00584732,-0.17771758,1.7549089,4027,0,-1.1147811,3.97542,-10.306629,4027
12263856,-0.068626806,-0.30600148,1.7214823,3970,0,-1.0226327,-2.698095,-12.060155,3970
12267854,-0.29228315,-0.15269129,1.7413207,3998,0,0.7340143,1.3778436,-8.879256,3998
12271856,0.064403355,-0.1247771,1.7948498,4002,0,-0.2780859,-0.12088892,-9.979694,4002
12275862,-0.21717209,-0.21034259,1.6795797,4006,0,-1.2345843,-1.6123704,-12.358942,4006
12279854,-0.12923466,-0.13065346,1.7055439,3992,0,-1.3973238,3.8839283,-11.367996,3992
12283854,0.041244593,-0.0060482104,1.7547985,4000,0,1.2196437,-2.776795,-8.927265,4000
12287918,-0.22393155,-0.014211409,1.6691213,4064,0,-0.40615866,-0.01788498,-10.555632,4064
12291860,-0.0009828854,0.004014058,1.7265552,3942,0,-0.93797606,3.0149145,-12.224046,3942
12295860,0.025559358,0.15246916,1.7842406,4000,0,0.6820832,-2.4969316,-9.757798,4000
12299854,-0.14209275,0.17028758,1.7366025,3994,0,-0.033034697,1.3470939,-8.631186,3994
12303854,0.08680437,0.16999973,1.80835,4000,0,-0.22815411,0.4057534,-9.883336,4000
12307866,-0.088583454,0.19477905,1.813231,4012,0,-1.9243472,-0.943393,-12.262793,4012
12311907,-0.04758644,0.25711614,1.8107623,4041,0,1.772825,1.4601201,-8.529452,4041
12315854,0.09250137,0.24626422,1.8145931,3947,0,0.8182792,-2.1878307,-7.059331,3947
12319854,-0.18235739,0.15692571,1.7660031,4000,0,-2.6537929,0.9786488,-11.097649,4000
12323854,0.054470357,0.2443897,1.8142273,4000,0,1.03815,1.2215794,-10.354432,4000
12327856,0.01828336,0.14243059,1.7612767,4002,0,1.938209,-3.3437362,-7.887707,4002
12331854,-0.2479111,0.11458362,1.7001082,3998,0,0.572322,0.95614374,-7.4496174,3998
12335854,0.08868813,0.14913996,1.8179429,4000,0,-1.6517924,2.7599275,-9.337481,4000
12339864,-0.06799554,-0.012762722,1.7629056,4010,0,-0.7174087,-1.8264089,-10.867414,4010
12343854,-0.13742033,-0.08378504,1.769319,3990,0,2.8418539,0.40509748,-8.435932,3990
12347864,0.099720284,0.06824437,1.9131043,4010,0,-0.3565761,-0.656325,-7.8821306,4010
12351874,-0.20199619,-0.09822314,1.8090899,4010,0,-1.6512623,0.5590443,-9.733353,4010
12355854,0.040519208,-0.19284838,1.8305877,3980,0,1.3324003,1.7690678,-9.922577,3980
12359854,0.045335863,-0.10541622,1.875734,4000,0,-1.0303888,-2.6209335,-9.791183,4000
12363886,-0.23610376,-0.09568517,1.786265,4032,0,1.3471582,1.3895646,-6.776311,4032
12367854,0.1989032,-0.2706621,1.816173,3968,0,-0.530137,1.5512673,-11.000277,3968
12371925,-0.043355357,-0.16899428,1.8011357,4071,0,-0.6376728,-4.1542673,-12.052327,4071
12375854,-0.2207389,-0.027612695,1.7591041,3929,0,2.2232468,3.2189867,-5.920083,3929
12379854,0.29364902,-0.23889406,1.8264629,4000,0,-1.2512412,0.30243754,-11.070908,4000
12383857,-0.11695416,-0.13962361,1.8091851,4003,0,-2.0329022,-3.1636539,-14.337631,4003
12387854,-0.1338694,0.05980957,1.8239106,3997,0,3.002909,4.0317707,-6.3131,3997
12391958,0.2961378,-0.1284321,1.9160905,4104,0,-0.40248233,-1.3695396,-8.996929,4104
12395854,-0.17189233,-0.09414523,1.8727107,3896,0,-2.5654688,-2.6773064,-14.50461,3896
12399854,-0.07105857,0.16834186,1.8979688,4000,0,2.3166559,3.6490812,-8.118443,4000
12403858,0.27801397,-0.05488642,1.9303689,4004,0,0.03603113,-1.6803584,-8.722358,4004
12407915,-0.16088551,-0.038328145,1.8427526,4057,0,-1.0168736,-1.831791,-11.546459,4057
12411864,0.060846027,0.1835151,1.8762615,3949,0,0.706477,2.3878052,-10.134898,3949
12415886,0.101112045,0.039967425,1.8464811,4022,0,0.9339423,-1.402047,-8.223478,4022
12419854,-0.106018655,-0.02860113,1.7951711,3968,0,0.06785691,-0.44206193,-9.189188,3968
12423854,0.05347196,0.1718883,1.882636,4000,0,-1.6587006,1.3745552,-11.659865,4000
12427857,-0.052168507,0.071293175,1.8509356,4003,0,0.75731367,0.13587466,-9.488153,4003
12431863,0.09368546,-0.055328503,1.8608693,4006,0,1.3205833,-0.004951865,-7.8678145,4006
12435854,0.038086142,0.14185424,1.945688,3991,0,-2.1559129,-1.5032351,-10.519022,3991
12439854,-0.1981772,0.13525443,1.8849272,4000,0,-0.20593153,2.1958358,-9.392529,4000
12443890,0.23554282,-0.05213105,1.9149349,4036,0,0.9883138,1.293466,-9.428791,4036
12447857,0.049045686,0.06122364,1.9441805,3967,0,-1.022665,-5.0811434,-10.923214,3967
12451862,-0.28739893,0.21092273,1.8231329,4005,0,0.88920337,2.1186035,-6.8229785,4005
12455896,0.27958342,-0.028535912,1.8272209,4034,0,0.17092122,2.4331124,-9.185343,4034
12459854,0.043914422,-0.008426942,1.8360656,3958,0,-1.0430555,-5.1240163,-12.327959,3958
12463854,-0.27601728,0.2178758,1.7458355,4000,0,1.77257,1.5602733,-6.7429414,4000
12467892,0.241238,0.030290157,1.7873273,4038,0,0.07518723,2.8472967,-8.506506,4038
12471863,0.04628345,-0.06967328,1.8119937,3971,0,-1.6298243,-3.7436,-12.914649,3971
12475873,-0.17506348,0.2076159,1.7617501,4010,0,1.9157717,0.7953803,-7.7389774,4010
12479854,0.14975263,0.051662695,1.8030789,3981,0,-0.09471788,2.044231,-8.707547,3981
12483854,0.032560132,-0.069815174,1.7978408,4000,0,-1.2785566,-2.5226166,-12.850877,4000
12487854,-0.07578604,0.18213886,1.7202393,4000,0,1.6330566,-0.13676059,-8.430064,4000
12491865,0.16129334,0.0602012,1.7106738,4011,0,0.33107847,1.2786083,-8.720594,4011
12495878,0.052339654,-0.04969411,1.6863108,4013,0,-1.7069641,-2.0902414,-13.20976,4013
12499854,-0.013933549,0.14161655,1.5979818,3976,0,1.3814634,-0.3629489,-8.946745,3976
12503854,0.10739849,0.07045149,1.583123,4000,0,1.2496303,0.16767977,-8.658094,4000
12507854,0.030996418,-0.014150197,1.5751064,4000,0,-1.7689507,-0.30723995,-12.57932,4000
12512654,0.007962996,0.09524599,1.495838,4800,0,0.011584283,-0.2346012,-8.962527,4800
12516670,0.027424693,0.05193966,1.536467,4016,0,1.7451966,-0.16416605,-8.42531,4016
12521454,0.011773856,0.042831093,1.529705,4784,0,-0.4515721,-0.37398055,-9.87339,4784
12525454,-0.0801542,0.050980724,1.4758642,4000,0,0.13302195,-0.1704809,-9.574666,4000
12529466,-0.04755916,0.005551247,1.5438969,4012,0,0.30600145,0.8563028,-9.115646,4012
12533461,0.029163143,0.003665253,1.4886352,3995,0,-0.3581674,-1.2949578,-9.427574,3995
12537470,-0.15563172,-0.012408047,1.394828,4009,0,0.6694145,-0.99523306,-9.75808,4009
12541454,-0.13430667,-0.037980203,1.417098,3984,0,0.6582859,1.3625355,-8.374224,3984
12545454,0.0080069415,-0.100218646,1.3566829,4000,0,0.22370665,-1.3018616,-8.254641,4000
12565456,-0.34976065,-0.016184574,1.2951992,3958,0,-0.25069043,2.7867203,-6.715964,3958
12569458,-0.037237097,-0.3383531,1.258059,4002,0,0.120854445,-0.04239105,-9.496336,4002
12573532,-0.076270446,-0.18438709,1.211339,4074,0,0.11770531,-2.2730348,-11.705464,4074
12577469,-0.25185797,-0.026704367,1.1663408,3937,0,1.7089539,0.65348434,-5.6366067,3937
12581454,-0.155143,-0.27229527,1.1268725,3985,0,-0.663046,-0.3384273,-8.709114,3985
12585454,-0.09354795,-0.081741996,1.1158297,4000,0,-2.456974,-0.050910786,-13.175746,4000
12589460,-0.121541865,0.045305863,1.0456035,4006,0,1.3014842,-0.6219392,-7.7934713,4006
12593473,-0.2284892,-0.1546564,1.0358975,4013,0,-0.1354419,0.033767045,-12.011407,4013
12597454,-0.063338906,0.13015269,1.0465494,3981,0,-0.67040604,2.040883,-10.9346285,3981
12601454,0.07003703,0.09893135,0.9729575,4000,0,0.13601474,-2.335593,-8.776653,4000
12605454,-0.2825937,0.10200493,0.9575075,4000,0,0.16553189,0.018607289,-12.221449,4000
12609493,0.04340564,0.33794972,0.96672374,4039,0,0.7002293,3.480354,-8.714125,4039
12613507,0.113830194,0.13951646,0.8945287,4014,0,-0.29079267,-3.0414464,-10.778676,4014
12617454,-0.19917625,0.36784765,0.8721488,3947,0,-0.3422329,1.6953576,-11.79347,3947
12621456,0.1493338,0.42271656,0.8783159,4002,0,0.43374532,2.4346795,-8.658074,4002
12625454,0.08875209,0.24804792,0.842453,3998,0,1.2084689,-2.904769,-11.264126,3998
12629464,-0.08541399,0.4944771,0.8005043,4010,0,-2.1080463,3.7329574,-12.38597,4010
12633456,0.26398882,0.4064625,0.7935847,3992,0,2.0263343,-0.286955,-8.70863,3992
12637454,0.06116452,0.31063715,0.78502524,3998,0,-0.26883116,-1.1427122,-13.1798725,3998
12641479,0.04184174,0.4893122,0.7342253,4025,0,-0.23198487,2.6441994,-9.150612,4025
12645456,0.22415449,0.38053223,0.6827642,3977,0,3.605327,-2.01901,-7.5067043,3977
12649454,0.061439686,0.3220084,0.69175637,3998,0,-0.5120788,1.0347005,-13.459021,3998
12653456,0.13887645,0.40168414,0.66084576,4002,0,-0.15519124,1.3659388,-7.1182275,4002
12657517,0.051593605,0.15000854,0.6105509,4061,0,0.79901606,-1.5816573,-9.652942,4061
12661456,0.13279223,0.33453923,0.5795231,3939,0,1.6187063,1.1414609,-10.342397,3939
12665501,0.102879405,0.21392411,0.57710177,4045,0,0.71507686,-0.36630368,-7.5464473,4045
12669454,-0.055313643,-0.01723937,0.5439163,3953,0,0.97669595,-1.3524038,-9.018107,3953
12673454,0.10605669,0.21811463,0.46455657,4000,0,1.6019862,0.3834477,-7.591102,4000
12677466,-0.009391977,-0.020389466,0.51561886,4012,0,1.5939236,-0.6854799,-7.881999,4012
12681465,0.026486577,-0.07857452,0.4680479,3999,0,-0.6960352,0.62495565,-11.493153,3999
12685456,-0.09290453,-0.023562731,0.4634736,3991,0,1.6211991,-2.3030977,-8.392609,3991
12689454,-0.08579215,-0.07874044,0.4612279,3998,0,1.5974356,1.1993219,-5.309836,3998
12693486,0.03402596,-0.14898778,0.43008286,4032,0,-1.0761509,-1.120168,-10.491614,4032
12697468,-0.20769857,-0.12437781,0.42116815,3982,0,3.0516076,-0.34340215,-9.42602,3982
12701454,0.0309764,-0.19064215,0.3958763,3986,0,0.22043869,0.8505514,-8.107274,3986
12713457,0.10353772,-0.21816844,0.3629602,4000,0,2.8199449,-2.6724381,-8.050789,4000
12717512,-0.26979935,-0.25648633,0.28604707,4055,0,-1.3552059,-0.8616436,-11.192676,4055
12721460,-0.12782393,-0.073221095,0.30491844,3948,0,-0.46241567,3.9164653,-8.40308,3948
12725454,0.069293,-0.1818924,0.29313204,3994,0,3.2563639,-2.06998,-8.519132,3994
12729454,-0.20011106,-0.2201992,0.30251214,4000,0,-0.24912934,-1.0710204,-13.765346,4000
12733462,-0.08997865,0.073075324,0.24521437,4008,0,-0.1004466,2.9757984,-6.489864,4008
12737456,-0.0024204631,-0.2336579,0.25478002,3994,0,1.3354658,-2.0491867,-10.185378,3994
12741496,-0.051585887,0.04748086,0.25816938,4040,0,-0.30064565,1.0362602,-14.114199,4040
12745488,-0.022796333,0.08946882,0.23730113,3992,0,1.0201796,-0.0776074,-6.885775,3992
12749456,-0.04191624,-0.081490904,0.19432998,3968,0,-0.64261824,0.19156726,-11.052808,3968
12753460,0.067252785,0.22853857,0.215665,4004,0,0.6987917,1.8321141,-11.977394,4004
12757458,0.08116395,0.12037232,0.19349153,3998,0,2.225106,-0.35479966,-9.390388,3998
12761466,-0.0065580173,0.010024251,0.17617455,4008,0,-1.5473621,-0.36311215,-12.797803,4008
12765454,0.04590196,0.4137009,0.116084576,3988,0,1.9370077,2.4215732,-7.8620157,3988
12769509,0.19305368,0.1485427,0.17535093,4055,0,3.1803913,-0.98913455,-8.533411,4055
12773480,0.05978548,0.19685258,0.14488152,3971,0,-2.7866373,1.0966107,-15.516689,3971
12777454,-0.06978138,0.38057354,0.097274974,3974,0,0.68131304,1.5995952,-9.431126,3974
12781454,0.2362838,0.21273014,0.1461927,4000,0,3.1828055,-0.28554642,-8.707591,4000
12785454,0.15921256,0.29107395,0.13690801,4000,0,-0.8416153,-1.15225,-12.258457,4000
12789454,-0.1162503,0.3670322,0.10486365,4000,0,1.5395743,1.6857822,-8.000484,4000
12793454,0.14004421,0.13898946,0.11267123,4000,0,0.929259,0.541722,-10.084091,4000
12797493,0.19965601,0.29529917,0.07365545,4039,0,-0.15893278,-0.4679651,-10.078183,4039
12801454,-0.005989121,0.19701558,0.10708848,3961,0,1.5907927,-0.105693854,-7.982525,3961
12805464,0.08100556,0.12704681,0.101484835,4010,0,2.197663,-0.9129366,-8.495083,4010
12809454,0.034170624,0.18576509,0.016655546,3990,0,0.30856594,-0.040011052,-8.588031,3990
12813462,0.10914765,0.06693046,0.06697705,4008,0,0.007980955,2.2634113,-8.721131,4008
12837460,-0.03930291,-0.11512722,0.005023122,4004,0,0.5294237,2.1197193,-8.510864,4004
12841467,0.13809457,-0.20477001,-0.009158314,4007,0,2.376403,-0.83100784,-6.959658,4007
12845478,0.010229646,-0.24552166,0.016816353,4011,0,0.7365502,-1.055308,-11.80682,4011
12849460,-0.060934488,-0.1018366,-0.03528297,3982,0,0.18185778,1.8303144,-9.49192,3982
12853460,-0.012143944,-0.30855998,-0.030215275,4000,0,1.1256142,-0.54347247,-9.11781,4000
12857454,0.03839461,-0.1781993,-0.021526758,3994,0,-0.081333995,-0.31255656,-11.182307,3994
12861454,-0.11419916,-0.098370686,-0.0448382,4000,0,1.2814373,0.79458654,-8.98748,4000
12865456,-0.05272936,-0.30350208,0.002222774,4002,0,1.2131212,-0.6584529,-8.701099,4002
12869454,-0.023957597,-0.10729469,-0.06628425,3998,0,-1.8089012,0.043856323,-10.727163,3998
12873488,-0.13789855,-0.13934214,-0.047810957,4034,0,2.8168411,-0.6406086,-7.5778008,4034
12877454,0.018140277,-0.22511207,-0.021415262,3966,0,-0.37253356,-0.32838842,-11.189076,3966
12881456,-0.082808666,-0.081358634,-0.11277804,4002,0,-1.3087882,-1.4285508,-9.599346,4002
12885456,-0.1487724,-0.10221255,-0.118946776,4000,0,2.3762553,0.55703586,-5.8535166,4000
12889468,0.049464773,-0.16987558,-0.07964732,4012,0,-0.31856745,-0.40865418,-11.453891,4012
12893482,-0.043473557,-0.06315114,-0.14467189,4014,0,0.11577629,-1.5893735,-9.364375,4014
12897454,-0.115050904,-0.09686927,-0.1459287,3972,0,-0.5760464,1.7272563,-8.861653,3972
12901459,0.023830397,-0.08535938,-0.08024167,4005,0,1.3515491,-1.3718731,-9.73252,4005
12905456,-0.067601584,0.001106051,-0.11439655,3997,0,0.13365284,0.0729921,-10.074171,3997
12909531,-0.007453302,-0.10031113,-0.08616769,4075,0,-0.9507941,0.79445004,-9.397558,4075
12913454,0.08131114,0.04803232,-0.0937194,3923,0,0.5962106,-0.910875,-9.791755,3923
12917454,-0.015836364,-0.021643374,-0.12551497,4000,0,0.32302487,0.5646458,-11.70678,4000
12921454,0.18675342,-0.012299773,-0.11217679,4000,0,0.02657179,-0.111434154,-10.568078,4000
12925486,0.08986119,0.055966523,-0.1986638,4032,0,-0.8716333,-0.63673365,-10.593796,4032
12929485,0.028597085,0.017849108,-0.21455744,3999,0,1.540953,0.66164064,-10.012983,3999
12933463,0.25947276,0.019502705,-0.17604786,3978,0,-1.2356352,1.3710603,-12.207925,3978
12937454,0.17066872,0.0093611125,-0.23764014,3991,0,0.45691213,-1.2751448,-10.098982,3991
12941456,0.053832732,0.021722084,-0.21025836,4002,0,0.9375909,1.3421595,-10.108344,4002
12945462,0.23294467,-0.039302576,-0.1507967,4006,0,-2.7115805,3.3263676,-13.482489,4006
12949454,0.24404366,-0.04878064,-0.17264622,3992,0,0.6678592,-2.6714165,-10.534775,3992
12953462,-0.0015302085,-0.023028485,-0.1695004,4008,0,-0.16980629,0.6716219,-12.110441,4008
12957468,0.14699078,-0.05929809,-0.13037616,4006,0,-0.80120486,2.8318934,-12.394692,4006
12962254,0.2649671,-0.15727101,-0.19174452,4786,0,0.34695715,-2.8177078,-11.279197,4786
12966254,0.031099055,-0.01509728,-0.22072856,4000,0,-0.11821404,-0.92092776,-12.009698,4000
12970260,0.06523824,-0.014400018,-0.23508964,4006,0,-0.31243095,2.836226,-10.183791,4006
12974300,0.32372174,-0.2461472,-0.27923596,4040,0,-0.2107304,-2.0010202,-12.301008,4040
12979054,0.033217013,0.013746126,-0.2715805,4754,0,-0.80297077,-1.2720065,-12.588183,4754
12983054,0.021233793,-0.0037248866,-0.25902978,4000,0,2.2026823,3.1300154,-6.8331885,4000
12987054,0.4142993,-0.29484576,-0.24288967,4000,0,-2.574262,-1.0327598,-13.428929,4000
12991060,0.0013276974,0.051755756,-0.18829563,4006,0,-1.4776955,-2.54726,-13.508879,4006
12995062,-0.13704637,0.016089836,-0.21350704,4002,0,3.7131472,1.8543706,-5.797138,4002
12999057,0.44021535,-0.2774187,-0.18823077,3995,0,-1.2301228,-0.66652536,-11.535368,3995
13003054,0.008441689,0.07190424,-0.18452382,3997,0,-1.8384364,-3.1248872,-12.412907,3997
13007054,-0.24838528,-0.020625632,-0.2667904,4000,0,2.4316428,1.9347644,-5.941196,4000
13011063,0.40383875,-0.26233974,-0.24156162,4009,0,-0.5724953,-1.2497278,-11.767249,4009
13015054,-0.10793769,0.06489116,-0.2725753,3991,0,-0.8821948,-3.4138193,-12.419476,3991
13019086,-0.32978,-0.09531368,-0.3350947,4032,0,1.4947723,2.4942188,-6.2496815,4032
13023054,0.2598475,-0.22042155,-0.26763344,3968,0,0.18706317,-2.1854076,-10.246983,3968
13027124,-0.24254301,0.05390941,-0.26439774,4070,0,-0.12390163,-1.6529374,-11.577143,4070
13031060,-0.30841732,-0.10170993,-0.286864,3936,0,-0.97249115,2.8185556,-8.66387,3936
13035054,-0.0009372301,-0.17230897,-0.1837608,3994,0,-1.403689,-1.633497,-12.006345,3994
13039054,-0.313501,0.06688114,-0.17188713,4000,0,1.7795808,-1.7345585,-9.5334835,4000
13043054,-0.29290292,-0.10272321,-0.2315544,4000,0,0.16348256,1.7706987,-8.404578,4000
13047088,-0.08445697,-0.17412204,-0.17250533,4034,0,-2.0092926,-1.4642017,-12.032591,4034
13051054,-0.3757539,0.038339924,-0.2482587,3966,0,2.4874241,-2.1592927,-8.819404,3966
13055063,-0.3110526,-0.09941664,-0.29878923,4009,0,0.80872726,1.5850382,-7.6563487,4009
13059056,-0.13972975,-0.17234705,-0.26599658,3993,0,-3.4464288,-1.0475997,-12.576782,3993
13063057,-0.44521058,0.025754709,-0.33188215,4001,0,1.4509931,-0.86367416,-9.49338,4001
13067054,-0.22988,-0.102292635,-0.33969286,3997,0,2.2664354,1.3361763,-7.65646,3997
13071086,-0.19123122,-0.10196372,-0.24181196,4032,0,-3.6511002,-1.1455871,-13.204957,4032
13075054,-0.422653,0.032156974,-0.27662307,3968,0,0.435763,0.98062295,-8.689517,3968
13079054,-0.1308509,-0.1453967,-0.234444,4000,0,2.987873,0.81274074,-7.942576,4000
13083054,-0.14264336,-0.0898562,-0.1649167,4000,0,-3.0042508,-1.6953375,-13.720701,4000
13087057,-0.37144276,0.060418855,-0.24697609,4003,0,0.08387029,0.9914685,-7.5997744,4003
13091054,-0.01252978,-0.17809692,-0.2316195,3997,0,1.3207419,0.78865194,-9.1479845,3997
13095054,-0.05908851,-0.029933227,-0.22378291,4000,0,-0.8566264,-3.6301472,-13.778341,4000
13099062,-0.364855,0.0806574,-0.3538093,4008,0,1.5044857,1.4063936,-6.1460037,4008
13103054,0.10977134,-0.1958582,-0.32035273,3992,0,-1.2260169,2.0251148,-10.140328,3992
13107062,-0.063444726,8.719144e-05,-0.32924756,4008,0,-1.7546389,-3.2664065,-14.570182,4008
13111162,-0.37306902,0.074481376,-0.36388764,4100,0,2.4369328,2.3167293,-6.118035,4100
13115054,0.24718498,-0.17854618,-0.24086213,3892,0,-1.37681,-0.013051108,-10.252777,3892
13119054,-0.12836944,0.09151549,-0.24219745,4000,0,-1.0498953,-3.3598614,-13.384358,4000
13123107,-0.34652668,0.057532582,-0.2762195,4053,0,1.6041929,4.7793174,-7.8435874,4053
13127067,0.3523987,-0.16599247,-0.17619926,3960,0,-1.5289788,-2.3291972,-12.157237,3960
13131070,-0.24702765,0.21510498,-0.2757067,4003,0,0.28999537,-3.192027,-11.446761,4003
13135070,-0.14469439,0.041709635,-0.32756186,4000,0,-0.06689569,6.2429643,-8.244515,4000
13139054,0.40006503,-0.09658333,-0.2764788,3984,0,-3.1854348,-5.340661,-15.541285,3984
13143054,-0.44148514,0.30845138,-0.4361185,4000,0,3.912405,-1.8635081,-8.090647,4000
13147054,0.17578715,0.08386638,-0.38501704,4000,0,1.6835396,3.1406384,-6.377573,4000
13151087,0.17246784,0.030532876,-0.37279972,4033,0,-5.32954,-3.4744196,-18.033401,4033
13155054,-0.48007956,0.26360697,-0.4427631,3967,0,1.6202005,2.6848183,-11.001498,3967
13159054,0.30795163,0.022764891,-0.29063028,4000,0,1.9150727,-0.6479838,-8.355877,4000
13163054,-0.026896913,0.21595503,-0.3407412,4000,0,-1.0343523,-3.0849476,-13.810879,4000
13167054,-0.26677185,0.20435649,-0.33334407,4000,0,-0.3953188,5.602744,-8.804544,4000
13171064,0.32113525,-0.035937827,-0.2659775,4010,0,-1.9763908,-3.0111473,-14.784794,4010
13175086,-0.31377414,0.26909906,-0.3867482,4022,0,3.341832,-3.1887562,-13.174941,4022
13179054,-0.07344516,0.15048645,-0.34809932,3968,0,0.8423338,3.2468042,-7.151377,3968
13183054,0.13371742,0.035256322,-0.41489622,4000,0,-3.079372,-2.2754498,-14.154604,4000
13187054,-0.38128242,0.18425135,-0.49707663,4000,0,-0.29859605,2.0563571,-13.342935,4000
13191064,0.15651944,-0.027247196,-0.4132579,4010,0,0.0875094,-1.1744025,-12.998582,4010
13195126,-0.2048376,0.128536,-0.48208535,4062,0,2.1255686,-2.2815244,-12.559028,4062
13199054,-0.26101652,0.12498403,-0.40077645,3928,0,-0.31580365,3.207221,-8.466782,3928
13203062,0.101081595,-0.020982746,-0.38496754,4008,0,-2.132452,-0.5717718,-14.568616,4008
13207054,-0.37285966,0.10978162,-0.37664562,3992,0,0.10802482,0.65121275,-14.271704,3992
13211063,0.052904226,-0.017733872,-0.28548685,4009,0,-1.7805965,0.5271507,-12.535982,4009
13215076,-0.06491821,0.09019774,-0.35960636,4013,0,2.1329806,-2.938212,-12.186462,4013
13219054,-0.17956828,0.11121139,-0.34422955,3978,0,1.3968539,-0.23961923,-7.988997,3978
13223054,0.14214931,0.068079084,-0.42301497,4000,0,0.4541805,-1.6494919,-11.826304,4000
13227099,-0.14521524,0.17236869,-0.46779191,4045,0,-2.420115,-0.3611837,-14.606665,4045
13231054,0.09037923,0.11547426,-0.43936905,3955,0,-2.9041436,0.24024804,-12.30636,3955
13235056,0.094373316,0.13347238,-0.47481483,4002,0,2.6403923,-2.4820938,-13.26618,4002
13239054,-0.00074949814,0.2849216,-0.42160404,3998,0,2.4411232,-1.7670313,-8.030067,3998
13243054,0.16033779,0.19212061,-0.44043157,4000,0,0.91545767,0.8290418,-9.546575,4000
13247054,0.03230129,0.24239554,-0.41274354,4000,0,-2.2876968,0.23215434,-13.626995,4000
13251054,0.0021361862,0.23999935,-0.35936236,4000,0,-2.93183,2.0976005,-12.932553,4000
13255062,0.1720012,0.20496379,-0.30400714,4008,0,2.9928994,-1.5473251,-11.6798525,4008
13259054,-0.007870478,0.28530774,-0.3300626,3992,0,0.90851533,-3.0067163,-9.314837,3992
13263054,0.027199958,0.22340344,-0.36401132,4000,0,1.1573461,2.6598024,-9.99615,4000
13267054,0.19283834,0.1815443,-0.37211,4000,0,-1.5749241,-2.549053,-13.35808,4000
13271056,-0.09900057,0.22297342,-0.43727714,4002,0,-0.8335972,0.66662985,-12.401095,4002
13275057,0.14780538,0.07742433,-0.39308646,4001,0,2.2982268,-0.9696321,-11.587122,4001
13279174,-0.03398155,0.12716694,-0.4545027,4117,0,-0.015863243,-3.921116,-11.25257,4117
13283054,-0.086625434,0.13027447,-0.43501353,3880,0,0.9266528,3.2226703,-10.289084,3880
13287055,0.09016253,0.005942348,-0.3951647,4001,0,0.4828818,-3.5117025,-10.3247,4001
13315054,0.003984191,0.052485634,-0.35233268,3990,0,-0.4513558,-0.40610012,-9.655446,3990
13319060,-0.045204844,-0.10347102,-0.47105712,4006,0,0.086778075,-1.9410264,-10.889891,4006
13323054,-0.052597843,0.042686883,-0.40609583,3994,0,0.22415827,1.3897179,-12.9982605,3994
13327054,-0.0024155548,0.0026698557,-0.43447018,4000,0,2.1060452,-4.399466,-8.3241825,4000
13331107,-0.02745106,0.0058238897,-0.43463913,4053,0,-0.14389025,2.0431342,-11.355133,4053
13335054,0.057532646,0.12405186,-0.3323309,3947,0,0.5333547,-2.39706,-8.079261,3947
13339054,-0.09465451,0.015915174,-0.3926179,4000,0,1.0687782,0.08628531,-8.574536,4000
13343054,0.18194978,0.0983366,-0.25945926,4000,0,-0.44374418,-0.7426802,-11.89411,4000
13347054,-0.086904876,0.1351551,-0.31164524,4000,0,1.2213967,-3.557098,-7.3705735,4000
13351054,0.11897332,0.039838273,-0.29388723,4000,0,-0.56904376,1.5982811,-11.709246,4000
13355054,0.12083996,0.21168853,-0.31770146,4000,0,1.6053451,-3.6915998,-7.928625,4000
13359062,-0.07904012,0.024650482,-0.39516544,4008,0,2.1110406,0.12599656,-8.114538,4008
13363126,0.14511508,0.12838444,-0.37367532,4064,0,-1.736481,-1.41951,-10.793901,4064
13367054,-0.24286419,0.05351262,-0.4586611,3928,0,0.34049028,0.5355261,-6.8293304,3928
13371054,0.10133772,-0.13067146,-0.3987712,4000,0,-1.4269124,0.72338575,-12.70268,4000
13375060,-0.25554836,0.043387134,-0.42704362,4006,0,1.908263,-3.256004,-7.8148794,4006
13379054,-0.29887637,-0.19944926,-0.41391465,3994,0,0.51471627,3.4586477,-6.4547877,3994
13383105,-0.08540938,-0.13903409,-0.31802243,4051,0,-0.765334,-3.8875034,-9.37117,4051
13387054,-0.6903829,-0.112858035,-0.39249942,3949,0,0.8294377,3.0942318,-5.9162908,3949
13391062,-0.15606149,-0.36115435,-0.28990224,4008,0,-1.5905988,0.46712512,-10.469931,4008
13395054,-0.628142,-0.19325364,-0.3756836,3992,0,-0.34890723,-1.7952929,-9.814597,3992
13399054,-0.5023208,-0.3542906,-0.34439152,4000,0,0.14004616,4.640005,-7.2389717,4000
13403067,-0.24104871,-0.42654234,-0.36382836,4013,0,-0.5040145,-5.149825,-10.680334,4013
13407854,-0.9105156,-0.3229156,-0.4516978,4787,0,-0.16916232,4.374864,-8.40806,4787
13411863,-0.18441877,-0.50737625,-0.39582917,4009,0,-0.94476956,-1.1333774,-9.43967,4009
13415854,-0.8285476,-0.43978438,-0.49052936,3991,0,0.22468537,0.34128442,-10.110174,3991
13419854,-0.455582,-0.45119077,-0.41335785,4000,0,-3.4475698,3.7956882,-9.619072,4000
13423854,-0.55943936,-0.4935665,-0.44043508,4000,0,2.0908253,-2.8746715,-9.287927,4000
13427854,-0.63326275,-0.40453595,-0.38033912,4000,0,-1.8038538,4.7002125,-9.474601,4000
13431877,-0.27699476,-0.5160275,-0.39669058,4023,0,-0.989613,-1.464381,-10.28705,4023
13436654,-0.6822776,-0.36591268,-0.36330596,4777,0,-1.5125284,3.5644965,-10.878727,4777
13440654,-0.12491805,-0.41680226,-0.41022086,4000,0,-0.84881324,0.759759,-8.948864,4000
13444657,-0.3657957,-0.42990226,-0.3526287,4003,0,-1.765995,-0.9608614,-13.703638,4003
13448657,-0.32962784,-0.1749694,-0.42720288,4000,0,0.60535103,1.2514015,-5.7022624,4000
13452661,-0.112824835,-0.45346785,-0.44768518,4004,0,-1.0774457,1.5007396,-13.496044,4004
13456657,-0.24224971,-0.053919133,-0.44470403,3996,0,-3.9286044,2.1097143,-12.23918,3996
13460654,-0.13186659,-0.27874094,-0.5098912,3997,0,2.2934816,2.1853466,-7.4547753,3997
13464654,0.08320844,-0.06322571,-0.4056919,4000,0,-3.5324774,-0.61160564,-12.612479,4000
13468654,-0.38284862,-0.028486095,-0.45967886,4000,0,4.0622163,1.4799093,-5.3500414,4000
13472654,0.29207546,-0.06982913,-0.4136818,4000,0,-8.15171,4.648042,-16.408781,4000
13476699,-0.18481883,0.094174206,-0.37952825,4045,0,1.2006723,-0.37281236,-9.276232,4045
13480696,0.052642416,-0.0194223,-0.36363918,3997,0,-2.5360954,3.1519063,-12.187109,3997
13484654,0.21830612,0.23777887,-0.3778665,3958,0,2.136983,-2.2500603,-7.868492,3958
13488654,-0.20400321,0.06179026,-0.36660624,4000,0,-1.0560772,2.1241982,-11.325709,4000
13492660,0.3123431,0.31920996,-0.44759905,4006,0,-4.316342,1.908839,-12.121384,4006
13496654,-0.16902812,0.19275092,-0.41043156,3994,0,1.6347082,0.2838251,-9.403395,3994
13500666,0.19214578,0.29747197,-0.4261849,4012,0,-0.5746822,0.30137682,-9.4498205,4012
13504669,0.03383853,0.35347608,-0.4844015,4003,0,2.5540252,0.41399017,-8.344838,4003
13508654,-0.0088821035,0.3152399,-0.40531737,3985,0,-4.4729385,3.2222164,-11.682018,3985
13512660,0.15195571,0.3313306,-0.46305546,4006,0,-2.0421896,1.322352,-11.8015995,4006
13516654,-0.046946067,0.32700205,-0.32046774,3994,0,0.020887446,0.46491092,-11.4272585,3994
13520654,0.15912992,0.33401394,-0.38355657,4000,0,2.410672,-0.53631145,-8.004585,4000
13524654,0.103232995,0.3681873,-0.37091503,4000,0,0.0650446,1.6363841,-11.636463,4000
13528706,0.031186981,0.382165,-0.35305586,4052,0,-1.4783804,0.33574674,-8.588677,4052
13532659,0.1118107,0.2984348,-0.42663664,3953,0,-0.52077514,2.0700905,-10.025689,3953
13536654,0.12495049,0.35283774,-0.34313786,3995,0,0.6529107,-0.9638516,-8.622485,3995
13540654,-0.008374414,0.31770834,-0.46462363,4000,0,3.7218716,-0.05238415,-6.3848853,4000
13544654,0.21786483,0.2950095,-0.4275522,4000,0,-3.5940464,3.0219173,-11.9075165,4000
13548654,-0.0520496,0.2918478,-0.4339911,4000,0,-1.4769111,0.6669503,-9.373432,4000
13552660,0.08159913,0.14589337,-0.42227957,4006,0,-0.27691,2.0905328,-11.095038,4006
13556661,0.21155213,0.30726758,-0.35623285,4001,0,1.1550277,-2.6384926,-8.942529,4001
13560654,-0.24801196,0.22875309,-0.41439968,3993,0,3.2064998,2.1566594,-5.5777774,3993
13564703,0.29882106,0.1551696,-0.3709819,4049,0,-4.3663588,2.0750675,-11.632054,4049
13568654,-0.23298295,0.25642106,-0.4052245,3951,0,1.9199052,0.21234956,-9.040406,3951
13572657,0.13626513,0.09156974,-0.36084878,4003,0,-1.1805196,2.8396206,-8.510511,4003
13576654,0.1959351,0.1397323,-0.3613383,3997,0,0.44803575,-4.782684,-10.112207,3997
13580737,-0.27439636,0.1841359,-0.39583787,4083,0,0.10139565,4.261446,-8.264396,4083
13584694,0.39605215,0.05026244,-0.411546,3957,0,0.57653004,-2.024996,-9.195549,3957
13588654,-0.19415323,0.1285107,-0.4382377,3960,0,2.1381614,-0.67833716,-11.302071,3960
13592662,0.21662004,0.18133987,-0.4096846,4008,0,-2.0562816,2.7062838,-6.6033206,4008
13596654,0.09895051,-0.008252547,-0.4004595,3992,0,2.5876124,-3.8893588,-9.326615,3992
13600654,-0.023936981,0.20356339,-0.39230967,4000,0,-1.317013,3.7649906,-10.6108265,4000
13604656,0.3786943,0.053952496,-0.37703893,4002,0,2.5963957,-1.6399727,-6.604697,4002
13608666,0.025381383,0.047228437,-0.3262933,4010,0,-2.8385353,0.18355712,-13.9995365,4010
13612667,0.22922479,0.19990796,-0.35009274,4001,0,0.043082383,2.0975478,-6.2273026,4001
13616654,0.35592255,-0.107405595,-0.27585965,3987,0,2.1191554,-2.770501,-11.084043,3987
13620656,0.17388645,0.23073786,-0.34793422,4002,0,0.057927214,-1.1133211,-9.350916,4002
13624654,0.29802045,0.020860111,-0.3285711,3998,0,2.6880624,2.0703866,-6.499563,3998
13628654,0.38321382,0.01408007,-0.31321096,4000,0,-2.984453,-1.5822922,-12.880067,4000
13632725,0.19663006,0.1358983,-0.3895055,4071,0,1.6175429,1.4737593,-8.527478,4071
13636657,0.42389587,-0.029166602,-0.21695977,3932,0,0.011704851,-0.22282109,-10.216037,3932
13640654,0.34989375,0.038947105,-0.29533383,3997,0,-0.7279787,-2.3472524,-9.308011,3997
13644654,0.17483275,0.017787775,-0.19771883,4000,0,1.0991217,2.3494437,-10.1694975,4000
13648697,0.44441557,5.9488433e-05,-0.19069242,4043,0,1.2683644,-2.401596,-9.942838,4043
13652660,0.2363193,0.02130433,-0.20062053,3963,0,0.9710574,-0.6140744,-10.595643,3963
13656654,0.29266688,-0.0026510367,-0.09535374,3994,0,-1.9473947,0.79983425,-8.935983,3994
13660677,0.29421312,-0.04079393,-0.17599213,4023,0,1.2401842,-1.1240087,-8.635703,4023
13664654,0.25487566,-0.025181947,-0.088972144,3977,0,2.5578768,-1.3774545,-10.83089,3977
13668671,0.17624715,-0.014272587,-0.12908469,4017,0,-0.6727049,0.52539897,-8.681091,4017
13672661,0.2817606,-0.15011941,-0.07159663,3990,0,-2.7389178,0.47025853,-11.683124,3990
13676654,0.08557223,-0.03657925,-0.100473806,3993,0,1.6868834,-2.9534197,-9.865807,3993
13680664,0.15405467,-0.090810575,-0.009540502,4010,0,3.3085504,1.3696028,-9.132253,4010
13684703,0.28831455,-0.10704363,0.008258589,4039,0,-2.1152782,-2.742314,-10.243365,4039
13688726,-0.17061964,-0.11088861,-0.0009343104,4023,0,-0.4741616,2.3779807,-8.989919,4023
13692654,0.34173113,-0.15484655,0.1481796,3928,0,0.9787612,-0.53239244,-10.388479,3928
13696654,0.038065564,-0.14143723,0.042876888,4000,0,2.5838602,-4.543201,-6.609641,4000
13700654,-0.03622309,-0.18222113,0.19917804,4000,0,-3.8187265,4.504685,-12.094462,4000
13704670,0.3145197,-0.04476748,0.08635804,4016,0,1.673549,-2.0536582,-7.3687587,4016
13708654,-0.07860646,-0.3461329,0.19169167,3984,0,0.5011592,-2.4159782,-12.82435,3984
13712672,0.062416002,-0.009136482,0.18586564,4018,0,-1.6845924,2.0158582,-9.277852,4018
13716654,0.071321994,-0.2528072,0.18699853,3982,0,1.2378072,-0.5909107,-8.671375,3982
13720654,0.030150149,-0.18387291,0.2634197,4000,0,-0.4447763,-1.7988669,-11.826218,4000
13724654,-0.11095788,-0.10031428,0.28912106,4000,0,0.3983085,2.591345,-7.8200693,4000
13728654,0.13259934,-0.20582837,0.37575418,4000,0,-1.2858274,-0.903625,-10.129182,4000
13732724,-0.14416602,-0.1921538,0.3575566,4070,0,1.1633737,-2.4404466,-9.990289,4070
13736699,-0.07074833,-0.13655686,0.47681683,3975,0,-1.3382815,1.8412623,-10.128745,3975
13740654,0.029979276,-0.18207173,0.36548078,3955,0,0.05890899,-1.7820767,-6.5711613,3955
13744654,-0.13904047,-0.27935863,0.5008853,4000,0,-1.3819984,-0.91387236,-13.480986,4000
13748654,-0.064605445,0.02023727,0.4068771,4000,0,0.58595884,1.2634783,-6.210728,4000
13752680,0.0009235572,-0.39579037,0.49207088,4026,0,0.6382955,-0.73613095,-9.20393,4026
13756654,-0.12631042,-0.09076047,0.44827923,3974,0,-2.0072877,-1.3931723,-11.963601,3974
13760654,-0.19379833,-0.15765665,0.5113166,4000,0,2.3162456,2.0008516,-6.317237,4000
13764662,0.06961129,-0.23597269,0.5291963,4008,0,-2.72045,-0.93478495,-9.2531,4008
13768657,-0.28998342,-0.23255907,0.5470587,3995,0,0.7497209,-0.8013229,-11.043535,3995
13772650,-0.023885835,-0.051214438,0.63056296,3993,0,-2.0867329,2.3712914,-8.941874,3993
13776654,-0.0969879,-0.28099495,0.5725684,4004,0,1.2857261,-0.6997168,-6.784011,4004
13780665,-0.12940331,-0.20054454,0.6924011,4011,0,-3.7751424,0.11053822,-14.120595,4011
13784660,-0.20077533,0.0052500335,0.59939843,3995,0,3.2148223,0.9890305,-4.9122696,3995
13788707,0.024264904,-0.31816354,0.6901273,4047,0,-3.1438203,-0.5307631,-10.627457,4047
13792663,-0.27442876,-0.07396658,0.5819329,3956,0,0.11202487,-1.4821029,-10.486388,3956
13796663,-0.099004224,-0.10114136,0.6834454,4000,0,-0.50695324,2.516239,-8.205241,4000
13800654,0.0051568127,-0.12509134,0.5998689,3991,0,-0.46380267,-2.310936,-8.12115,3991
13804654,-0.34012598,-0.202846,0.65137273,4000,0,-2.7866795,2.533426,-13.044646,4000
13808654,0.036144,0.10283307,0.6913384,4000,0,1.934253,0.3365948,-6.5406847,4000
13812661,-0.24794361,-0.20782928,0.68113625,4007,0,-0.2657253,0.38402876,-8.773283,4007
13816715,-0.1288975,-0.058234014,0.7504931,4054,0,-2.5138948,1.1324644,-11.555342,4054
13820654,-0.1928143,0.07234342,0.76157415,3939,0,3.8782756,0.9049643,-6.3418117,3939
13824654,0.018557556,-0.0801382,0.80079395,4000,0,-4.608436,-0.050762527,-10.390654,4000
13828654,-0.39171997,-0.045331694,0.7526413,4000,0,1.7683418,0.80491257,-10.463632,4000
13832663,0.05091526,0.13078368,0.83169246,4009,0,-2.7562118,1.6654718,-9.331617,4009
13836666,-0.2026738,-0.03754909,0.7426402,4003,0,3.564562,-1.8042666,-7.725221,4003
13840699,-0.14600772,0.03380776,0.78193617,4033,0,-6.4691753,2.570778,-12.612668,4033
13844654,-0.14094552,0.18191068,0.77389216,3955,0,5.755584,-0.6143204,-4.697801,3955
13849456,-0.10514422,0.020327784,0.767304,4802,0,-4.5726223,0.39950714,-12.233715,4802
13854258,-0.33281925,0.08911264,0.81671906,4802,0,2.0724623,2.5706758,-8.11844,4802
13858262,0.07334095,0.17626534,0.87295574,4004,0,-4.6392193,-0.035614256,-9.864335,4004
13862259,-0.3762298,0.07066489,0.8436471,3997,0,5.68219,-1.0773346,-6.791329,3997
13866256,-0.17214356,0.13005319,0.9561637,3997,0,-5.6045322,4.2725496,-12.184519,3997
13870280,-0.117448285,0.21404211,0.9012231,4024,0,2.7154062,-1.6446533,-5.3697224,4024
13874289,-0.27165392,0.011965525,0.92566097,4009,0,-1.5051157,1.1391224,-11.805265,4009
13878256,-0.21107045,0.277783,0.9175148,3967,0,0.46335736,0.46691805,-8.101694,3967
13882312,-0.1129381,0.01265829,0.93548036,4056,0,-2.4869258,1.9005169,-11.323542,4056
13886259,-0.21088906,0.23229168,0.8323146,3947,0,1.7664104,-3.0325513,-6.6575603,3947
13890245,-0.33151555,0.03783666,0.9561018,3986,0,-0.39719275,5.3834968,-11.60839,3986
13894256,0.01980887,0.24406886,0.8620845,4011,0,-1.4256777,-1.8062683,-7.173377,4011
13898254,-0.41892818,-0.0429397,0.9409337,3998,0,3.0924735,1.3338157,-9.935799,3998
13902281,-0.047692724,0.24788462,0.98470175,4027,0,-2.1896803,1.7913271,-9.476071,4027
13906258,-0.17583776,0.075647295,0.9824332,3977,0,2.1010928,0.92439926,-7.317299,3977
13910310,-0.12136451,0.056125782,1.04412,4052,0,-3.7554007,-0.0591572,-12.087279,4052
13914254,-0.27319026,0.15057625,1.0313858,3944,0,6.1117244,2.0982263,-4.8630233,3944
13918256,0.16895853,0.075972095,1.0846441,4002,0,-4.6252813,0.8437639,-11.110828,4002
13922257,-0.3929898,0.03706267,0.9760359,4001,0,3.7759652,-0.9223638,-7.466662,4001
13926258,0.119638644,0.09314461,1.1053002,4001,0,-2.4416838,3.5797577,-10.399074,4001
13930279,-0.10218639,0.09277527,0.94457924,4021,0,4.7809696,-3.180138,-5.233696,4021
13934390,-0.12791839,-0.08213627,1.051,4111,0,-5.6285114,4.1647577,-13.869377,4111
13938257,0.057716902,0.21310988,1.0194153,3867,0,3.8380926,-0.67719257,-6.09463,3867
13942258,-0.061568476,-0.14791054,1.0666264,4001,0,-2.3625212,1.0523479,-9.56957,4001
13946260,0.015814325,0.09366342,1.1024425,4002,0,1.1221985,-0.104458116,-9.9037285,4002
13950254,-0.09720086,-0.006067661,1.1234406,3994,0,-1.1433253,3.384743,-9.511963,3994
13954286,0.19278985,0.0020237602,1.1611316,4032,0,1.0712193,-2.724393,-5.4933662,4032
13958279,-0.20092607,-0.08186974,1.177131,3993,0,-0.111078694,3.1908922,-13.345902,3993
13962262,0.19656073,0.17177543,1.1585783,3983,0,-1.9112859,0.08430009,-6.4853654,3983
13966267,-0.045510985,-0.2527143,1.1710163,4005,0,3.2050495,-0.63888514,-9.754445,4005
13970268,0.087356605,0.14679807,1.1467259,4001,0,-3.2076285,-0.240534,-10.759135,4001
13974256,-0.028988937,-0.0034439724,1.1098443,3988,0,6.271907,1.5653788,-4.005853,3988
13978260,0.19781871,-0.17153226,1.1442032,4004,0,-6.1773686,-1.1301237,-13.177884,4004
13982257,-0.16134197,0.14060569,1.0787963,3997,0,5.154291,0.5438168,-5.841823,3997
13986342,0.17788303,-0.05057411,1.1665853,4085,0,-2.0183935,1.773032,-9.802836,4085
13990256,-0.049619295,-0.07402877,1.144737,3914,0,0.41316286,-2.2846096,-8.819683,3914
13994279,0.036420897,0.061004568,1.2377368,4023,0,-2.837429,3.9369142,-12.0788965,4023
13998256,0.07468305,-0.009956669,1.193032,3977,0,3.2612972,-3.666107,-3.8963468,3977
14002275,-0.020207299,-0.13441792,1.282427,4019,0,-1.5133066,2.5437975,-13.199473,4019
14006262,0.060244203,0.19566232,1.1703439,3987,0,-1.9182848,-0.12188313,-7.6061707,3987
14010257,0.020371346,-0.1676554,1.2398965,3995,0,4.023744,-0.5797426,-7.5823326,3995
14014277,0.102229245,0.102786794,1.2115841,4020,0,-2.8186278,-1.4717144,-11.882448,4020
14018305,-0.07018218,0.04500337,1.1119035,4028,0,2.10323,2.782026,-5.426567,4028
14022272,0.26119003,-0.106502645,1.242597,3967,0,-1.976187,-1.69622,-10.477949,3967
14026256,-0.11608975,0.046127655,1.1037434,3984,0,2.9643703,-1.6426396,-7.2282434,3984
14030254,0.1807489,0.02054009,1.2453868,3998,0,-0.8863019,3.1254961,-7.622279,3998
14034267,0.1200327,-0.0832011,1.1852442,4013,0,-0.2944951,-2.9788256,-9.242951,4013
14038328,-0.013062511,-0.024039682,1.2299391,4061,0,-1.7140832,2.7388756,-12.171049,4061
14042290,0.24468859,-0.010556177,1.2840368,3962,0,1.4401052,-2.1463497,-6.3811707,3962
14046256,0.024201794,-0.1369724,1.2651788,3966,0,0.7486325,0.4222492,-9.99135,3966
14050254,0.25086764,0.024252852,1.2401332,3998,0,-1.4195454,-0.4680264,-10.316477,3998
14054254,-0.008710156,-0.15642266,1.2221676,4000,0,3.2159681,-0.12757081,-6.6134443,4000
14058257,0.3806407,-0.06132008,1.2772564,4003,0,-4.247154,0.51277894,-10.981081,4003
14062258,-0.033487033,-0.002351975,1.1156503,4001,0,4.899302,-2.2678626,-6.8712535,4001
14066262,0.24671242,-0.1596188,1.2591201,4004,0,-4.7222543,3.3620815,-12.453708,4004
14070279,0.29074764,-0.045255654,1.1912858,4017,0,0.6853443,-3.7229557,-8.062535,4017
14074262,-0.029963946,-0.11654565,1.2172287,3983,0,-1.2876408,1.9209077,-9.602534,3983
14078259,0.40287384,-0.07615218,1.2833211,3997,0,2.1112187,-1.4053758,-8.492342,3997
14082256,0.02771418,-0.116381645,1.1878362,3997,0,-0.8332845,-0.726273,-10.493764,3997
14086268,0.20142055,-0.08744677,1.3113744,4012,0,-1.875346,0.8487296,-8.139875,4012
14090355,0.15243794,-0.14072268,1.2233355,4087,0,2.5269418,-0.8939461,-9.014353,4087
14094257,0.24711977,-0.09465965,1.248255,3902,0,-1.1873536,-0.83395946,-9.757031,3902
14098282,0.07643979,-0.15535223,1.2402905,4025,0,0.14122699,0.3767512,-8.409919,4025
14102305,0.22728193,-0.21909285,1.2326307,4023,0,-3.3272176,0.5026109,-10.303786,4023
14106254,0.19553554,-0.16073292,1.1982918,3949,0,2.5262258,-3.7168949,-8.679545,3949
14110260,0.016882755,-0.23509142,1.2090615,4006,0,1.4481713,1.7677842,-9.3632,4006
14114274,0.3809604,-0.256392,1.1862553,4014,0,-3.889907,-1.4854931,-10.185673,4014
14118262,-0.19001263,-0.29224417,1.1707726,3988,0,2.2685785,0.5127898,-9.099372,3988
14122257,0.36619827,-0.33003104,1.2311276,3995,0,-1.3023616,1.0702596,-9.152736,3995
14126279,0.0800989,-0.37444347,1.2017324,4022,0,3.958048,-4.98157,-7.453312,4022
14130256,-0.063232265,-0.39133254,1.2503362,3977,0,-4.7354255,5.9148955,-9.75988,3977
14134256,0.39893988,-0.4713208,1.202947,4000,0,1.1183151,-3.0302188,-8.075225,4000
14138259,-0.12671667,-0.5464075,1.2077203,4003,0,-0.18425284,-1.084962,-12.911593,4003
14142312,0.25057322,-0.4265627,1.2010893,4053,0,-0.6620454,1.4192848,-6.6403146,4053
14146254,0.11965987,-0.7357929,1.147608,3942,0,1.7423811,-2.7754295,-9.8459,3942
14150264,0.05370489,-0.5100599,1.1393435,4010,0,-1.8015262,0.9672871,-9.926504,4010
14154296,0.18650605,-0.7241603,1.0971383,4032,0,3.1975458,0.28795344,-5.260572,4032
14158256,0.14508717,-0.8055774,1.1232061,3960,0,-3.5478077,-2.0191462,-12.128092,3960
14162282,0.078532845,-0.6899302,1.0633296,4026,0,0.8882439,2.7693632,-7.7802973,4026
14166258,0.2000204,-0.9787884,1.1239035,3976,0,0.40982422,-1.516762,-10.602855,3976
14170267,0.21029614,-0.8784255,1.0750155,4009,0,-1.5884968,-0.2533462,-10.262947,4009
14174264,0.09935261,-0.96025884,1.1291283,3997,0,1.9828782,1.0765179,-7.4789286,3997
14178256,0.308607,-1.0689785,1.0899897,3992,0,-1.288413,-0.7197729,-8.815596,3992
14182279,0.2819286,-1.085342,1.0459561,4023,0,3.1144602,0.452465,-9.961032,4023
14186296,0.28558832,-1.068244,1.0875328,4017,0,-1.9142671,-0.20021778,-8.35224,4017
14190258,0.3618244,-1.2088071,0.99622893,3962,0,-0.23351103,1.2009494,-9.2403555,3962
14194372,0.40537626,-1.1551609,1.0651244,4114,0,-1.3990768,0.401711,-11.074737,4114
14198254,0.4135939,-1.2186314,0.9389885,3882,0,2.8763578,-0.7158385,-6.9550424,3882
14202257,0.58912116,-1.2195747,1.0118439,4003,0,-0.6648466,0.9757226,-11.727427,4003
14206261,0.4317186,-1.1530855,0.9442574,4004,0,-0.17493057,0.10109827,-7.5454874,4004
14210280,0.6803699,-1.3458004,0.93357325,4019,0,-1.490258,2.3403614,-12.7262335,4019
14214257,0.6953606,-1.069543,0.96812665,3977,0,0.053271003,-0.5301003,-9.121531,3977
14218259,0.64334464,-1.3089664,0.9035504,4002,0,3.7322233,1.5536804,-6.735799,4002
14222272,1.0489024,-1.1431545,0.9530201,4013,0,-3.8680217,-0.5909965,-13.154069,4013
14226256,0.4948846,-1.1206142,0.884168,3984,0,4.2655854,1.5182862,-6.7661257,3984
14230277,1.243602,-1.278631,0.9067076,4021,0,-6.1429524,2.8452532,-14.6172285,4021
14234254,0.8500869,-1.0221745,0.89311254,3977,0,5.141173,-2.0192153,-7.004479,3977
14238273,1.0422949,-1.1999931,0.8651158,4019,0,-1.7114902,2.000987,-10.330907,4019
14242254,1.1708223,-1.0279409,0.833253,3981,0,2.5818555,-1.8841299,-8.912948,3981
14246309,0.9464634,-1.0828818,0.827733,4055,0,-2.8239436,3.553531,-11.39551,4055
14250256,1.2618268,-1.063784,0.78110236,3947,0,-0.5090948,-1.1914271,-10.164892,3947
14254256,0.9898478,-1.0193757,0.84244287,4000,0,1.7162529,2.8801994,-10.039167,4000
14258254,1.3008751,-1.0498571,0.76196694,3998,0,1.0285829,-2.6913912,-8.76127,3998
14262261,0.9717199,-0.94863224,0.7867104,4007,0,0.23471083,3.475311,-12.532258,4007
14266279,1.2168399,-0.9968269,0.7648552,4018,0,-1.6235367,-0.28955883,-9.736069,4018
14270301,1.0035542,-0.9908031,0.7583502,4022,0,-0.16539872,-0.13119924,-12.132406,4022
14274262,1.1096672,-0.90289867,0.8321049,3961,0,-0.20536487,1.0302246,-10.359137,3961
14278256,1.0157096,-0.9819902,0.6981412,3994,0,2.6644702,-3.1638956,-9.126235,3994
14282259,0.8949387,-0.8688818,0.7633877,4003,0,-1.0223274,4.927756,-11.801426,4003
14286261,1.0355927,-0.8782224,0.6488008,4002,0,-0.04212388,-3.3433301,-9.650127,4002
14290257,0.7220907,-0.836132,0.6905553,3996,0,-0.35430422,3.3467255,-12.294165,3996
14294279,0.96934927,-0.83753216,0.7155593,4022,0,-0.40721717,-2.346706,-10.73505,4022
14298312,0.58337814,-0.77324325,0.63714206,4033,0,0.9076347,-0.24079189,-11.039318,4033
14303054,0.8255949,-0.7775404,0.73157924,4742,0,-0.51383543,1.2975264,-10.666111,4742
14307064,0.46702507,-0.70510846,0.6216117,4010,0,0.46269664,-2.511494,-11.700002,4010
14311054,0.54597276,-0.6201161,0.7506306,3990,0,0.21803196,4.3653355,-9.381452,3990
14315060,0.5666944,-0.71526396,0.63107383,4006,0,-0.7416808,-4.9094386,-11.669193,4006
14319103,0.19336568,-0.48627275,0.67403,4043,0,0.035320904,5.672639,-10.825162,4043
14323057,0.5738761,-0.62433153,0.64679486,3954,0,-0.77074564,-2.8464694,-10.829476,3954
14327054,0.038346957,-0.42884544,0.5842078,3997,0,-0.069805175,1.374742,-11.764825,3997
14331060,0.35502005,-0.47077325,0.66696924,4006,0,0.16470836,0.039892357,-10.1407585,4006
14335054,0.046800785,-0.37308183,0.54457444,3994,0,0.62956727,-3.1400166,-10.443659,3994
14339054,-0.017227642,-0.31582883,0.6565525,4000,0,-0.25118163,4.462685,-9.434082,4000
14343054,0.098593615,-0.37003496,0.56522065,4000,0,-0.9221238,-4.6428027,-11.412127,4000
14347065,-0.31818506,-0.19334207,0.60262907,4011,0,-0.23956905,5.136309,-10.1167755,4011
14351854,0.03370125,-0.3053995,0.5926349,4789,0,-0.9488827,-3.2149355,-10.882744,4789
14355854,-0.5035591,-0.11410627,0.5738304,4000,0,0.38927472,3.1215577,-10.1805105,4000
14359854,0.013412381,-0.27226865,0.62010545,4000,0,0.20132855,-1.3987173,-9.6365185,4000
14363854,-0.43132207,-0.1009225,0.49899805,4000,0,0.8179907,-2.1635296,-9.335435,4000
14367870,-0.32574904,-0.14013109,0.59353304,4016,0,-0.23508276,2.6343844,-8.693127,4016
14371866,-0.2780522,-0.13719623,0.46190843,3996,0,-1.1749952,-4.401858,-10.607137,3996
14375854,-0.60758215,-0.0685737,0.52295375,3988,0,-1.5578465,5.307581,-10.253312,3988
14379854,-0.14214966,-0.17047918,0.4890379,4000,0,-0.8504639,-3.8105452,-11.414264,4000
14383857,-0.76896155,0.008550065,0.45948115,4003,0,1.00247,1.5267804,-8.498524,4003
14387899,-0.22455129,-0.1406697,0.53534824,4042,0,-0.71467113,-0.21617697,-9.750016,4042
14391899,-0.6298742,0.03259657,0.43342534,4000,0,1.1818036,-3.329075,-9.381116,4000
14395857,-0.54801184,-0.030765563,0.53220636,3958,0,-1.1039766,3.8321502,-9.330978,3958
14399854,-0.34381795,-0.020681497,0.44598642,3997,0,-1.6060623,-4.804381,-11.733101,3997
14403854,-0.7875829,0.061142307,0.48232535,4000,0,-1.5017986,4.149787,-9.722356,4000
14407860,-0.20453177,-0.04638524,0.4641757,4006,0,-1.6555573,-3.1216035,-11.870866,4006
14411854,-0.8219303,0.1144478,0.40835208,3994,0,1.5268894,-0.37456688,-8.587652,3994
14415854,-0.29213676,0.021150513,0.45729026,4000,0,-0.6461648,-0.27219775,-8.861239,4000
14419862,-0.6203904,0.1391921,0.32929415,4008,0,1.4758735,-3.649323,-9.034928,4008
14423858,-0.59675837,0.14353085,0.4174724,3996,0,-2.7300909,3.6794128,-10.055726,3996
14427854,-0.31122717,0.08432205,0.3383826,3996,0,-1.5778487,-3.374856,-12.988014,3996
14431860,-0.7577457,0.18416476,0.39419106,4006,0,-2.7694519,2.7417128,-11.434254,4006
14435861,-0.2527247,0.08169611,0.39429373,4001,0,-1.4017884,-2.7628388,-12.628025,4001
14439854,-0.71552134,0.27068317,0.34994188,3993,0,2.966366,-1.4932034,-8.629774,3993
14443932,-0.40215918,0.19268434,0.39449257,4078,0,-0.4286536,-0.43399495,-7.827691,4078
14447854,-0.51149815,0.27876407,0.275858,3922,0,-1.1573174,-1.3024001,-11.831567,3922
14451854,-0.6402009,0.28085992,0.36359125,4000,0,-2.982676,1.8639238,-10.969117,4000
14455854,-0.3111082,0.19617525,0.3056538,4000,0,-3.0783012,-1.5903567,-15.283374,4000
14459854,-0.70764875,0.33100405,0.33311042,4000,0,1.966465,-1.8383955,-9.976074,4000
14463854,-0.31752184,0.23846814,0.3006274,4000,0,-0.112087436,-1.5244117,-10.41022,4000
14467854,-0.5757976,0.42976496,0.23641816,4000,0,2.631165,-1.0560391,-7.6823,4000
14471929,-0.44105408,0.30007187,0.2641626,4075,0,-2.640487,0.42645383,-8.599646,4075
14475854,-0.3787425,0.38186094,0.19136243,3925,0,-1.4404328,0.5671012,-11.738618,3925
14479854,-0.49454084,0.32111657,0.28845677,4000,0,-2.6197474,0.24193665,-10.9689665,4000
14483854,-0.19922441,0.2851758,0.2332319,4000,0,-0.8498592,-0.9601307,-13.1140785,4000
14487854,-0.53759724,0.3541162,0.28871518,4000,0,0.64124435,-0.7722791,-11.157844,4000
14491880,-0.1500219,0.26689735,0.23911464,4026,0,-0.77064407,-0.83736944,-10.513359,4026
14495906,-0.3513449,0.36413565,0.23622775,4026,0,1.9375079,-0.9379763,-10.010036,4026
14499854,-0.2698319,0.32846913,0.23195548,3948,0,-2.2620347,0.10705146,-8.021679,3948
14503854,-0.14575836,0.25266382,0.1894936,4000,0,1.68352,-1.2863839,-10.435071,4000
14507867,-0.37778214,0.35842505,0.22825739,4013,0,-2.6043465,0.19798684,-8.740191,4013
14511864,-0.05212645,0.17572619,0.15148622,3997,0,0.08078073,0.10720353,-10.573549,3997
14515863,-0.27192724,0.29778,0.21650726,3999,0,-1.4957862,-0.6594613,-12.2578335,3999
14519854,-0.1528021,0.20695466,0.15112309,3991,0,-0.50651324,-0.26454687,-8.618322,3991
14523880,-0.10820073,0.18505345,0.2138982,4026,0,0.53808707,-1.3562659,-12.427592,4026
14527854,-0.2101772,0.267072,0.18818095,3974,0,-0.37162095,-1.1551304,-6.685315,3974
14531863,-0.1229756,0.08578736,0.1779445,4009,0,1.8896816,-0.09528289,-10.132546,4009
14535854,-0.22040269,0.26325926,0.19875664,3991,0,-2.320407,0.21370941,-9.431204,3991
14539863,-0.14183934,0.08392722,0.13023739,4009,0,1.5661114,0.11172985,-8.641299,4009
14543854,-0.16631995,0.18887396,0.20774293,3991,0,-1.6210182,-0.5459909,-11.362412,3991
14547899,-0.22527722,0.16621797,0.13416038,4045,0,0.057097137,-0.20639744,-6.649696,4045
14551854,-0.14423011,0.09682916,0.21073875,3955,0,-0.6062785,-1.1563653,-12.8071375,3955
14575883,-0.39773455,0.2826073,0.1441829,4022,0,3.062033,2.0642672,-4.275504,4022
14579854,-0.15540476,0.1449768,0.2161851,3971,0,-2.5664747,-2.2667294,-13.109941,3971
14583854,-0.58958274,0.4197382,0.1300891,4000,0,0.3047732,3.8090172,-7.078368,4000
14587854,-0.06604149,0.12810951,0.23859385,4000,0,-1.2325488,-0.5114517,-12.01692,4000
14591854,-0.53052557,0.44421628,0.14572443,4000,0,-0.5235262,-1.3109542,-11.395496,4000
14595854,-0.33934507,0.27084747,0.22135127,4000,0,1.0992988,3.4437766,-9.618847,4000
14599899,-0.13319215,0.36955592,0.18319738,4045,0,-0.9706194,-3.2380433,-11.311765,4045
14603854,-0.6609636,0.45366928,0.15057893,3955,0,2.350885,3.8689008,-7.826886,3955
14607854,-0.006263188,0.3381112,0.20937209,4000,0,-2.2126799,0.40799892,-10.536801,4000
14611862,-0.572515,0.47979915,0.14730018,4008,0,2.5680108,-1.441654,-10.091508,4008
14615854,-0.20020008,0.43783826,0.23015359,3992,0,-2.7107375,4.3686256,-9.921422,3992
14619854,-0.28433546,0.40297136,0.18505314,4000,0,2.8964984,-3.6293468,-11.335592,4000
14623854,-0.37551987,0.5806054,0.23394203,4000,0,-2.850313,5.453877,-9.800161,4000
14627862,-0.14266644,0.43308192,0.21634205,4008,0,2.924032,-2.526806,-8.697114,4008
14631864,-0.46414527,0.53468513,0.22651832,4002,0,-2.969661,2.4516497,-13.631694,4002
14635854,-0.15948904,0.62969166,0.2271657,3990,0,2.0631104,0.9689796,-7.3706236,3990
14639896,-0.31339762,0.42662534,0.24561778,4042,0,-0.71889156,-0.40474713,-13.812776,4042
14643857,-0.29424807,0.7879686,0.23051172,3961,0,0.12470733,2.3055375,-8.096822,3961
14647854,-0.19418538,0.44326115,0.26135108,3997,0,2.860065,-0.36271784,-10.784616,3997
14651937,-0.23771386,0.8532369,0.23340586,4083,0,-3.1386254,0.8964262,-11.471097,4083
14655854,-0.30147955,0.628613,0.27132636,3917,0,3.206634,2.9741645,-7.72802,3917
14659866,-0.050374463,0.7625309,0.2733783,4012,0,-4.7145243,-1.5478666,-13.868671,4012
14663854,-0.38556024,0.8533775,0.27316925,3988,0,3.8296688,3.163342,-8.648605,3988
14667854,0.074641556,0.7885944,0.3381813,4000,0,-2.4642005,-1.9110249,-12.159252,4000
14671870,-0.30568713,1.0057001,0.25782457,4016,0,1.8368032,1.8582267,-9.552608,4016
14675854,0.0028122044,0.93988156,0.35515004,3984,0,-3.827234,2.6318164,-11.690534,3984
14679878,-0.17005101,1.0053992,0.26761946,4024,0,1.6131577,-2.1994715,-10.301682,4024
14683854,-0.012880198,1.1174831,0.38287023,3976,0,-2.0339131,4.4466915,-12.14409,3976
14687854,-0.060854983,1.1418606,0.25864625,4000,0,4.026115,-4.2136216,-6.708181,4000
14691863,-0.15870781,1.1470343,0.35430047,4009,0,-4.2020464,6.311445,-13.096165,4009
14695854,0.0941835,1.3139046,0.29653996,3991,0,0.018830784,-1.4387959,-8.992364,3991
14699854,-0.2578954,1.076514,0.3357156,4000,0,-0.86454713,0.88877213,-12.263856,4000
14703910,0.13237715,1.4186047,0.36419007,4056,0,1.5310425,1.7936625,-8.178656,4056
14707854,-0.13529038,1.1180055,0.30690363,3944,0,2.7178922,-1.398352,-7.7434344,3944
14711854,0.025944142,1.3433164,0.35452273,4000,0,-3.6096334,2.9773042,-11.440407,4000
14715854,-0.14171499,1.1744715,0.33059394,4000,0,2.4880548,1.2698821,-8.0283375,4000
14719855,0.12538186,1.1615765,0.3797657,4001,0,-4.6197124,-0.6693599,-11.170042,4001
14723900,-0.16593482,1.2050673,0.35324913,4045,0,5.7386317,1.217575,-7.055958,4045
