timestamp,timestamp_last_signal,channel_count,rssi,rc_lost_frame_count,rc_total_frame_count,rc_ppm_frame_length,values[0],values[1],values[2],values[3],values[4],values[5],values[6],values[7],values[8],values[9],values[10],values[11],values[12],values[13],values[14],values[15],values[16],values[17],rc_failsafe,rc_lost,input_source
11724072,11724072,8,40,0,0,20003,1497,1517,1195,1302,1012,1512,1513,1512,0,0,0,0,0,0,0,0,0,0,0,0,2
11918177,11918177,8,40,0,0,20004,1498,1516,1247,1328,1012,1513,1512,1512,0,0,0,0,0,0,0,0,0,0,0,0,2
12130659,12130659,8,40,0,0,20003,1498,1516,1267,1324,1012,1513,1512,1512,0,0,0,0,0,0,0,0,0,0,0,0,2
12318101,12318101,8,40,0,0,20003,1498,1516,1263,1305,1013,1512,1512,1512,0,0,0,0,0,0,0,0,0,0,0,0,2
12534577,12534577,8,40,0,0,20004,1498,1516,1246,1390,1013,1512,1512,1512,0,0,0,0,0,0,0,0,0,0,0,0,2
12721717,12721717,8,40,0,0,20003,1497,1517,1210,1471,1012,1512,1513,1512,0,0,0,0,0,0,0,0,0,0,0,0,2
12935335,12935335,8,40,0,0,20003,1497,1516,1261,1489,1012,1512,1512,1513,0,0,0,0,0,0,0,0,0,0,0,0,2
13129322,13129322,8,40,0,0,20003,1497,1517,1438,1512,1012,1513,1512,1512,0,0,0,0,0,0,0,0,0,0,0,0,2
13341652,13341652,8,40,0,0,20003,1497,1517,1526,1512,1012,1513,1512,1512,0,0,0,0,0,0,0,0,0,0,0,0,2
13529680,13529680,8,40,0,0,20003,1498,1516,1525,1512,1013,1512,1512,1512,0,0,0,0,0,0,0,0,0,0,0,0,2
13744873,13744873,8,40,0,0,20004,1498,1516,1524,1370,1013,1512,1512,1512,0,0,0,0,0,0,0,0,0,0,0,0,2
13940020,13940020,8,40,0,0,20003,1498,1516,1525,1345,1012,1512,1512,1538,0,0,0,0,0,0,0,0,0,0,0,0,2
14150470,14150470,8,40,0,0,20004,1576,1468,1570,1376,1012,1512,1512,1512,0,0,0,0,0,0,0,0,0,0,0,0,2
14345427,14345427,8,40,0,0,20003,1572,1503,1565,1410,1012,1513,1512,1512,0,0,0,0,0,0,0,0,0,0,0,0,2
14748502,14748502,8,40,0,0,20003,1498,1514,1552,1447,1012,1513,1512,1512,0,0,0,0,0,0,0,0,0,0,0,0,2
14961402,14961402,8,40,0,0,20003,1497,1516,1526,1476,1012,1513,1512,1512,0,0,0,0,0,0,0,0,0,0,0,0,2
15153792,15153792,8,40,0,0,20004,1497,1515,1525,1421,1013,1512,1512,1512,0,0,0,0,0,0,0,0,0,0,0,0,2
15366656,15366656,8,40,0,0,20003,1498,1514,1530,1414,1013,1512,1512,1512,0,0,0,0,0,0,0,0,0,0,0,0,2
15560633,15560633,8,40,0,0,20003,1537,1461,1573,1425,1012,1512,1512,1513,0,0,0,0,0,0,0,0,0,0,0,0,2
15774180,15774180,8,40,0,0,20003,1561,1442,1611,1435,1012,1512,1512,1513,0,0,0,0,0,0,0,0,0,0,0,0,2
15963797,15963797,8,40,0,0,20003,1499,1515,1620,1452,1012,1513,1512,1512,0,0,0,0,0,0,0,0,0,0,0,0,2
16178811,16178811,8,40,0,0,20003,1497,1514,1622,1439,1012,1512,1512,1513,0,0,0,0,0,0,0,0,0,0,0,0,2
16390579,16390579,8,40,0,0,20003,1497,1514,1597,1423,1012,1512,1512,1513,0,0,0,0,0,0,0,0,0,0,0,0,2
16581661,16581661,8,40,0,0,20003,1504,1513,1740,1482,1013,1512,1512,1512,0,0,0,0,0,0,0,0,0,0,0,0,2
16795793,16795793,8,40,0,0,20003,1564,1449,1707,1475,1012,1512,1513,1512,0,0,0,0,0,0,0,0,0,0,0,0,2
16991010,16991010,8,40,0,0,20003,1546,1485,1651,1493,1012,1512,1512,1512,0,0,0,0,0,0,0,0,0,0,0,0,2
17183731,17183731,8,40,0,0,20003,1497,1515,1525,1458,1012,1513,1512,1512,0,0,0,0,0,0,0,0,0,0,0,0,2
17400591,17400591,8,40,0,0,20004,1497,1514,1340,1383,1012,1512,1512,1513,0,0,0,0,0,0,0,0,0,0,0,0,2
17593351,17593351,8,40,0,0,20004,1498,1514,1284,1330,1012,1513,1512,1512,0,0,0,0,0,0,0,0,0,0,0,0,2
17806526,17806526,8,40,0,0,20003,1498,1514,1302,1361,1012,1513,1512,1512,0,0,0,0,0,0,0,0,0,0,0,0,2
17998889,17998889,8,40,0,0,20004,1498,1514,1333,1392,1013,1512,1512,1512,0,0,0,0,0,0,0,0,0,0,0,0,2
18212346,18212346,8,40,0,0,20003,1498,1514,1480,1455,1013,1512,1512,1512,0,0,0,0,0,0,0,0,0,0,0,0,2
18403327,18403327,8,41,0,0,20003,1497,1515,1578,1481,1012,1512,1513,1512,0,0,0,0,0,0,0,0,0,0,0,0,2
18615790,18615790,8,41,0,0,20003,1497,1514,1696,1498,1012,1512,1512,1513,0,0,0,0,0,0,0,0,0,0,0,0,2
18806390,18806390,8,41,0,0,20003,1488,1515,1699,1495,1012,1513,1512,1512,0,0,0,0,0,0,0,0,0,0,0,0,2
19021299,19021299,8,41,0,0,20003,1475,1457,1696,1488,1012,1513,1512,1512,0,0,0,0,0,0,0,0,0,0,0,0,2
19216059,19216059,8,41,0,0,20003,1459,1502,1685,1486,1013,1512,1512,1512,0,0,0,0,0,0,0,0,0,0,0,0,2
19429618,19429618,8,41,0,0,20003,1498,1513,1680,1500,1013,1512,1512,1512,0,0,0,0,0,0,0,0,0,0,0,0,2
19624066,19624066,8,41,0,0,20003,1496,1513,1695,1503,1012,1512,1513,1512,0,0,0,0,0,0,0,0,0,0,0,0,2
19836072,19836072,8,41,0,0,20003,1453,1493,1625,1476,1012,1512,1512,1512,0,0,0,0,0,0,0,0,0,0,0,0,2
20028080,20028080,8,41,0,0,20003,1423,1513,1525,1467,1012,1513,1512,1512,0,0,0,0,0,0,0,0,0,0,0,0,2
20237658,20237658,8,41,0,0,20004,1446,1499,1440,1466,1012,1512,1512,1513,0,0,0,0,0,0,0,0,0,0,0,0,2
20434110,20434110,8,41,0,0,20004,1486,1512,1349,1447,1012,1513,1512,1512,0,0,0,0,0,0,0,0,0,0,0,0,2
20646452,20646452,8,41,0,0,20003,1498,1512,1392,1447,1012,1513,1512,1512,0,0,0,0,0,0,0,0,0,0,0,0,2
20838236,20838236,8,41,0,0,20004,1498,1512,1449,1454,1012,1512,1512,1512,0,0,0,0,0,0,0,0,0,0,0,0,2
21056535,21056535,8,41,0,0,20004,1498,1515,1499,1446,1013,1512,1512,1512,0,0,0,0,0,0,0,0,0,0,0,0,2
21245896,21245896,8,41,0,0,20003,1497,1517,1528,1449,1012,1512,1513,1512,0,0,0,0,0,0,0,0,0,0,0,0,2
21464234,21464234,8,41,0,0,20004,1497,1515,1539,1450,1012,1512,1512,1513,0,0,0,0,0,0,0,0,0,0,0,0,2
21652019,21652019,8,41,0,0,20003,1498,1518,1573,1467,1012,1513,1512,1512,0,0,0,0,0,0,0,0,0,0,0,0,2
21864197,21864197,8,41,0,0,20003,1504,1522,1623,1484,1012,1513,1512,1512,0,0,0,0,0,0,0,0,0,0,0,0,2
22061336,22061336,8,41,0,0,20004,1520,1522,1658,1489,1013,1512,1512,1512,0,0,0,0,0,0,0,0,0,0,0,0,2
22259808,22259808,8,41,0,0,20003,1535,1519,1657,1484,1012,1513,1512,1512,0,0,0,0,0,0,0,0,0,0,0,0,2
22470945,22470945,8,41,0,0,20003,1544,1518,1711,1478,1012,1512,1513,1512,0,0,0,0,0,0,0,0,0,0,0,0,2
22664065,22664065,8,41,0,0,20003,1547,1517,1743,1511,1012,1512,1512,1513,0,0,0,0,0,0,0,0,0,0,0,0,2
23069673,23069673,8,41,0,0,20004,1538,1517,1751,1505,1012,1512,1513,1512,0,0,0,0,0,0,0,0,0,0,0,0,2
23280181,23280181,8,41,0,0,20004,1515,1517,1416,1370,1013,1512,1512,1512,0,0,0,0,0,0,0,0,0,0,0,0,2
23472086,23472086,8,41,0,0,20003,1499,1516,1250,1369,1012,1512,1513,1512,0,0,0,0,0,0,0,0,0,0,0,0,2
23686431,23686431,8,41,0,0,20003,1499,1516,1208,1360,1012,1512,1513,1512,0,0,0,0,0,0,0,0,0,0,0,0,2
23880963,23880963,8,41,0,0,20003,1499,1517,1215,1364,1012,1513,1512,1512,0,0,0,0,0,0,0,0,0,0,0,0,2
24096036,24096036,8,41,0,0,20003,1498,1517,1279,1393,1012,1513,1512,1512,0,0,0,0,0,0,0,0,0,0,0,0,2
24288233,24288233,8,41,0,0,20003,1498,1516,1440,1476,1012,1512,1512,1513,0,0,0,0,0,0,0,0,0,0,0,0,2
24498521,24498521,8,41,0,0,20004,1520,1516,1556,1511,1013,1512,1512,1512,0,0,0,0,0,0,0,0,0,0,0,0,2
24708860,24708860,8,41,0,0,20004,1560,1518,1723,1512,1013,1512,1512,1512,0,0,0,0,0,0,0,0,0,0,0,0,2
24905826,24905826,8,41,0,0,20003,1565,1518,1747,1511,1012,1512,1513,1512,0,0,0,0,0,0,0,0,0,0,0,0,2
25096993,25096993,8,41,0,0,20003,1572,1525,1749,1511,1012,1513,1512,1512,0,0,0,0,0,0,0,0,0,0,0,0,2
25310509,25310509,8,41,0,0,20003,1585,1525,1760,1511,1012,1513,1512,1512,0,0,0,0,0,0,0,0,0,0,0,0,2
25506592,25506592,8,41,0,0,20003,1599,1524,1765,1512,1012,1512,1512,1513,0,0,0,0,0,0,0,0,0,0,0,0,2
25701335,25701335,8,41,0,0,20003,1594,1525,1770,1511,1012,1512,1513,1512,0,0,0,0,0,0,0,0,0,0,0,0,2
25910769,25910769,8,41,0,0,20003,1529,1517,1776,1510,1012,1512,1513,1512,0,0,0,0,0,0,0,0,0,0,0,0,2
26105674,26105674,8,41,0,0,20003,1498,1516,1781,1509,1012,1512,1512,1512,0,0,0,0,0,0,0,0,0,0,0,0,2
26315800,26315800,8,41,0,0,20003,1497,1517,1709,1443,1012,1513,1512,1512,0,0,0,0,0,0,0,0,0,0,0,0,2
26527539,26527539,8,41,0,0,20003,1539,1520,1116,1330,1012,1512,1513,1512,0,0,0,0,0,0,0,0,0,0,0,0,2
26718552,26718552,8,41,0,0,20003,1576,1581,1285,1354,1012,1513,1512,1512,0,0,0,0,0,0,0,0,0,0,0,0,2
26930161,26930161,8,41,0,0,20003,1655,1625,1518,1464,1012,1513,1512,1512,0,0,0,0,0,0,0,0,0,0,0,0,2
27120309,27120309,8,41,0,0,20004,1652,1611,1528,1483,1012,1512,1512,1512,0,0,0,0,0,0,0,0,0,0,0,0,2
27335276,27335276,8,41,0,0,20004,1562,1531,1549,1485,1013,1512,1512,1512,0,0,0,0,0,0,0,0,0,0,0,0,2
27524617,27524617,8,41,0,0,20003,1497,1517,1521,1492,1012,1512,1513,1512,0,0,0,0,0,0,0,0,0,0,0,0,2
27736590,27736590,8,41,0,0,20004,1503,1517,1526,1505,1012,1512,1512,1513,0,0,0,0,0,0,0,0,0,0,0,0,2
27928031,27928031,8,41,0,0,20003,1543,1560,1534,1511,1012,1513,1512,1512,0,0,0,0,0,0,0,0,0,0,0,0,2
28138478,28138478,8,41,0,0,20003,1573,1592,1577,1511,1012,1512,1513,1512,0,0,0,0,0,0,0,0,0,0,0,0,2
28347218,28347218,8,41,0,0,20004,1577,1583,1601,1511,1012,1512,1513,1512,0,0,0,0,0,0,0,0,0,0,0,0,2
28539283,28539283,8,41,0,0,20003,1564,1562,1619,1511,1012,1513,1512,1512,0,0,0,0,0,0,0,0,0,0,0,0,2
28753784,28753784,8,41,0,0,20003,1565,1528,1598,1501,1012,1512,1513,1512,0,0,0,0,0,0,0,0,0,0,0,0,2
28945662,28945662,8,41,0,0,20004,1509,1515,1569,1450,1012,1512,1512,1513,0,0,0,0,0,0,0,0,0,0,0,0,2
29158101,29158101,8,41,0,0,20003,1498,1517,1626,1444,1012,1513,1512,1512,0,0,0,0,0,0,0,0,0,0,0,0,2
29347357,29347357,8,41,0,0,20003,1505,1516,1691,1428,1012,1512,1513,1512,0,0,0,0,0,0,0,0,0,0,0,0,2
29563792,29563792,8,41,0,0,20003,1551,1497,1742,1464,1013,1512,1512,1512,0,0,0,0,0,0,0,0,0,0,0,0,2
29753006,29753006,8,41,0,0,20003,1550,1446,1762,1452,1012,1512,1513,1512,0,0,0,0,0,0,0,0,0,0,0,0,2
29948616,29948616,8,41,0,0,20004,1567,1380,1745,1451,1012,1512,1512,1513,0,0,0,0,0,0,0,0,0,0,0,0,2
30163404,30163404,8,41,0,0,20003,1499,1493,1675,1421,1012,1513,1512,1512,0,0,0,0,0,0,0,0,0,0,0,0,2
30374552,30374552,8,41,0,0,20003,1497,1516,1469,1361,1012,1513,1512,1512,0,0,0,0,0,0,0,0,0,0,0,0,2
30568061,30568061,8,41,0,0,20003,1491,1505,1361,1330,1012,1512,1512,1513,0,0,0,0,0,0,0,0,0,0,0,0,2
30782761,30782761,8,41,0,0,20004,1485,1475,1320,1346,1013,1512,1512,1512,0,0,0,0,0,0,0,0,0,0,0,0,2
30976188,30976188,8,41,0,0,20003,1497,1514,1424,1473,1012,1512,1513,1512,0,0,0,0,0,0,0,0,0,0,0,0,2
31188832,31188832,8,41,0,0,20003,1497,1512,1527,1512,1012,1512,1513,1512,0,0,0,0,0,0,0,0,0,0,0,0,2
31384284,31384284,8,41,0,0,20003,1513,1513,1541,1512,1012,1512,1512,1513,0,0,0,0,0,0,0,0,0,0,0,0,2
31574523,31574523,8,41,0,0,20003,1527,1489,1574,1511,1012,1512,1513,1512,0,0,0,0,0,0,0,0,0,0,0,0,2
31786216,31786216,8,41,0,0,20004,1534,1452,1628,1510,1012,1512,1512,1513,0,0,0,0,0,0,0,0,0,0,0,0,2
31979726,31979726,8,41,0,0,20003,1541,1466,1637,1510,1012,1512,1513,1512,0,0,0,0,0,0,0,0,0,0,0,0,2
32190718,32190718,8,41,0,0,20003,1515,1503,1603,1493,1012,1512,1513,1512,0,0,0,0,0,0,0,0,0,0,0,0,2
32387484,32387484,8,41,0,0,20004,1545,1515,1731,1513,1012,1512,1512,1513,0,0,0,0,0,0,0,0,0,0,0,0,2
32601396,32601396,8,41,0,0,20003,1559,1516,1812,1511,1012,1513,1512,1512,0,0,0,0,0,0,0,0,0,0,0,0,2
32798909,32798909,8,41,0,0,20003,1523,1515,1775,1475,1012,1512,1513,1512,0,0,0,0,0,0,0,0,0,0,0,0,2
32992142,32992142,8,41,0,0,20003,1519,1475,1541,1369,1013,1512,1512,1516,0,0,0,0,0,0,0,0,0,0,0,0,2
33207144,33207144,8,41,0,0,20004,1515,1426,1497,1420,1013,1512,1512,1512,0,0,0,0,0,0,0,0,0,0,0,0,2
33399410,33399410,8,41,0,0,20003,1526,1391,1526,1461,1012,1512,1512,1517,0,0,0,0,0,0,0,0,0,0,0,0,2
33609880,33609880,8,41,0,0,20003,1498,1495,1526,1482,1012,1512,1512,1513,0,0,0,0,0,0,0,0,0,0,0,0,2
33804520,33804520,8,41,0,0,20003,1506,1516,1465,1470,1012,1513,1512,1512,0,0,0,0,0,0,0,0,0,0,0,0,2
34015762,34015762,8,41,0,0,20003,1546,1516,1403,1410,1012,1512,1513,1545,0,0,0,0,0,0,0,0,0,0,0,0,2
34210773,34210773,8,41,0,0,20004,1548,1515,1363,1423,1013,1512,1512,1512,0,0,0,0,0,0,0,0,0,0,0,0,2
34427028,34427028,8,41,0,0,20004,1545,1515,1372,1429,1013,1512,1512,1559,0,0,0,0,0,0,0,0,0,0,0,0,2
34621427,34621427,8,41,0,0,20003,1539,1515,1568,1470,1012,1512,1512,1513,0,0,0,0,0,0,0,0,0,0,0,0,2
34813898,34813898,8,41,0,0,20003,1540,1515,1772,1504,1013,1512,1512,1512,0,0,0,0,0,0,0,0,0,0,0,0,2
35032240,35032240,8,41,0,0,20003,1499,1470,1755,1476,1012,1513,1512,1512,0,0,0,0,0,0,0,0,0,0,0,0,2
35224550,35224550,8,41,0,0,20003,1486,1429,1765,1483,1012,1512,1513,1512,0,0,0,0,0,0,0,0,0,0,0,0,2
35436316,35436316,8,41,0,0,20004,1453,1418,1759,1488,1012,1512,1512,1512,0,0,0,0,0,0,0,0,0,0,0,0,2
35645325,35645325,8,41,0,0,20003,1499,1512,1795,1512,1012,1512,1512,1512,0,0,0,0,0,0,0,0,0,0,0,0,2
35839210,35839210,8,41,0,0,20003,1498,1513,1810,1510,1012,1512,1512,1513,0,0,0,0,0,0,0,0,0,0,0,0,2
36032305,36032305,8,41,0,0,20004,1498,1513,1803,1507,1013,1512,1512,1512,0,0,0,0,0,0,0,0,0,0,0,0,2
36248979,36248979,8,41,0,0,20004,1503,1513,1476,1263,1012,1513,1512,1512,0,0,0,0,0,0,0,0,0,0,0,0,2
36440090,36440090,8,41,0,0,20004,1511,1513,1261,1220,1013,1512,1512,1512,0,0,0,0,0,0,0,0,0,0,0,0,2
36649308,36649308,8,41,0,0,20003,1516,1513,1232,1254,1013,1512,1512,1512,0,0,0,0,0,0,0,0,0,0,0,0,2
36840136,36840136,8,41,0,0,20003,1510,1505,1316,1317,1012,1512,1512,1513,0,0,0,0,0,0,0,0,0,0,0,0,2
37051347,37051347,8,41,0,0,20004,1511,1503,1661,1511,1012,1512,1512,1513,0,0,0,0,0,0,0,0,0,0,0,0,2
37244224,37244224,8,41,0,0,20003,1513,1496,1676,1510,1012,1512,1513,1512,0,0,0,0,0,0,0,0,0,0,0,0,2
37461398,37461398,8,41,0,0,20004,1530,1443,1597,1491,1012,1512,1513,1512,0,0,0,0,0,0,0,0,0,0,0,0,2
37653833,37653833,8,41,0,0,20004,1553,1421,1584,1513,1012,1512,1512,1513,0,0,0,0,0,0,0,0,0,0,0,0,2
37868199,37868199,8,41,0,0,20003,1529,1542,1549,1513,1012,1512,1512,1512,0,0,0,0,0,0,0,0,0,0,0,0,2
38058202,38058202,8,41,0,0,20003,1511,1516,1526,1512,1012,1512,1512,1513,0,0,0,0,0,0,0,0,0,0,0,0,2
38250498,38250498,8,41,0,0,20003,1545,1517,1538,1523,1013,1512,1512,1512,0,0,0,0,0,0,0,0,0,0,0,0,2
38461807,38461807,8,41,0,0,20003,1557,1518,1602,1511,1012,1512,1513,1512,0,0,0,0,0,0,0,0,0,0,0,0,2
38676351,38676351,8,41,0,0,20004,1560,1516,1690,1512,1012,1512,1513,1512,0,0,0,0,0,0,0,0,0,0,0,0,2
38868829,38868829,8,41,0,0,20004,1499,1515,1755,1513,1012,1512,1512,1513,0,0,0,0,0,0,0,0,0,0,0,0,2
39082678,39082678,8,41,0,0,20003,1497,1516,1769,1512,1012,1513,1512,1512,0,0,0,0,0,0,0,0,0,0,0,0,2
39270131,39270131,8,41,0,0,20004,1498,1516,1777,1512,1012,1512,1513,1512,0,0,0,0,0,0,0,0,0,0,0,0,2
39482468,39482468,8,41,0,0,20003,1499,1516,1785,1511,1013,1512,1512,1512,0,0,0,0,0,0,0,0,0,0,0,0,2
39675318,39675318,8,41,0,0,20003,1504,1480,1746,1477,1012,1513,1512,1512,0,0,0,0,0,0,0,0,0,0,0,0,2
39888594,39888594,8,41,0,0,20003,1500,1458,1510,1511,1012,1512,1513,1512,0,0,0,0,0,0,0,0,0,0,0,0,2
40077414,40077414,8,41,0,0,20004,1504,1482,1414,1511,1012,1513,1512,1512,0,0,0,0,0,0,0,0,0,0,0,0,2
40294673,40294673,8,41,0,0,20003,1504,1503,1216,1495,1012,1513,1512,1512,0,0,0,0,0,0,0,0,0,0,0,0,2
40484272,40484272,8,41,0,0,20004,1505,1514,1153,1483,1012,1512,1512,1513,0,0,0,0,0,0,0,0,0,0,0,0,2
40698137,40698137,8,41,0,0,20003,1505,1515,1254,1458,1012,1513,1512,1512,0,0,0,0,0,0,0,0,0,0,0,0,2
40891304,40891304,8,41,0,0,20003,1502,1514,1417,1474,1012,1512,1512,1514,0,0,0,0,0,0,0,0,0,0,0,0,2
41105431,41105431,8,41,0,0,20004,1537,1515,1628,1502,1012,1512,1512,1513,0,0,0,0,0,0,0,0,0,0,0,0,2
41294672,41294672,8,41,0,0,20003,1536,1515,1679,1506,1012,1512,1512,1513,0,0,0,0,0,0,0,0,0,0,0,0,2
41504892,41504892,8,41,0,0,20003,1531,1515,1737,1511,1012,1513,1512,1512,0,0,0,0,0,0,0,0,0,0,0,0,2
41698175,41698175,8,41,0,0,20003,1517,1514,1754,1505,1012,1512,1512,1513,0,0,0,0,0,0,0,0,0,0,0,0,2
41907717,41907717,8,41,0,0,20003,1532,1513,1749,1475,1012,1512,1512,1513,0,0,0,0,0,0,0,0,0,0,0,0,2
42105860,42105860,8,41,0,0,20004,1547,1488,1736,1435,1012,1512,1512,1513,0,0,0,0,0,0,0,0,0,0,0,0,2
42317642,42317642,8,41,0,0,20004,1541,1479,1713,1399,1012,1512,1512,1513,0,0,0,0,0,0,0,0,0,0,0,0,2
42507273,42507273,8,41,0,0,20003,1535,1476,1718,1417,1012,1513,1512,1512,0,0,0,0,0,0,0,0,0,0,0,0,2
42721787,42721787,8,41,0,0,20004,1538,1476,1730,1432,1012,1512,1512,1513,0,0,0,0,0,0,0,0,0,0,0,0,2
42933220,42933220,8,41,0,0,20003,1538,1475,1727,1450,1013,1512,1512,1512,0,0,0,0,0,0,0,0,0,0,0,0,2
43123445,43123445,8,41,0,0,20004,1528,1486,1610,1448,1012,1512,1512,1513,0,0,0,0,0,0,0,0,0,0,0,0,2
43317727,43317727,8,41,0,0,20003,1520,1501,1197,1433,1012,1512,1513,1512,0,0,0,0,0,0,0,0,0,0,0,0,2
43530208,43530208,8,41,0,0,20003,1514,1506,1117,1457,1012,1512,1513,1512,0,0,0,0,0,0,0,0,0,0,0,0,2
43743013,43743013,8,41,0,0,20003,1507,1507,1194,1462,1013,1512,1512,1512,0,0,0,0,0,0,0,0,0,0,0,0,2
43932597,43932597,8,41,0,0,20003,1504,1507,1395,1471,1012,1512,1513,1543,0,0,0,0,0,0,0,0,0,0,0,0,2
44145187,44145187,8,41,0,0,20003,1502,1509,1481,1486,1013,1512,1512,1512,0,0,0,0,0,0,0,0,0,0,0,0,2
44337533,44337533,8,41,0,0,20003,1501,1512,1671,1500,1012,1512,1513,1512,0,0,0,0,0,0,0,0,0,0,0,0,2
44550220,44550220,8,41,0,0,20004,1519,1502,1732,1484,1012,1512,1513,1512,0,0,0,0,0,0,0,0,0,0,0,0,2
44739798,44739798,8,41,0,0,20003,1538,1483,1746,1481,1012,1512,1513,1512,0,0,0,0,0,0,0,0,0,0,0,0,2
44957151,44957151,8,41,0,0,20003,1551,1498,1755,1474,1012,1512,1513,1512,0,0,0,0,0,0,0,0,0,0,0,0,2
45148928,45148928,8,41,0,0,20004,1539,1497,1755,1456,1013,1512,1512,1512,0,0,0,0,0,0,0,0,0,0,0,0,2
45360524,45360524,8,41,0,0,20003,1536,1487,1771,1434,1012,1512,1513,1512,0,0,0,0,0,0,0,0,0,0,0,0,2
45553882,45553882,8,41,0,0,20003,1532,1468,1791,1433,1013,1512,1512,1512,0,0,0,0,0,0,0,0,0,0,0,0,2
45765191,45765191,8,41,0,0,20003,1499,1481,1782,1456,1012,1512,1513,1512,0,0,0,0,0,0,0,0,0,0,0,0,2
45955373,45955373,8,41,0,0,20004,1501,1513,1763,1458,1013,1512,1512,1512,0,0,0,0,0,0,0,0,0,0,0,0,2
46168181,46168181,8,41,0,0,20003,1498,1517,1281,1333,1012,1513,1512,1512,0,0,0,0,0,0,0,0,0,0,0,0,2
46360863,46360863,8,41,0,0,20004,1499,1515,1116,1363,1012,1513,1512,1512,0,0,0,0,0,0,0,0,0,0,0,0,2
46576787,46576787,8,41,0,0,20003,1522,1485,1140,1367,1012,1513,1512,1512,0,0,0,0,0,0,0,0,0,0,0,0,2
46767373,46767373,8,41,0,0,20003,1531,1480,1233,1389,1012,1512,1512,1513,0,0,0,0,0,0,0,0,0,0,0,0,2
46977243,46977243,8,41,0,0,20003,1525,1487,1333,1399,1012,1513,1512,1512,0,0,0,0,0,0,0,0,0,0,0,0,2
47169037,47169037,8,41,0,0,20004,1553,1490,1626,1475,1012,1512,1512,1513,0,0,0,0,0,0,0,0,0,0,0,0,2
47382998,47382998,8,41,0,0,20003,1576,1516,1772,1511,1012,1513,1512,1512,0,0,0,0,0,0,0,0,0,0,0,0,2
47578735,47578735,8,41,0,0,20003,1570,1515,1843,1512,1012,1512,1512,1513,0,0,0,0,0,0,0,0,0,0,0,0,2
47795523,47795523,8,41,0,0,20004,1540,1516,1902,1513,1012,1512,1512,1513,0,0,0,0,0,0,0,0,0,0,0,0,2
47989316,47989316,8,41,0,0,20003,1514,1516,1916,1510,1012,1513,1512,1512,0,0,0,0,0,0,0,0,0,0,0,0,2
48200559,48200559,8,41,0,0,20003,1487,1415,1902,1481,1012,1512,1512,1513,0,0,0,0,0,0,0,0,0,0,0,0,2
48393436,48393436,8,41,0,0,20003,1498,1502,1902,1491,1012,1513,1512,1512,0,0,0,0,0,0,0,0,0,0,0,0,2
48606109,48606109,8,41,0,0,20003,1498,1513,1899,1472,1012,1512,1513,1512,0,0,0,0,0,0,0,0,0,0,0,0,2
48799368,48799368,8,41,0,0,20003,1499,1515,1877,1419,1012,1513,1512,1512,0,0,0,0,0,0,0,0,0,0,0,0,2
48997784,48997784,8,41,0,0,20003,1523,1496,1894,1449,1012,1512,1512,1513,0,0,0,0,0,0,0,0,0,0,0,0,2
49210946,49210946,8,41,0,0,20004,1589,1386,1395,1512,1013,1512,1512,1538,0,0,0,0,0,0,0,0,0,0,0,0,2
49404024,49404024,8,41,0,0,20003,1561,1357,1512,1554,1012,1512,1512,1513,0,0,0,0,0,0,0,0,0,0,0,0,2
49617435,49617435,8,41,0,0,20004,1518,1507,1423,1499,1012,1512,1512,1512,0,0,0,0,0,0,0,0,0,0,0,0,2
49806196,49806196,8,41,0,0,20003,1498,1516,1364,1409,1012,1512,1513,1512,0,0,0,0,0,0,0,0,0,0,0,0,2
50024075,50024075,8,41,0,0,20004,1504,1515,1764,1422,1012,1512,1512,1513,0,0,0,0,0,0,0,0,0,0,0,0,2
50215796,50215796,8,41,0,0,20003,1523,1517,1845,1468,1012,1513,1512,1512,0,0,0,0,0,0,0,0,0,0,0,0,2
50426519,50426519,8,41,0,0,20003,1581,1524,1621,1387,1012,1512,1512,1513,0,0,0,0,0,0,0,0,0,0,0,0,2
50637662,50637662,8,41,0,0,20004,1560,1516,1394,1339,1013,1512,1512,1512,0,0,0,0,0,0,0,0,0,0,0,0,2
50829297,50829297,8,41,0,0,20004,1497,1516,1335,1314,1012,1512,1513,1512,0,0,0,0,0,0,0,0,0,0,0,0,2
51039333,51039333,8,41,0,0,20003,1500,1516,1264,1353,1013,1512,1512,1512,0,0,0,0,0,0,0,0,0,0,0,0,2
51232118,51232118,8,41,0,0,20003,1514,1516,1579,1403,1012,1512,1513,1512,0,0,0,0,0,0,0,0,0,0,0,0,2
51442101,51442101,8,41,0,0,20003,1563,1516,1825,1500,1012,1512,1512,1512,0,0,0,0,0,0,0,0,0,0,0,0,2
51640072,51640072,8,41,0,0,20003,1556,1517,1872,1511,1012,1512,1513,1512,0,0,0,0,0,0,0,0,0,0,0,0,2
51849678,51849678,8,41,0,0,20003,1550,1517,1869,1510,1012,1512,1513,1512,0,0,0,0,0,0,0,0,0,0,0,0,2
52041393,52041393,8,41,0,0,20003,1535,1518,1862,1511,1012,1513,1512,1512,0,0,0,0,0,0,0,0,0,0,0,0,2
52251337,52251337,8,41,0,0,20004,1498,1516,1804,1483,1012,1512,1513,1512,0,0,0,0,0,0,0,0,0,0,0,0,2
52441023,52441023,8,41,0,0,20003,1388,1488,1446,1471,1012,1512,1513,1512,0,0,0,0,0,0,0,0,0,0,0,0,2
52653131,52653131,8,41,0,0,20004,1376,1480,1482,1481,1012,1512,1513,1512,0,0,0,0,0,0,0,0,0,0,0,0,2
52866708,52866708,8,41,0,0,20003,1498,1513,1522,1512,1012,1512,1512,1513,0,0,0,0,0,0,0,0,0,0,0,0,2
53056028,53056028,8,41,0,0,20003,1540,1514,1533,1511,1012,1512,1513,1512,0,0,0,0,0,0,0,0,0,0,0,0,2
53270171,53270171,8,41,0,0,20003,1574,1515,1711,1511,1012,1512,1513,1512,0,0,0,0,0,0,0,0,0,0,0,0,2
53466832,53466832,8,41,0,0,20004,1616,1517,1875,1512,1013,1512,1512,1512,0,0,0,0,0,0,0,0,0,0,0,0,2
53657620,53657620,8,41,0,0,20004,1621,1517,1733,1488,1012,1512,1512,1512,0,0,0,0,0,0,0,0,0,0,0,0,2
53875316,53875316,8,41,0,0,20003,1498,1515,1436,1435,1013,1512,1512,1536,0,0,0,0,0,0,0,0,0,0,0,0,2
54063472,54063472,8,41,0,0,20004,1497,1515,1204,1379,1013,1512,1512,1512,0,0,0,0,0,0,0,0,0,0,0,0,2
54276637,54276637,8,41,0,0,20003,1497,1516,1217,1395,1013,1512,1512,1512,0,0,0,0,0,0,0,0,0,0,0,0,2
54468077,54468077,8,41,0,0,20003,1477,1515,1484,1447,1012,1512,1513,1512,0,0,0,0,0,0,0,0,0,0,0,0,2
54676082,54676082,8,41,0,0,20003,1460,1515,1799,1511,1013,1512,1512,1512,0,0,0,0,0,0,0,0,0,0,0,0,2
54870923,54870923,8,41,0,0,20004,1457,1515,1861,1511,1012,1512,1513,1512,0,0,0,0,0,0,0,0,0,0,0,0,2
55085319,55085319,8,41,0,0,20004,1481,1515,1869,1513,1012,1512,1512,1512,0,0,0,0,0,0,0,0,0,0,0,0,2
55276578,55276578,8,41,0,0,20003,1498,1493,1855,1511,1012,1512,1513,1512,0,0,0,0,0,0,0,0,0,0,0,0,2
55491573,55491573,8,41,0,0,20004,1512,1493,1852,1511,1012,1512,1513,1512,0,0,0,0,0,0,0,0,0,0,0,0,2
55684530,55684530,8,41,0,0,20003,1556,1503,1800,1507,1012,1513,1512,1512,0,0,0,0,0,0,0,0,0,0,0,0,2
55901417,55901417,8,41,0,0,20003,1564,1477,1625,1345,1012,1512,1513,1512,0,0,0,0,0,0,0,0,0,0,0,0,2
56093662,56093662,8,41,0,0,20004,1583,1344,1462,1359,1013,1512,1512,1512,0,0,0,0,0,0,0,0,0,0,0,0,2
56305631,56305631,8,41,0,0,20003,1522,1449,1529,1478,1012,1512,1513,1512,0,0,0,0,0,0,0,0,0,0,0,0,2
56497407,56497407,8,41,0,0,20003,1499,1517,1525,1513,1012,1512,1512,1512,0,0,0,0,0,0,0,0,0,0,0,0,2
56710582,56710582,8,41,0,0,20004,1503,1516,1297,1468,1013,1512,1512,1512,0,0,0,0,0,0,0,0,0,0,0,0,2
56903531,56903531,8,41,0,0,20004,1547,1536,1298,1469,1012,1512,1512,1512,0,0,0,0,0,0,0,0,0,0,0,0,2
57116833,57116833,8,41,0,0,20003,1574,1574,1447,1488,1013,1512,1512,1512,0,0,0,0,0,0,0,0,0,0,0,0,2
57307806,57307806,8,41,0,0,20003,1498,1526,1553,1506,1012,1512,1513,1512,0,0,0,0,0,0,0,0,0,0,0,0,2
57518426,57518426,8,41,0,0,20003,1498,1517,1693,1509,1012,1512,1512,1512,0,0,0,0,0,0,0,0,0,0,0,0,2
57710911,57710911,8,41,0,0,20003,1525,1527,1667,1505,1012,1512,1513,1512,0,0,0,0,0,0,0,0,0,0,0,0,2
57923379,57923379,8,41,0,0,20003,1573,1535,1666,1495,1012,1512,1512,1512,0,0,0,0,0,0,0,0,0,0,0,0,2
58134577,58134577,8,41,0,0,20004,1565,1569,1666,1478,1013,1512,1512,1512,0,0,0,0,0,0,0,0,0,0,0,0,2
58326875,58326875,8,41,0,0,20003,1573,1553,1670,1430,1012,1512,1512,1513,0,0,0,0,0,0,0,0,0,0,0,0,2
58542607,58542607,8,41,0,0,20004,1498,1503,1540,1324,1013,1512,1512,1555,0,0,0,0,0,0,0,0,0,0,0,0,2
58733054,58733054,8,41,0,0,20003,1497,1514,1528,1445,1012,1512,1513,1512,0,0,0,0,0,0,0,0,0,0,0,0,2
58945894,58945894,8,41,0,0,20004,1498,1514,1438,1387,1013,1512,1512,1512,0,0,0,0,0,0,0,0,0,0,0,0,2
59137653,59137653,8,41,0,0,20003,1497,1515,1411,1358,1012,1512,1513,1512,0,0,0,0,0,0,0,0,0,0,0,0,2
59332340,59332340,8,41,0,0,20004,1496,1513,1574,1375,1012,1512,1512,1513,0,0,0,0,0,0,0,0,0,0,0,0,2
59545641,59545641,8,41,0,0,20003,1498,1514,1835,1511,1012,1513,1512,1512,0,0,0,0,0,0,0,0,0,0,0,0,2
59755279,59755279,8,41,0,0,20003,1509,1513,1894,1511,1012,1512,1513,1512,0,0,0,0,0,0,0,0,0,0,0,0,2
59950221,59950221,8,41,0,0,20004,1580,1497,1881,1506,1012,1512,1512,1513,0,0,0,0,0,0,0,0,0,0,0,0,2
60149337,60149337,8,41,0,0,20003,1553,1502,1869,1502,1012,1513,1512,1512,0,0,0,0,0,0,0,0,0,0,0,0,2
60340500,60340500,8,41,0,0,20003,1520,1513,1851,1485,1012,1513,1512,1512,0,0,0,0,0,0,0,0,0,0,0,0,2
60556024,60556024,8,41,0,0,20003,1527,1508,1848,1483,1012,1513,1512,1512,0,0,0,0,0,0,0,0,0,0,0,0,2
60958994,60958994,8,41,0,0,20003,1557,1480,1281,1441,1012,1513,1512,1512,0,0,0,0,0,0,0,0,0,0,0,0,2
61151151,61151151,8,41,0,0,20004,1556,1484,1165,1453,1012,1512,1512,1513,0,0,0,0,0,0,0,0,0,0,0,0,2
61364028,61364028,8,41,0,0,20003,1551,1490,1232,1438,1012,1513,1512,1512,0,0,0,0,0,0,0,0,0,0,0,0,2
61556231,61556231,8,41,0,0,20003,1550,1496,1491,1442,1012,1512,1512,1513,0,0,0,0,0,0,0,0,0,0,0,0,2
61769423,61769423,8,41,0,0,20004,1544,1513,1711,1473,1012,1512,1512,1513,0,0,0,0,0,0,0,0,0,0,0,0,2
61961020,61961020,8,41,0,0,20003,1531,1515,1825,1483,1012,1512,1513,1512,0,0,0,0,0,0,0,0,0,0,0,0,2
62173719,62173719,8,41,0,0,20004,1526,1515,1842,1485,1012,1512,1512,1513,0,0,0,0,0,0,0,0,0,0,0,0,2
62362216,62362216,8,41,0,0,20003,1525,1515,1844,1492,1012,1512,1513,1512,0,0,0,0,0,0,0,0,0,0,0,0,2
62570886,62570886,8,41,0,0,20004,1521,1515,1831,1476,1012,1512,1513,1512,0,0,0,0,0,0,0,0,0,0,0,0,2
62782097,62782097,8,41,0,0,20004,1499,1512,1769,1461,1013,1512,1512,1512,0,0,0,0,0,0,0,0,0,0,0,0,2
62976170,62976170,8,41,0,0,20003,1497,1515,1608,1391,1012,1512,1513,1512,0,0,0,0,0,0,0,0,0,0,0,0,2
63190079,63190079,8,41,0,0,20003,1498,1515,1366,1398,1012,1512,1512,1513,0,0,0,0,0,0,0,0,0,0,0,0,2
63384617,63384617,8,41,0,0,20003,1503,1515,1223,1415,1012,1512,1513,1512,0,0,0,0,0,0,0,0,0,0,0,0,2
63575496,63575496,8,41,0,0,20003,1508,1512,1176,1416,1013,1512,1512,1512,0,0,0,0,0,0,0,0,0,0,0,0,2
63789984,63789984,8,41,0,0,20004,1510,1508,1425,1443,1013,1512,1512,1534,0,0,0,0,0,0,0,0,0,0,0,0,2
63980877,63980877,8,41,0,0,20003,1508,1512,1802,1473,1012,1512,1512,1513,0,0,0,0,0,0,0,0,0,0,0,0,2
64196967,64196967,8,41,0,0,20003,1506,1514,1904,1501,1012,1512,1512,1512,0,0,0,0,0,0,0,0,0,0,0,0,2
64391395,64391395,8,41,0,0,20003,1506,1516,1912,1489,1012,1512,1513,1512,0,0,0,0,0,0,0,0,0,0,0,0,2
64604549,64604549,8,41,0,0,20004,1517,1507,1906,1478,1012,1512,1512,1513,0,0,0,0,0,0,0,0,0,0,0,0,2
64797671,64797671,8,41,0,0,20003,1528,1488,1907,1480,1012,1513,1512,1512,0,0,0,0,0,0,0,0,0,0,0,0,2
64993425,64993425,8,41,0,0,20004,1552,1472,1890,1484,1012,1512,1512,1513,0,0,0,0,0,0,0,0,0,0,0,0,2
65207450,65207450,8,41,0,0,20003,1555,1460,1797,1444,1012,1513,1512,1512,0,0,0,0,0,0,0,0,0,0,0,0,2
65400886,65400886,8,41,0,0,20003,1553,1463,1749,1453,1012,1512,1512,1513,0,0,0,0,0,0,0,0,0,0,0,0,2
65612873,65612873,8,41,0,0,20003,1515,1514,1240,1419,1012,1512,1512,1512,0,0,0,0,0,0,0,0,0,0,0,0,2
65810465,65810465,8,41,0,0,20003,1513,1516,1116,1391,1012,1512,1513,1512,0,0,0,0,0,0,0,0,0,0,0,0,2
66024417,66024417,8,41,0,0,20003,1502,1515,1177,1381,1012,1512,1512,1513,0,0,0,0,0,0,0,0,0,0,0,0,2
66217118,66217118,8,41,0,0,20003,1499,1516,1363,1406,1012,1513,1512,1512,0,0,0,0,0,0,0,0,0,0,0,0,2
66427260,66427260,8,41,0,0,20003,1500,1515,1537,1409,1012,1512,1512,1513,0,0,0,0,0,0,0,0,0,0,0,0,2
66616935,66616935,8,41,0,0,20003,1509,1515,1770,1434,1013,1512,1512,1512,0,0,0,0,0,0,0,0,0,0,0,0,2
66828379,66828379,8,41,0,0,20003,1522,1517,1893,1471,1012,1513,1512,1512,0,0,0,0,0,0,0,0,0,0,0,0,2
67020590,67020590,8,41,0,0,20004,1538,1516,1910,1468,1013,1512,1512,1512,0,0,0,0,0,0,0,0,0,0,0,0,2
67237161,67237161,8,41,0,0,20004,1539,1515,1916,1475,1013,1512,1512,1512,0,0,0,0,0,0,0,0,0,0,0,0,2
67430654,67430654,8,41,0,0,20003,1536,1515,1917,1476,1012,1512,1513,1512,0,0,0,0,0,0,0,0,0,0,0,0,2
67624476,67624476,8,41,0,0,20003,1535,1516,1916,1483,1012,1513,1512,1512,0,0,0,0,0,0,0,0,0,0,0,0,2
67843210,67843210,8,41,0,0,20004,1535,1515,1917,1495,1012,1512,1513,1512,0,0,0,0,0,0,0,0,0,0,0,0,2
68030907,68030907,8,41,0,0,20003,1526,1515,1905,1500,1012,1512,1512,1512,0,0,0,0,0,0,0,0,0,0,0,0,2
68436980,68436980,8,41,0,0,20004,1536,1515,1122,1334,1013,1512,1512,1512,0,0,0,0,0,0,0,0,0,0,0,0,2
68650205,68650205,8,41,0,0,20004,1534,1512,1116,1367,1013,1512,1512,1512,0,0,0,0,0,0,0,0,0,0,0,0,2
68838521,68838521,8,41,0,0,20003,1528,1510,1172,1368,1012,1512,1512,1513,0,0,0,0,0,0,0,0,0,0,0,0,2
69050232,69050232,8,41,0,0,20004,1519,1515,1566,1351,1012,1512,1512,1512,0,0,0,0,0,0,0,0,0,0,0,0,2
69240059,69240059,8,41,0,0,20003,1511,1516,1832,1408,1012,1512,1512,1513,0,0,0,0,0,0,0,0,0,0,0,0,2
69452580,69452580,8,41,0,0,20003,1510,1516,1916,1409,1012,1512,1512,1513,0,0,0,0,0,0,0,0,0,0,0,0,2
69666913,69666913,8,41,0,0,20003,1505,1516,1916,1474,1012,1513,1512,1512,0,0,0,0,0,0,0,0,0,0,0,0,2
69858100,69858100,8,41,0,0,20004,1500,1515,1917,1511,1012,1512,1513,1512,0,0,0,0,0,0,0,0,0,0,0,0,2
70071309,70071309,8,41,0,0,20003,1504,1516,1916,1524,1012,1512,1512,1513,0,0,0,0,0,0,0,0,0,0,0,0,2
70258481,70258481,8,41,0,0,20004,1521,1516,1634,1457,1012,1512,1513,1512,0,0,0,0,0,0,0,0,0,0,0,0,2
70468420,70468420,8,41,0,0,20004,1535,1516,1233,1391,1013,1512,1512,1512,0,0,0,0,0,0,0,0,0,0,0,0,2
70680165,70680165,8,41,0,0,20003,1545,1519,1169,1388,1012,1513,1512,1512,0,0,0,0,0,0,0,0,0,0,0,0,2
70874602,70874602,8,41,0,0,20003,1551,1551,1451,1451,1012,1512,1513,1512,0,0,0,0,0,0,0,0,0,0,0,0,2
71088637,71088637,8,41,0,0,20004,1541,1588,1536,1461,1013,1512,1512,1512,0,0,0,0,0,0,0,0,0,0,0,0,2
71280359,71280359,8,41,0,0,20004,1541,1610,1599,1483,1012,1512,1513,1512,0,0,0,0,0,0,0,0,0,0,0,0,2
71489976,71489976,8,41,0,0,20003,1553,1555,1693,1473,1012,1512,1513,1512,0,0,0,0,0,0,0,0,0,0,0,0,2
71682480,71682480,8,41,0,0,20003,1525,1518,1813,1467,1012,1513,1512,1512,0,0,0,0,0,0,0,0,0,0,0,0,2
71876905,71876905,8,41,0,0,20003,1511,1517,1808,1481,1012,1512,1512,1513,0,0,0,0,0,0,0,0,0,0,0,0,2
72092283,72092283,8,41,0,0,20004,1505,1541,1814,1512,1012,1512,1512,1513,0,0,0,0,0,0,0,0,0,0,0,0,2
72290541,72290541,8,41,0,0,20003,1516,1544,1851,1512,1012,1513,1512,1512,0,0,0,0,0,0,0,0,0,0,0,0,2
72504617,72504617,8,41,0,0,20004,1532,1549,1648,1511,1012,1512,1512,1513,0,0,0,0,0,0,0,0,0,0,0,0,2
72696020,72696020,8,41,0,0,20003,1563,1592,1326,1487,1012,1513,1512,1512,0,0,0,0,0,0,0,0,0,0,0,0,2
72906528,72906528,8,41,0,0,20003,1571,1642,1266,1461,1012,1512,1512,1513,0,0,0,0,0,0,0,0,0,0,0,0,2
73113820,73113820,8,41,0,0,20004,1545,1583,1339,1478,1012,1512,1512,1513,0,0,0,0,0,0,0,0,0,0,0,0,2
73516095,73516095,8,41,0,0,20003,1511,1517,1504,1434,1012,1512,1512,1513,0,0,0,0,0,0,0,0,0,0,0,0,2
73713038,73713038,8,41,0,0,20004,1523,1517,1530,1458,1013,1512,1512,1512,0,0,0,0,0,0,0,0,0,0,0,0,2
73925653,73925653,8,41,0,0,20003,1538,1532,1617,1462,1012,1512,1513,1512,0,0,0,0,0,0,0,0,0,0,0,0,2
74121124,74121124,8,41,0,0,20004,1564,1576,1800,1495,1012,1512,1512,1512,0,0,0,0,0,0,0,0,0,0,0,0,2
74331278,74331278,8,41,0,0,20004,1570,1565,1916,1468,1013,1512,1512,1512,0,0,0,0,0,0,0,0,0,0,0,0,2
74716592,74716592,8,41,0,0,20003,1538,1517,1916,1450,1012,1513,1512,1512,0,0,0,0,0,0,0,0,0,0,0,0,2
74931706,74931706,8,41,0,0,20003,1532,1517,1916,1459,1012,1513,1512,1512,0,0,0,0,0,0,0,0,0,0,0,0,2
75121618,75121618,8,41,0,0,20003,1535,1516,1871,1460,1013,1512,1512,1512,0,0,0,0,0,0,0,0,0,0,0,0,2
75335341,75335341,8,41,0,0,20003,1499,1517,1314,1483,1012,1513,1512,1512,0,0,0,0,0,0,0,0,0,0,0,0,2
75528631,75528631,8,41,0,0,20003,1498,1516,1116,1511,1013,1512,1512,1512,0,0,0,0,0,0,0,0,0,0,0,0,2
75742994,75742994,8,41,0,0,20003,1499,1517,1116,1498,1012,1513,1512,1512,0,0,0,0,0,0,0,0,0,0,0,0,2
75935288,75935288,8,41,0,0,20003,1498,1517,1188,1473,1012,1512,1513,1512,0,0,0,0,0,0,0,0,0,0,0,0,2
76148600,76148600,8,41,0,0,20003,1499,1517,1594,1445,1013,1512,1512,1512,0,0,0,0,0,0,0,0,0,0,0,0,2
76340069,76340069,8,41,0,0,20003,1499,1519,1916,1475,1012,1513,1512,1512,0,0,0,0,0,0,0,0,0,0,0,0,2
76552932,76552932,8,41,0,0,20003,1504,1519,1917,1479,1012,1512,1513,1512,0,0,0,0,0,0,0,0,0,0,0,0,2
76745164,76745164,8,41,0,0,20003,1539,1532,1916,1509,1012,1513,1512,1512,0,0,0,0,0,0,0,0,0,0,0,0,2
76957785,76957785,8,41,0,0,20003,1570,1527,1916,1511,1012,1513,1512,1512,0,0,0,0,0,0,0,0,0,0,0,0,2
77150512,77150512,8,41,0,0,20003,1588,1521,1916,1511,1012,1512,1512,1513,0,0,0,0,0,0,0,0,0,0,0,0,2
77365656,77365656,8,41,0,0,20003,1586,1519,1916,1508,1012,1513,1512,1512,0,0,0,0,0,0,0,0,0,0,0,0,2
77556146,77556146,8,41,0,0,20003,1557,1517,1828,1460,1012,1512,1513,1512,0,0,0,0,0,0,0,0,0,0,0,0,2
77772380,77772380,8,41,0,0,20003,1500,1516,1211,1264,1012,1512,1512,1513,0,0,0,0,0,0,0,0,0,0,0,0,2
77965825,77965825,8,41,0,0,20004,1514,1516,1117,1349,1012,1512,1512,1513,0,0,0,0,0,0,0,0,0,0,0,0,2
78156597,78156597,8,41,0,0,20003,1528,1516,1116,1366,1013,1512,1512,1512,0,0,0,0,0,0,0,0,0,0,0,0,2
78368753,78368753,8,41,0,0,20003,1547,1511,1242,1307,1012,1512,1513,1512,0,0,0,0,0,0,0,0,0,0,0,0,2
78562856,78562856,8,41,0,0,20004,1513,1515,1842,1365,1012,1512,1512,1513,0,0,0,0,0,0,0,0,0,0,0,0,2
78779193,78779193,8,41,0,0,20004,1505,1516,1916,1382,1012,1512,1512,1513,0,0,0,0,0,0,0,0,0,0,0,0,2
78976095,78976095,8,41,0,0,20003,1514,1517,1916,1407,1012,1513,1512,1512,0,0,0,0,0,0,0,0,0,0,0,0,2
79187932,79187932,8,41,0,0,20003,1527,1512,1917,1451,1012,1512,1512,1513,0,0,0,0,0,0,0,0,0,0,0,0,2
79383723,79383723,8,41,0,0,20003,1559,1514,1916,1460,1012,1513,1512,1512,0,0,0,0,0,0,0,0,0,0,0,0,2
79596311,79596311,8,41,0,0,20003,1539,1516,1916,1457,1012,1513,1512,1512,0,0,0,0,0,0,0,0,0,0,0,0,2
79788410,79788410,8,41,0,0,20004,1531,1515,1916,1465,1013,1512,1512,1512,0,0,0,0,0,0,0,0,0,0,0,0,2
79979378,79979378,8,41,0,0,20003,1535,1515,1917,1481,1012,1512,1513,1512,0,0,0,0,0,0,0,0,0,0,0,0,2
80191286,80191286,8,41,0,0,20003,1546,1515,1610,1425,1012,1512,1513,1512,0,0,0,0,0,0,0,0,0,0,0,0,2
80404114,80404114,8,41,0,0,20004,1558,1515,1116,1331,1013,1512,1512,1512,0,0,0,0,0,0,0,0,0,0,0,0,2
80596458,80596458,8,41,0,0,20003,1566,1516,1116,1380,1012,1512,1513,1512,0,0,0,0,0,0,0,0,0,0,0,0,2
80790498,80790498,8,41,0,0,20003,1576,1544,1280,1395,1012,1513,1512,1512,0,0,0,0,0,0,0,0,0,0,0,0,2
81001688,81001688,8,41,0,0,20003,1573,1556,1773,1473,1012,1513,1512,1512,0,0,0,0,0,0,0,0,0,0,0,0,2
81192153,81192153,8,41,0,0,20004,1537,1539,1917,1466,1012,1512,1513,1512,0,0,0,0,0,0,0,0,0,0,0,0,2
81402060,81402060,8,41,0,0,20004,1522,1518,1916,1511,1013,1512,1512,1512,0,0,0,0,0,0,0,0,0,0,0,0,2
81594903,81594903,8,41,0,0,20004,1506,1517,1917,1570,1012,1512,1513,1512,0,0,0,0,0,0,0,0,0,0,0,0,2
81810988,81810988,8,41,0,0,20004,1499,1528,1513,1482,1012,1512,1512,1512,0,0,0,0,0,0,0,0,0,0,0,0,2
82222238,82222238,8,41,0,0,20003,1535,1550,1116,1492,1012,1512,1513,1512,0,0,0,0,0,0,0,0,0,0,0,0,2
82417985,82417985,8,41,0,0,20004,1525,1548,1315,1457,1012,1512,1512,1513,0,0,0,0,0,0,0,0,0,0,0,0,2
82611003,82611003,8,41,0,0,20003,1521,1560,1794,1501,1012,1513,1512,1512,0,0,0,0,0,0,0,0,0,0,0,0,2
82826192,82826192,8,41,0,0,20004,1516,1569,1917,1493,1012,1512,1513,1512,0,0,0,0,0,0,0,0,0,0,0,0,2
83021752,83021752,8,41,0,0,20003,1528,1543,1916,1511,1013,1512,1512,1512,0,0,0,0,0,0,0,0,0,0,0,0,2
83236073,83236073,8,41,0,0,20003,1542,1517,1916,1507,1013,1512,1512,1512,0,0,0,0,0,0,0,0,0,0,0,0,2
83426203,83426203,8,41,0,0,20004,1530,1516,1916,1511,1012,1512,1512,1513,0,0,0,0,0,0,0,0,0,0,0,0,2
83634236,83634236,8,41,0,0,20004,1521,1516,1916,1498,1012,1512,1512,1512,0,0,0,0,0,0,0,0,0,0,0,0,2
83827797,83827797,8,41,0,0,20003,1523,1516,1916,1500,1012,1512,1512,1513,0,0,0,0,0,0,0,0,0,0,0,0,2
84043401,84043401,8,41,0,0,20003,1522,1516,1630,1512,1012,1512,1512,1513,0,0,0,0,0,0,0,0,0,0,0,0,2
84237988,84237988,8,41,0,0,20003,1526,1516,1116,1385,1012,1512,1513,1512,0,0,0,0,0,0,0,0,0,0,0,0,2
84449402,84449402,8,41,0,0,20003,1531,1516,1116,1417,1013,1512,1512,1512,0,0,0,0,0,0,0,0,0,0,0,0,2
84637528,84637528,8,41,0,0,20003,1537,1516,1117,1421,1012,1512,1513,1512,0,0,0,0,0,0,0,0,0,0,0,0,2
84851006,84851006,8,41,0,0,20004,1554,1516,1825,1507,1012,1512,1512,1512,0,0,0,0,0,0,0,0,0,0,0,0,2
85042531,85042531,8,41,0,0,20003,1576,1519,1917,1489,1012,1512,1513,1512,0,0,0,0,0,0,0,0,0,0,0,0,2
85241078,85241078,8,41,0,0,20003,1610,1517,1916,1520,1012,1512,1512,1512,0,0,0,0,0,0,0,0,0,0,0,0,2
85456572,85456572,8,41,0,0,20003,1547,1516,1916,1509,1013,1512,1512,1512,0,0,0,0,0,0,0,0,0,0,0,0,2
85648174,85648174,8,41,0,0,20004,1430,1448,1761,1388,1013,1512,1512,1512,0,0,0,0,0,0,0,0,0,0,0,0,2
85862923,85862923,8,41,0,0,20003,1449,1500,1324,1284,1012,1513,1512,1512,0,0,0,0,0,0,0,0,0,0,0,0,2
86058491,86058491,8,41,0,0,20004,1497,1513,1208,1315,1012,1512,1512,1513,0,0,0,0,0,0,0,0,0,0,0,0,2
86267808,86267808,8,41,0,0,20003,1497,1513,1553,1485,1012,1513,1512,1512,0,0,0,0,0,0,0,0,0,0,0,0,2
86458536,86458536,8,41,0,0,20003,1497,1513,1917,1458,1012,1512,1512,1513,0,0,0,0,0,0,0,0,0,0,0,0,2
86672902,86672902,8,41,0,0,20004,1498,1513,1916,1512,1012,1512,1512,1513,0,0,0,0,0,0,0,0,0,0,0,0,2
86865326,86865326,8,41,0,0,20003,1507,1512,1917,1511,1012,1512,1512,1513,0,0,0,0,0,0,0,0,0,0,0,0,2
87079722,87079722,8,41,0,0,20004,1552,1497,1916,1511,1012,1512,1512,1513,0,0,0,0,0,0,0,0,0,0,0,0,2
87278480,87278480,8,41,0,0,20003,1564,1482,1916,1511,1012,1513,1512,1512,0,0,0,0,0,0,0,0,0,0,0,0,2
87467795,87467795,8,41,0,0,20003,1532,1515,1781,1497,1012,1513,1512,1512,0,0,0,0,0,0,0,0,0,0,0,0,2
87682801,87682801,8,41,0,0,20003,1505,1516,1332,1474,1012,1512,1513,1512,0,0,0,0,0,0,0,0,0,0,0,0,2
87877424,87877424,8,41,0,0,20004,1527,1515,1426,1477,1012,1512,1512,1512,0,0,0,0,0,0,0,0,0,0,0,0,2
88072395,88072395,8,41,0,0,20003,1539,1508,1658,1511,1012,1512,1513,1512,0,0,0,0,0,0,0,0,0,0,0,0,2
88479708,88479708,8,41,0,0,20003,1542,1515,1276,1452,1012,1512,1513,1512,0,0,0,0,0,0,0,0,0,0,0,0,2
88689801,88689801,8,41,0,0,20003,1559,1515,1880,1513,1012,1512,1512,1512,0,0,0,0,0,0,0,0,0,0,0,0,2
88884070,88884070,8,41,0,0,20003,1552,1515,1556,1439,1012,1512,1513,1512,0,0,0,0,0,0,0,0,0,0,0,0,2
89095280,89095280,8,41,0,0,20004,1553,1515,1484,1459,1012,1512,1513,1512,0,0,0,0,0,0,0,0,0,0,0,0,2
89285363,89285363,8,41,0,0,20003,1517,1515,1674,1439,1012,1512,1513,1512,0,0,0,0,0,0,0,0,0,0,0,0,2
89501642,89501642,8,41,0,0,20003,1499,1515,1705,1428,1012,1512,1513,1512,0,0,0,0,0,0,0,0,0,0,0,0,2
89691488,89691488,8,41,0,0,20003,1498,1515,1749,1447,1013,1512,1512,1512,0,0,0,0,0,0,0,0,0,0,0,0,2
90101763,90101763,8,41,0,0,20004,1504,1515,1439,1435,1012,1513,1512,1527,0,0,0,0,0,0,0,0,0,0,0,0,2
90316020,90316020,8,41,0,0,20003,1520,1511,1313,1455,1012,1513,1512,1512,0,0,0,0,0,0,0,0,0,0,0,0,2
90503731,90503731,8,41,0,0,20004,1533,1508,1279,1407,1012,1513,1512,1512,0,0,0,0,0,0,0,0,0,0,0,0,2
90714641,90714641,8,41,0,0,20003,1522,1516,1574,1440,1012,1513,1512,1512,0,0,0,0,0,0,0,0,0,0,0,0,2
90908114,90908114,8,41,0,0,20003,1521,1516,1702,1465,1013,1512,1512,1512,0,0,0,0,0,0,0,0,0,0,0,0,2
91119303,91119303,8,41,0,0,20003,1521,1517,1787,1477,1012,1513,1512,1512,0,0,0,0,0,0,0,0,0,0,0,0,2
91311753,91311753,8,41,0,0,20003,1526,1515,1807,1493,1013,1512,1512,1512,0,0,0,0,0,0,0,0,0,0,0,0,2
91528632,91528632,8,41,0,0,20003,1533,1516,1810,1497,1012,1513,1512,1512,0,0,0,0,0,0,0,0,0,0,0,0,2
91727280,91727280,8,41,0,0,20004,1579,1515,1778,1483,1012,1512,1512,1513,0,0,0,0,0,0,0,0,0,0,0,0,2
91919002,91919002,8,41,0,0,20003,1597,1503,1536,1394,1012,1513,1512,1512,0,0,0,0,0,0,0,0,0,0,0,0,2
92133910,92133910,8,41,0,0,20003,1531,1475,1334,1377,1012,1512,1513,1512,0,0,0,0,0,0,0,0,0,0,0,0,2
92332145,92332145,8,41,0,0,20004,1541,1472,1353,1408,1012,1512,1512,1512,0,0,0,0,0,0,0,0,0,0,0,0,2
92544205,92544205,8,41,0,0,20003,1545,1470,1572,1449,1012,1512,1513,1512,0,0,0,0,0,0,0,0,0,0,0,0,2
92738579,92738579,8,41,0,0,20004,1557,1477,1694,1480,1012,1512,1512,1513,0,0,0,0,0,0,0,0,0,0,0,0,2
92929029,92929029,8,41,0,0,20003,1549,1514,1695,1503,1012,1512,1512,1513,0,0,0,0,0,0,0,0,0,0,0,0,2
93143030,93143030,8,41,0,0,20004,1540,1516,1724,1512,1012,1512,1512,1513,0,0,0,0,0,0,0,0,0,0,0,0,2
93332212,93332212,8,41,0,0,20004,1539,1516,1755,1511,1012,1512,1512,1513,0,0,0,0,0,0,0,0,0,0,0,0,2
93544893,93544893,8,41,0,0,20004,1530,1516,1526,1426,1012,1512,1512,1513,0,0,0,0,0,0,0,0,0,0,0,0,2
93757700,93757700,8,41,0,0,20004,1510,1516,1247,1456,1013,1512,1512,1512,0,0,0,0,0,0,0,0,0,0,0,0,2
93951000,93951000,8,41,0,0,20004,1500,1516,1131,1429,1012,1512,1512,1512,0,0,0,0,0,0,0,0,0,0,0,0,2
94163811,94163811,8,41,0,0,20003,1498,1520,1474,1459,1013,1512,1512,1512,0,0,0,0,0,0,0,0,0,0,0,0,2
94356072,94356072,8,41,0,0,20003,1497,1529,1752,1504,1012,1512,1513,1512,0,0,0,0,0,0,0,0,0,0,0,0,2
94567378,94567378,8,41,0,0,20003,1510,1524,1807,1512,1012,1512,1512,1512,0,0,0,0,0,0,0,0,0,0,0,0,2
94757910,94757910,8,41,0,0,20003,1521,1519,1822,1511,1012,1512,1513,1512,0,0,0,0,0,0,0,0,0,0,0,0,2
94968996,94968996,8,41,0,0,20004,1524,1519,1831,1513,1012,1512,1512,1512,0,0,0,0,0,0,0,0,0,0,0,0,2
95160054,95160054,8,41,0,0,20003,1547,1519,1851,1516,1012,1512,1513,1512,0,0,0,0,0,0,0,0,0,0,0,0,2
95375234,95375234,8,41,0,0,20004,1564,1519,1663,1436,1012,1512,1513,1512,0,0,0,0,0,0,0,0,0,0,0,0,2
95569387,95569387,8,41,0,0,20003,1566,1517,1257,1354,1012,1512,1513,1512,0,0,0,0,0,0,0,0,0,0,0,0,2
95781660,95781660,8,41,0,0,20003,1536,1515,1117,1269,1012,1512,1512,1513,0,0,0,0,0,0,0,0,0,0,0,0,2
95972179,95972179,8,41,0,0,20003,1525,1516,1439,1353,1012,1512,1513,1512,0,0,0,0,0,0,0,0,0,0,0,0,2
96190173,96190173,8,41,0,0,20004,1523,1516,1841,1442,1012,1512,1513,1512,0,0,0,0,0,0,0,0,0,0,0,0,2
96381929,96381929,8,41,0,0,20004,1525,1516,1889,1431,1013,1512,1512,1512,0,0,0,0,0,0,0,0,0,0,0,0,2
96578775,96578775,8,41,0,0,20004,1521,1516,1858,1395,1012,1512,1513,1512,0,0,0,0,0,0,0,0,0,0,0,0,2
96787356,96787356,8,41,0,0,20004,1480,1470,1303,1340,1013,1512,1512,1512,0,0,0,0,0,0,0,0,0,0,0,0,2
96981664,96981664,8,41,0,0,20003,1478,1469,1134,1374,1012,1512,1513,1512,0,0,0,0,0,0,0,0,0,0,0,0,2
97199775,97199775,8,41,0,0,20003,1487,1499,1535,1456,1012,1512,1513,1512,0,0,0,0,0,0,0,0,0,0,0,0,2
97392626,97392626,8,41,0,0,20003,1498,1513,1841,1510,1013,1512,1512,1512,0,0,0,0,0,0,0,0,0,0,0,0,2
97604083,97604083,8,41,0,0,20004,1497,1514,1869,1491,1012,1512,1513,1512,0,0,0,0,0,0,0,0,0,0,0,0,2
97789184,97789184,8,41,0,0,20003,1497,1503,1883,1507,1012,1513,1512,1512,0,0,0,0,0,0,0,0,0,0,0,0,2
98007346,98007346,8,41,0,0,20004,1516,1512,1848,1503,1012,1512,1513,1512,0,0,0,0,0,0,0,0,0,0,0,0,2
98199277,98199277,8,41,0,0,20004,1500,1488,1658,1398,1013,1512,1512,1512,0,0,0,0,0,0,0,0,0,0,0,0,2
98414984,98414984,8,41,0,0,20003,1498,1456,1444,1512,1012,1513,1512,1512,0,0,0,0,0,0,0,0,0,0,0,0,2
98608595,98608595,8,41,0,0,20003,1500,1467,1348,1502,1013,1512,1512,1512,0,0,0,0,0,0,0,0,0,0,0,0,2
98822528,98822528,8,41,0,0,20004,1498,1514,1162,1479,1012,1513,1512,1512,0,0,0,0,0,0,0,0,0,0,0,0,2
99013834,99013834,8,41,0,0,20003,1511,1514,1548,1415,1012,1512,1513,1512,0,0,0,0,0,0,0,0,0,0,0,0,2
99229086,99229086,8,41,0,0,20004,1526,1514,1912,1480,1013,1512,1512,1512,0,0,0,0,0,0,0,0,0,0,0,0,2
99421743,99421743,8,41,0,0,20003,1526,1514,1917,1481,1012,1512,1513,1512,0,0,0,0,0,0,0,0,0,0,0,0,2
99611965,99611965,8,41,0,0,20003,1541,1515,1916,1501,1012,1513,1512,1512,0,0,0,0,0,0,0,0,0,0,0,0,2
99824825,99824825,8,41,0,0,20003,1551,1514,1917,1499,1012,1512,1513,1512,0,0,0,0,0,0,0,0,0,0,0,0,2
100035317,100035317,8,41,0,0,20004,1555,1511,1752,1451,1012,1512,1513,1512,0,0,0,0,0,0,0,0,0,0,0,0,2
100231010,100231010,8,41,0,0,20003,1539,1506,1417,1434,1012,1512,1513,1524,0,0,0,0,0,0,0,0,0,0,0,0,2
100426428,100426428,8,41,0,0,20003,1499,1513,1116,1405,1013,1512,1512,1512,0,0,0,0,0,0,0,0,0,0,0,0,2
100642136,100642136,8,41,0,0,20004,1502,1498,1467,1406,1013,1512,1512,1547,0,0,0,0,0,0,0,0,0,0,0,0,2
101046206,101046206,8,41,0,0,20004,1514,1492,1916,1478,1012,1512,1512,1512,0,0,0,0,0,0,0,0,0,0,0,0,2
101241714,101241714,8,41,0,0,20003,1513,1494,1917,1477,1012,1512,1513,1512,0,0,0,0,0,0,0,0,0,0,0,0,2
101453984,101453984,8,41,0,0,20004,1513,1495,1917,1472,1012,1512,1513,1512,0,0,0,0,0,0,0,0,0,0,0,0,2
101643222,101643222,8,41,0,0,20003,1512,1497,1786,1439,1012,1512,1513,1512,0,0,0,0,0,0,0,0,0,0,0,0,2
101853711,101853711,8,41,0,0,20003,1521,1479,1239,1434,1012,1512,1513,1512,0,0,0,0,0,0,0,0,0,0,0,0,2
102048822,102048822,8,41,0,0,20003,1523,1482,1116,1469,1012,1512,1513,1512,0,0,0,0,0,0,0,0,0,0,0,0,2
102263282,102263282,8,41,0,0,20004,1512,1514,1117,1451,1012,1512,1513,1512,0,0,0,0,0,0,0,0,0,0,0,0,2
102470846,102470846,8,41,0,0,20003,1506,1517,1275,1446,1013,1512,1512,1512,0,0,0,0,0,0,0,0,0,0,0,0,2
102661999,102661999,8,41,0,0,20003,1536,1528,1904,1487,1012,1513,1512,1512,0,0,0,0,0,0,0,0,0,0,0,0,2
102856771,102856771,8,41,0,0,20004,1554,1518,1916,1490,1012,1512,1512,1513,0,0,0,0,0,0,0,0,0,0,0,0,2
103266904,103266904,8,41,0,0,20004,1531,1516,1769,1499,1012,1512,1512,1513,0,0,0,0,0,0,0,0,0,0,0,0,2
103479794,103479794,8,41,0,0,20004,1512,1517,1681,1399,1013,1512,1512,1512,0,0,0,0,0,0,0,0,0,0,0,0,2
103683326,103683326,8,41,0,0,20003,1503,1516,1377,1416,1012,1512,1513,1512,0,0,0,0,0,0,0,0,0,0,0,0,2
103874640,103874640,8,41,0,0,20003,1505,1516,1169,1549,1013,1512,1512,1512,0,0,0,0,0,0,0,0,0,0,0,0,2
104086420,104086420,8,41,0,0,20003,1504,1510,1116,1912,1012,1512,1513,1512,0,0,0,0,0,0,0,0,0,0,0,0,2
104279334,104279334,8,41,0,0,20004,1503,1514,1116,1913,1012,1512,1512,1513,0,0,0,0,0,0,0,0,0,0,0,0,2
104494078,104494078,8,41,0,0,20003,1500,1514,1116,1912,1013,1512,1512,1512,0,0,0,0,0,0,0,0,0,0,0,0,2
104688869,104688869,8,41,0,0,20003,1499,1515,1116,1913,1012,1512,1512,1513,0,0,0,0,0,0,0,0,0,0,0,0,2
104880860,104880860,8,41,0,0,20003,1499,1515,1116,1912,1012,1513,1512,1512,0,0,0,0,0,0,0,0,0,0,0,0,2
105094619,105094619,8,41,0,0,20003,1499,1516,1116,1912,1012,1513,1512,1512,0,0,0,0,0,0,0,0,0,0,0,0,2
105303771,105303771,8,41,0,0,20004,1500,1516,1116,1913,1012,1512,1512,1513,0,0,0,0,0,0,0,0,0,0,0,0,2
105496880,105496880,8,41,0,0,20003,1497,1516,1116,1912,1012,1513,1512,1512,0,0,0,0,0,0,0,0,0,0,0,0,2
105692056,105692056,8,41,0,0,20003,1498,1515,1501,1298,2013,1512,1512,1512,0,0,0,0,0,0,0,0,0,0,0,0,2
105908208,105908208,8,41,0,0,20003,1497,1516,1524,1517,2013,1512,1512,1512,0,0,0,0,0,0,0,0,0,0,0,0,2
