timestamp,gyro_rad[0],gyro_rad[1],gyro_rad[2],gyro_integral_dt,accelerometer_timestamp_relative,accelerometer_m_s2[0],accelerometer_m_s2[1],accelerometer_m_s2[2],accelerometer_integral_dt
9856258,-0.033948153,-0.116038896,1.2000215,3988,0,-0.6009185,-2.203031,-12.873832,3988
9860260,-0.26262742,-0.018675406,1.212397,4002,0,0.8091737,1.9329975,-6.634345,4002
9864274,0.14484198,-0.18109259,1.2676678,4014,0,-1.6393319,0.6460176,-11.802028,4014
9868258,-0.36375156,0.0059904465,1.2823702,3984,0,1.521528,-0.71155906,-7.055923,3984
9872274,0.032087747,-0.21218647,1.3225378,4016,0,-1.2802631,1.8582882,-10.357731,4016
9876255,-0.0857479,-0.011218672,1.345276,3981,0,-0.59574956,-2.4537373,-12.014178,3981
9880257,-0.24766971,-0.08045812,1.3594075,4002,0,2.0124242,2.8494687,-5.670404,4002
9884267,0.28667688,-0.24676673,1.3316275,4010,0,-3.2009137,-0.81191677,-13.785139,4010
9888318,-0.29457062,0.10932841,1.2964686,4051,0,1.8302677,-1.6512796,-7.4279985,4051
9892255,0.10713418,-0.15836792,1.2810465,3937,0,-1.0946978,3.0343041,-9.653843,3937
9896279,0.047676504,-0.03983045,1.2536912,4024,0,-1.0966256,-3.3385966,-12.539006,4024
9900255,-0.17493895,-0.0054549733,1.2347091,3976,0,1.2580124,2.9470234,-7.736629,3976
9904257,0.29059625,-0.063432015,1.2890137,4002,0,-2.3370242,-0.9371729,-10.952065,4002
9908260,-0.15102147,0.114509374,1.3170117,4003,0,1.8634896,1.0804719,-7.613555,4003
9912325,0.18457264,-0.14835323,1.3576478,4065,0,-1.8001113,1.9895357,-10.380352,4065
9916273,0.1800143,0.04489592,1.3947308,3948,0,-2.009935,-2.5778074,-14.109946,3948
9920260,-0.12885399,0.15257575,1.4208951,3987,0,3.8818705,1.8737569,-4.789945,3987
9924257,0.3710423,-0.115587905,1.4252342,3997,0,-3.307554,0.081415184,-10.685776,3997
9928257,0.03327212,0.14529538,1.3441043,4000,0,-0.10762782,-2.1549778,-11.571836,4000
9932285,0.07203224,0.06780019,1.3253647,4028,0,0.40815794,2.33358,-9.143897,4028
9936255,0.3224149,0.054850537,1.3191216,3970,0,-1.6272845,-1.6298646,-12.822495,3970
9940325,-0.11194565,0.2013116,1.2346721,4070,0,1.5969923,-0.625256,-6.732918,4070
9944257,0.2238428,0.013264615,1.2918015,3932,0,-2.184413,1.6055038,-11.52944,3932
9948261,0.055072144,0.23778327,1.3248237,4004,0,-0.21579343,-1.4085125,-11.005017,4004
9952268,-0.07839879,0.066763215,1.3174577,4007,0,2.8614843,1.2454113,-6.5131025,4007
9956255,0.21355025,0.07522023,1.4123473,3987,0,-3.741491,-1.1650473,-13.895345,3987
9960257,-0.20907103,0.28249034,1.4055073,4002,0,2.234363,1.0758862,-7.0266004,4002
9964263,0.1851201,-0.09310641,1.4270304,4006,0,-0.49480888,1.7238122,-9.753603,4006
9968275,0.1274767,0.08231748,1.4174402,4012,0,-1.8844925,-3.7892318,-14.209262,4012
9972265,-0.2427116,0.17340307,1.3381543,3990,0,3.5766683,2.1255906,-5.0386233,3990
9976263,0.3691836,-0.12415265,1.3703812,3998,0,-3.0577908,0.88888913,-11.583777,3998
9980257,-0.08282026,0.061287135,1.2879469,3994,0,0.07384763,-3.8982403,-10.185202,3994
9984257,-0.11387239,0.006631993,1.2488317,4000,0,2.3896115,3.8651018,-8.066026,4000
9988257,0.30564356,-0.09613748,1.3200479,4000,0,-2.5473776,-1.0176677,-12.7135,4000
9992341,-0.21189341,-0.029827574,1.2772744,4084,0,1.0319692,-1.3749133,-8.019096,4084
9996292,0.05238613,-0.05401714,1.3648401,3951,0,0.53464943,3.1505628,-8.970186,3951
10001055,0.06931488,-0.05988488,1.4203247,4763,0,-0.7594132,-1.8471035,-10.23807,4763
10005055,-0.10008681,-0.17993604,1.3888922,4000,0,1.1868806,1.2637994,-9.326192,4000
10009055,0.08954232,-0.10664101,1.4737381,4000,0,-1.280683,0.22622964,-11.298136,4000
10013178,-0.15436928,-0.12727496,1.38688,4123,0,0.95198,-0.80568665,-8.700578,4123
10017855,0.05917812,-0.2147396,1.380862,4677,0,-1.5657133,-0.18031564,-13.28002,4677
10021855,-0.116964094,-0.022087097,1.345692,4000,0,0.98134875,-0.99609023,-8.286947,4000
10025858,-0.067766346,-0.20777166,1.2514356,4003,0,0.6257609,0.9105421,-8.083842,4003
10029899,0.03632783,-0.16011587,1.3294274,4041,0,-2.5106592,-1.0145665,-14.985563,4041
10033933,-0.25618786,-0.011973804,1.3062706,4034,0,0.4942691,1.4024992,-8.818166,4034
10037857,0.07194139,-0.1451088,1.3230033,3924,0,0.04610359,0.788293,-9.455208,3924
10041855,-0.04594758,0.0072363243,1.4214474,3998,0,-0.3767259,-1.9727213,-12.190764,3998
10045858,-0.18154228,0.00857098,1.396218,4003,0,-0.6874206,2.8854973,-9.320125,4003
10049884,0.12840179,-0.05469833,1.4299537,4026,0,-1.2882296,0.8230407,-12.00592,4026
10053855,-0.009165946,0.113697045,1.4547833,3971,0,1.013608,-3.145687,-9.719072,3971
10057855,-0.06716811,0.10163807,1.3804129,4000,0,-0.8214485,1.9948431,-9.1767845,4000
10061866,0.021035034,0.10335548,1.3736604,4011,0,-1.4468206,0.32881972,-10.23796,4011
10065857,0.0073388354,0.043272126,1.2925931,3991,0,1.1591262,-1.7349406,-11.845686,3991
10069858,-0.012707066,0.23577745,1.2942965,4001,0,-0.19963856,0.8763996,-9.240225,4001
10073862,0.035558157,0.17535588,1.3053862,4004,0,-0.9166879,1.0014819,-8.324823,4004
10077855,0.008522633,-0.049050428,1.2678483,3993,0,-0.6562346,-2.0125961,-13.180997,3993
10081864,-0.15487313,0.27012417,1.3244598,4009,0,-0.42175743,2.0288823,-10.391674,4009
10085910,0.04424272,0.09718658,1.3704623,4046,0,1.6281224,0.14695472,-6.3055806,4046
10089874,0.07667892,-0.02304349,1.3618808,3964,0,-2.4347167,-1.5023003,-12.335845,3964
10093855,-0.21371661,0.23774987,1.3983364,3981,0,1.1941477,2.183528,-8.28422,3981
10097855,0.132115,-0.03249769,1.366432,4000,0,1.015483,-1.0040957,-9.727514,4000
10101857,-0.077941425,-0.061109405,1.2955784,4002,0,-3.7869742,-1.8105569,-14.1739645,4002
10105855,-0.1856754,0.20263322,1.3134161,3998,0,2.8657498,2.512298,-4.9285316,3998
10109855,0.19055237,-0.16670027,1.2297423,4000,0,-0.1016142,-2.0729508,-9.015122,4000
10113944,-0.0840053,0.01912993,1.1740652,4089,0,-2.0417678,-1.3607035,-14.9980135,4089
10117855,-0.18728667,0.05518922,1.1863835,3911,0,2.0298193,4.058084,-5.806611,3911
10121855,0.23476045,-0.16976756,1.2081734,4000,0,-1.6861265,-2.2249823,-10.657004,4000
10125865,-0.16758975,0.09106835,1.231551,4010,0,-1.1238048,-0.30130208,-12.143816,4010
10129855,-0.04333652,-0.06122034,1.2737263,3990,0,1.9435825,3.841331,-7.660243,3990
10133887,0.25561875,-0.14597064,1.2898836,4032,0,-2.0332804,-2.8374689,-13.048974,4032
10137907,-0.25655752,0.1898972,1.2977909,4020,0,1.1178693,-0.061889194,-8.115876,4020
10141857,0.18066041,-0.066328086,1.281612,3950,0,-0.09081329,2.0364752,-9.819053,3950
10145855,0.13243043,-0.059435483,1.2037528,3998,0,-2.1857007,-3.0912125,-13.638991,3998
10149858,-0.27311108,0.19895415,1.1799734,4003,0,1.2962939,0.8608134,-6.577633,4003
10153864,0.20214483,-0.024270337,1.1632837,4006,0,0.20198959,0.83867794,-9.098976,4006
10157855,-0.022122424,0.035722323,1.0792394,3991,0,-1.6402167,-3.0358603,-14.366763,3991
10161864,-0.2854973,0.16702345,1.064078,4009,0,1.1772287,3.0188012,-6.8705435,4009
10165866,0.27386454,-0.021124648,1.1110641,4002,0,-0.011331299,-1.0413624,-8.455918,4002
10169855,-0.124599285,0.05172323,1.1089765,3989,0,-0.5966794,-2.2011695,-13.272715,3989
10173864,-0.288772,0.11251421,1.1195608,4009,0,1.435506,4.1422415,-7.7173285,4009
10177855,0.2496314,-0.047639403,1.174369,3991,0,-2.9667,-1.5243429,-12.501254,3991
10181855,-0.28217036,0.13917817,1.1569831,4000,0,0.32817364,-2.1239862,-9.017321,4000
10185855,-0.15362924,0.08188172,1.1304251,4000,0,2.7107468,3.3497887,-7.435483,4000
10189903,0.10566454,-0.042972,1.0910324,4048,0,-3.1884363,-2.8989942,-13.527491,4048
10193864,-0.26614892,0.12176245,1.0154512,3961,0,-0.72506416,-0.123314224,-10.015523,3961
10197889,0.03513208,-0.0064772917,0.98774976,4025,0,1.5983357,1.9694438,-7.115261,4025
10201856,0.0058860225,-0.015199282,0.9446269,3967,0,1.1447321,-4.747003,-11.29449,3967
10205855,-0.36774805,0.10309909,0.921484,3999,0,-1.882265,2.812511,-11.030855,3999
10209859,0.02445669,-0.11383739,0.9418406,4004,0,-1.6750917,2.6082199,-8.701533,4004
10213857,-0.043157123,-0.059290722,0.99553436,3998,0,2.4504147,-4.8166914,-9.544202,3998
10217946,-0.33525163,0.065811016,0.9995405,4089,0,1.7040304,3.1949959,-9.123782,4089
10221855,0.15416496,-0.18109271,1.0209754,3909,0,-2.3690238,1.4975256,-10.711069,3909
10225857,-0.10639124,-0.061729677,1.0507903,4002,0,-1.5698692,-3.2406678,-12.181479,4002
10229855,-0.28154975,0.016099991,0.9773356,3998,0,2.902741,2.5281854,-6.653705,3998
10233858,0.25030738,-0.19073215,0.9694568,4003,0,-0.4562668,-1.1874801,-11.028643,4003
10237863,-0.15639493,-0.015233914,0.9207558,4005,0,-2.5020819,-1.8518916,-12.642658,4005
10241907,-0.106510155,-0.03991871,0.81867,4044,0,1.1720699,3.5773523,-7.0047693,4044
10245855,0.28642976,-0.20002377,0.8295718,3948,0,-0.10415124,-2.9989495,-12.902505,3948
10249855,-0.21338247,0.09862945,0.8187334,4000,0,0.10644722,-0.19241041,-10.930695,4000
10253864,0.049294177,-0.08372674,0.7878553,4009,0,-0.0077357134,3.251937,-5.920669,4009
10257855,0.16255002,-0.17822836,0.84418213,3991,0,-2.4107873,-2.190414,-13.579501,3991
10261858,-0.23620272,0.10561696,0.8735863,4003,0,2.8334844,0.5104876,-8.883225,4003
10265857,0.16708525,-0.14532052,0.84849143,3999,0,0.8265289,0.5078428,-8.280536,3999
10269879,0.008576777,-0.09716318,0.89184266,4022,0,-4.6535897,-0.7804366,-14.989328,4022
10273855,-0.17540407,0.03280436,0.8283881,3976,0,0.50952333,2.3340843,-8.51136,3976
10277857,0.23501824,-0.20979635,0.7718489,4002,0,3.5258632,-3.3810651,-7.1827836,4002
10281890,-0.09113681,0.018540956,0.75728923,4033,0,-0.8176776,-1.0474677,-11.736837,4033
10285855,-0.13114175,-0.12199186,0.6439866,3965,0,-1.4905198,3.8447871,-9.367589,3965
10289855,0.111820884,-0.28618947,0.6209358,4000,0,0.4563406,-3.2244525,-10.957947,4000
10293907,-0.19707653,0.060599737,0.67759746,4052,0,0.8028691,0.7919642,-9.1951065,4052
10297861,-0.021645524,-0.22568068,0.6477818,3954,0,-0.8561737,0.8320654,-9.3869705,3954
10301866,-0.109605774,-0.20690468,0.6762584,4005,0,-1.6245335,-1.767112,-12.524536,4005
10305855,-0.2508121,0.014568987,0.72997236,3989,0,1.1963705,2.607367,-8.494489,3989
10309857,0.0056576184,-0.2508006,0.70688164,4002,0,0.734015,-2.142689,-9.642371,4002
10313857,-0.17301573,-0.026874674,0.6909268,4000,0,-1.6497741,0.5278279,-11.782403,4000
10317855,-0.061877858,-0.076049864,0.6732113,3998,0,-1.2642137,2.5672934,-7.122252,3998
10321903,-0.07448665,-0.2132567,0.6081423,4048,0,1.0242655,-4.8595395,-9.811624,4048
10325855,-0.17454472,0.08228254,0.56343096,3952,0,-0.44138733,1.9457322,-11.968751,3952
10329855,0.022233583,-0.062188298,0.5365603,4000,0,-0.5317094,0.6096247,-8.401746,4000
10333866,-0.1196683,-0.1292212,0.47649556,4011,0,-1.094262,-2.1974018,-11.513816,4011
10337863,-0.13455041,0.16812183,0.4808277,3997,0,0.9523238,3.0571103,-8.357089,3997
10341855,0.068103395,-0.042974893,0.505555,3992,0,0.9604302,-1.9523648,-8.498607,3992
10345912,-0.14333664,0.023214594,0.5128917,4057,0,-3.0973704,1.0955806,-13.200816,4057
10349873,-0.00722512,0.116967894,0.52271974,3961,0,0.1842093,2.841872,-7.1847396,3961
10353857,0.060982358,-0.088731065,0.583538,3984,0,3.4688394,-4.1061196,-8.524998,3984
10357855,-0.13422972,0.112554386,0.5312451,3998,0,-1.3039423,1.6080765,-12.47097,3998
10361855,0.15500887,-0.02312111,0.48394346,4000,0,-1.9036905,2.3966386,-8.51371,4000
10365889,0.06491181,-0.08854615,0.4786504,4034,0,0.93576115,-3.6588836,-9.91866,4034
10369855,-0.045145743,0.083971165,0.38575846,3966,0,0.53969526,2.1201656,-8.947513,3966
10373866,0.2591299,-0.11683998,0.3508817,4011,0,0.51492673,-0.9797754,-8.952947,4011
10377855,-0.002286791,-0.029176258,0.33976302,3989,0,-1.1172326,-0.87512976,-11.566584,3989
10381863,0.007434272,-0.052535836,0.26428023,4008,0,-0.19054401,2.411118,-6.942004,4008
10385866,0.19074702,-0.2135584,0.27702218,4003,0,1.9400038,-3.3097115,-9.364835,4003
10389855,-0.050197624,-0.029793322,0.30496636,3989,0,0.3073383,1.2556161,-11.400975,3989
10393855,0.11922819,-0.253169,0.2769449,4000,0,-1.3329216,1.4033846,-8.691861,4000
10397903,0.06133141,-0.27990487,0.29266465,4048,0,-0.88656855,-1.9175433,-10.534773,4048
10401855,-0.10634065,-0.07740122,0.29325646,3952,0,2.098864,1.0202458,-7.068549,3952
10405865,0.119741075,-0.3766354,0.24431172,4010,0,0.40993503,-1.6565988,-9.58931,4010
10409868,-0.050546754,-0.25512317,0.1725724,4003,0,-2.3863983,0.30960447,-12.162872,4003
10413863,-0.010658239,-0.21056606,0.13983205,3995,0,0.8722145,0.6117094,-6.6499314,3995
10417861,0.06781543,-0.41414398,0.11581211,3998,0,1.5270177,-3.6158552,-10.391883,3998
10421855,-0.09574357,-0.21437664,-0.007310311,3994,0,-1.1021365,1.5665648,-11.250358,3994
10425874,-0.048634708,-0.32741374,0.023333551,4019,0,1.1409997,0.054723125,-6.470652,4019
10429855,-0.014351771,-0.3800311,0.0024273924,3981,0,-1.2000813,-1.1019408,-11.760879,3981
10433865,-0.045861732,-0.25244856,-0.03724623,4010,0,-1.1316175,1.9705409,-9.316715,4010
10437855,0.00810072,-0.3580287,0.054422736,3990,0,2.671925,-1.5541981,-7.192547,3990
10441855,-0.0783337,-0.3183268,0.005211317,4000,0,-0.7330333,1.0078782,-12.008051,4000
10445855,-0.007907632,-0.34048784,-0.015823064,4000,0,-0.9532227,0.6133174,-8.2317505,4000
10449954,0.05122191,-0.3448175,0.00957315,4099,0,0.42760912,-1.6875352,-9.886885,4099
10453867,-0.035327896,-0.31697306,-0.10157874,3913,0,-0.6051921,0.9566721,-9.635406,3913
10457855,0.10863369,-0.4078906,-0.1274101,3988,0,0.59793013,-1.27294,-9.415834,3988
10462655,-0.00322638,-0.22340076,-0.20637558,4800,0,-0.20858544,-0.17689228,-10.2187805,4800
10466702,0.0014804193,-0.32349363,-0.2240837,4047,0,1.4826628,0.1332215,-8.669433,4047
10470703,0.13095899,-0.3050759,-0.2502473,4001,0,-1.4981086,-0.7963214,-13.396905,4001
10474655,-0.08652718,-0.14302297,-0.2548035,3952,0,-1.1268915,1.9665786,-7.7325215,3952
10478655,0.07216858,-0.31445643,-0.17883725,4000,0,1.3492852,-0.7037253,-8.785682,4000
10482699,0.048557896,-0.16630018,-0.21805617,4044,0,-1.518776,-0.0045554047,-12.675912,4044
10486668,-0.10123115,-0.13406555,-0.16752696,3969,0,1.5928345,0.65730786,-6.2058187,3969
10490658,0.10546971,-0.26871836,-0.17971966,3990,0,-0.20678934,-0.41653454,-11.521437,3990
10494672,0.011167069,-0.15889445,-0.2580799,4014,0,-1.7307401,-0.61149496,-10.504212,4014
10498666,-0.0022780849,-0.19645058,-0.2534883,3994,0,1.2148519,-0.5207033,-7.2823424,3994
10502655,-0.0069339075,-0.23998103,-0.3602051,3989,0,-0.080018744,-0.49843657,-11.008597,3989
10506657,-0.042830102,-0.21497871,-0.382721,4002,0,0.29390967,0.065892965,-9.071591,4002
10510711,0.065996885,-0.239149,-0.3899577,4054,0,-0.3192366,-0.7365765,-9.510416,4054
10514668,-0.14303905,-0.25300968,-0.43155733,3957,0,-0.16940708,1.0752133,-8.76774,3957
10518664,0.028403047,-0.36365718,-0.33887446,3996,0,0.3296324,0.52084774,-10.15214,3996
10522716,0.04797235,-0.27956057,-0.36092535,4052,0,-1.2399472,-1.6441002,-11.21979,4052
10526657,-0.19678044,-0.30068132,-0.33085155,3941,0,2.0730639,2.1809268,-7.5329423,3941
10530655,0.1840793,-0.40385067,-0.27920097,3998,0,-0.7714591,-0.3417192,-11.341134,3998
10534657,-0.04854108,-0.24242285,-0.34719363,4002,0,-1.3090336,-1.4620992,-10.098695,4002
10578655,-0.12691605,-0.37212896,-0.40851748,3941,0,0.51084125,-0.36248285,-9.842612,3941
10582657,-0.027977245,-0.23350441,-0.4134699,4002,0,-1.5404265,0.32538798,-10.29608,4002
10586655,-0.2130743,-0.3539636,-0.5335039,3998,0,1.5573343,-1.893585,-7.910494,3998
10590683,-0.09540435,-0.34422573,-0.5257547,4028,0,-1.3896934,2.0685043,-10.990566,4028
10594701,-0.020557657,-0.23985809,-0.56646883,4018,0,-1.1174102,-2.7302735,-9.225138,4018
10598655,-0.328846,-0.33511573,-0.6239238,3954,0,2.054287,0.32058215,-8.213592,3954
10602666,-0.07993869,-0.3271741,-0.5684038,4011,0,-0.23349272,2.3097792,-9.6929655,4011
10606655,-0.07926471,-0.29609,-0.5556062,3989,0,-1.5794129,-2.5742226,-11.038064,3989
10610657,-0.3198399,-0.28384078,-0.5193679,4002,0,1.2943585,2.002397,-9.007101,4002
10614655,0.088335074,-0.33559492,-0.48883513,3998,0,-0.49323985,1.407278,-9.3020525,3998
10618662,-0.110754944,-0.3217254,-0.4559138,4007,0,-0.75539386,-3.7798018,-12.080163,4007
10622699,-0.33500355,-0.17751649,-0.48776057,4037,0,1.9433514,3.018908,-7.8533244,4037
10626712,0.28298372,-0.39699695,-0.51036376,4013,0,-2.3579392,0.9097986,-9.7462015,4013
10630670,-0.113362215,-0.23792323,-0.52880764,3958,0,-0.7954967,-4.1659994,-11.651289,3958
10634724,-0.2727563,-0.17081015,-0.60463804,4054,0,2.7109716,4.1222706,-6.186111,4054
10638655,0.30073777,-0.41024166,-0.61440426,3931,0,-0.5877657,-2.910133,-11.023327,3931
10642655,-0.16609418,-0.12436713,-0.6006965,4000,0,-2.0889196,-1.0071756,-11.529996,4000
10646694,-0.04335688,-0.28535378,-0.6427246,4039,0,1.1982001,4.8170505,-5.938372,4039
10650702,0.21658868,-0.44545642,-0.5867597,4008,0,0.39288318,-4.2058296,-10.920344,4008
10654690,-0.21836685,-0.061942745,-0.52976084,3988,0,-0.17774881,1.0955921,-9.862569,3988
10658655,0.10857846,-0.3951841,-0.5565536,3965,0,0.84743524,2.903361,-6.559551,3965
10662667,0.21331571,-0.5084252,-0.5025487,4012,0,-2.6453662,-1.9119308,-13.326102,4012
10666655,-0.17477219,-0.14895396,-0.51515275,3988,0,1.8173461,0.2763569,-6.684037,3988
10670655,0.15257011,-0.52630967,-0.54572093,4000,0,2.948184,-0.34219882,-6.514727,4000
10674743,0.15902898,-0.5124381,-0.5415367,4088,0,-4.4025254,-0.905313,-16.426458,4088
10678754,-0.1512053,-0.37815312,-0.6483024,4011,0,0.2190931,2.5265434,-5.7203336,4011
10682658,0.2454034,-0.6808203,-0.6124279,3904,0,3.6547985,-2.5208516,-5.8933873,3904
10686661,0.07500397,-0.4946361,-0.60032916,4003,0,-2.1629372,-0.88773465,-15.077447,4003
10690655,-0.1920432,-0.561904,-0.66134787,3994,0,-0.9580634,3.281602,-6.3477993,3994
10694657,0.17799726,-0.7663785,-0.56984377,4002,0,0.74156916,-1.0876071,-8.606067,4002
10698655,-0.05855864,-0.46951297,-0.5217924,3998,0,0.59756124,-1.5084499,-10.921145,3998
10706694,0.08851421,-0.79480904,-0.49248663,4039,0,-3.189925,0.57693243,-12.047876,4039
10710664,-0.12425372,-0.5034691,-0.5220606,3970,0,1.4085126,-2.6963317,-8.06691,3970
10714662,-0.18178791,-0.7498356,-0.5598669,3998,0,1.9784944,0.7486581,-7.4859176,3998
10718701,-0.016074903,-0.68278575,-0.5612447,4039,0,-3.4560673,-0.20407115,-13.643217,4039
10722655,-0.27551174,-0.5590877,-0.67913604,3954,0,-0.12018613,-0.82350004,-8.233582,3954
10726661,-0.059513785,-0.69735193,-0.65476495,4006,0,1.5770644,0.27369273,-8.600493,4006
10730707,-0.15045837,-0.5313707,-0.6364214,4046,0,-0.6936068,-0.9581373,-11.064956,4046
10734698,-0.38074356,-0.6346582,-0.68651414,3991,0,-1.2796055,1.7060729,-9.812588,3991
10738668,0.024462014,-0.6018211,-0.57590425,3970,0,-0.6747554,-0.32180947,-11.714223,3970
10742661,-0.20529954,-0.38473624,-0.54219407,3993,0,0.8452245,0.18151373,-8.758598,3993
10746663,-0.2577762,-0.619235,-0.5525754,4002,0,0.17362742,0.98446804,-8.21868,4002
10750655,-0.048851624,-0.46821505,-0.47075453,3992,0,-1.7031966,0.049844876,-14.496798,3992
10754663,-0.17028181,-0.349694,-0.5340092,4008,0,-0.052720178,-0.33239108,-9.404949,4008
10758669,-0.020013634,-0.5558808,-0.5836017,4006,0,0.567208,0.6273816,-8.840821,4006
10762699,-0.05633551,-0.2869293,-0.55173886,4030,0,-0.7489768,-1.4344702,-11.250916,4030
10766658,-0.15952435,-0.3480044,-0.7006061,3959,0,-0.5743567,0.76557034,-10.015081,3959
10770658,0.12371813,-0.46594837,-0.65911883,4000,0,-0.28869724,0.25869316,-12.406836,4000
10774655,-0.08821527,-0.124991946,-0.6209911,3997,0,0.298904,-0.57642287,-9.484077,3997
10778655,-0.16179675,-0.35003915,-0.64806396,4000,0,-0.5576881,1.929672,-7.769962,4000
10782712,0.11622093,-0.29461327,-0.5237673,4057,0,-0.68359876,-0.57064426,-15.08949,4057
10786655,-0.101305924,-0.042321734,-0.5225092,3943,0,0.5034608,0.62955046,-10.020041,3943
10790711,0.025547259,-0.33310002,-0.50613654,4056,0,-0.6045118,1.1853929,-8.38848,4056
10794655,-0.010790233,-0.09522235,-0.40564817,3944,0,-0.97912294,-1.676467,-13.058856,3944
10798657,-0.13305953,-0.057020243,-0.5550154,4002,0,0.3271699,1.050107,-8.882935,4002
10802698,0.14187834,-0.26103863,-0.5264204,4041,0,0.49588692,-0.54111636,-14.053986,4041
10806655,-0.1680807,0.06621692,-0.57154554,3957,0,-0.27517697,-1.5358088,-10.914106,3957
10810684,-0.06288271,-0.119188875,-0.65910304,4029,0,-2.295906,2.0157773,-7.725177,4029
10814657,0.070800334,-0.08432847,-0.58024937,3973,0,0.9461256,-2.2358913,-12.959432,3973
10818707,-0.17484106,0.04924255,-0.66242874,4050,0,0.2527348,1.0668103,-10.997396,4050
10822672,0.015555101,-0.105754755,-0.59122074,3965,0,-1.2761614,1.7450967,-11.426858,3965
10826657,-0.11893914,0.065094054,-0.48500717,3985,0,0.13981149,-1.6224968,-10.728402,3985
10842655,-0.044572346,0.102776475,-0.5168501,4000,0,-2.1577835,1.2881318,-11.551946,4000
10846699,-0.008988308,0.14739445,-0.49803048,4044,0,1.4234897,-2.540235,-9.785215,4044
10850655,-0.024075514,0.11195581,-0.63307154,3956,0,-1.5002311,1.1711977,-12.974036,3956
10854661,-0.11258156,0.19891894,-0.6407014,4006,0,1.3041228,0.29811108,-9.993088,4006
10858657,-0.060161352,0.13808614,-0.64705014,3996,0,-0.9965121,-0.95055985,-11.5154505,3996
10862665,-0.02884357,0.27664006,-0.65582234,4008,0,-2.5037653,2.1895585,-13.078277,4008
10866655,-0.05896837,0.23861192,-0.5635765,3990,0,2.8937914,-0.6548143,-7.8453126,3990
10870657,0.03842558,0.20314045,-0.5532055,4002,0,-2.0115588,0.68338186,-14.092132,4002
10874705,-0.19421077,0.40555304,-0.49960852,4048,0,1.4739034,0.6758678,-9.760431,4048
10878655,0.060002,0.18782963,-0.44852,3950,0,-1.3939161,-0.21198721,-12.352294,3950
10882655,-0.02422554,0.38549381,-0.5059998,4000,0,-2.5311508,0.15324244,-14.768261,4000
10886755,-0.07708515,0.31862697,-0.51143533,4100,0,3.1269636,-0.15637678,-8.040325,4100
10890657,0.14097221,0.24586003,-0.5680422,3902,0,-2.1864429,-1.7752714,-15.223714,3902
10894670,-0.17527157,0.54045326,-0.67184824,4013,0,0.73190504,1.5860299,-9.486538,4013
10898664,0.17454407,0.24423365,-0.6580389,3994,0,-0.83194596,-0.5129076,-9.981998,3994
10902702,-0.033381514,0.47674716,-0.71012753,4038,0,-2.7461894,0.13769574,-15.075049,4038
10906674,-0.1902708,0.4599573,-0.655278,3972,0,3.6879365,0.52261853,-6.9865623,3972
10910666,0.21041942,0.31242967,-0.57389516,3992,0,-2.6169536,-0.6704391,-17.570923,3992
10914666,-0.24566317,0.7018234,-0.57644063,4000,0,0.3821821,2.341048,-10.037866,4000
10918660,0.19794379,0.28854322,-0.48597336,3994,0,-1.0927255,0.56968564,-9.485284,3994
10922655,0.016870955,0.5487772,-0.49316248,3995,0,-1.5889162,-1.3628403,-17.868685,3995
10926655,-0.13926826,0.5635866,-0.54211265,4000,0,3.5794346,0.37694287,-6.6111646,4000
10930699,0.26898313,0.3692377,-0.5356848,4044,0,-3.4206092,-1.0431824,-15.28402,4044
10934655,-0.19019929,0.7285484,-0.66955096,3956,0,0.95839286,0.9088259,-10.399873,3956
10938706,0.1260917,0.35765964,-0.629883,4051,0,-0.32873613,-0.658538,-10.046355,4051
10942655,-0.015784256,0.59025306,-0.7054911,3949,0,-0.5673721,-1.6364901,-16.133724,3949
10946655,-0.1589039,0.5964937,-0.71686685,4000,0,1.0961378,2.1576607,-6.5740843,4000
10950663,0.23516865,0.35401866,-0.63655835,4008,0,-2.0972788,-0.8127903,-16.630999,4008
10954655,-0.26760846,0.72944283,-0.6961876,3992,0,0.7989278,1.4509616,-10.199655,3992
10958699,0.09468215,0.36537358,-0.5400414,4044,0,-0.90073454,0.14823116,-10.472412,4044
10962659,-0.098728225,0.57696635,-0.58291423,3960,0,-0.0034386183,-1.6836603,-15.012843,3960
10966668,-0.22494467,0.55682373,-0.5542996,4009,0,0.54605,2.6797104,-7.9949493,4009
10970727,0.15560839,0.39718527,-0.5053568,4059,0,-0.62621707,-2.55391,-15.79836,4059
10974655,-0.31735453,0.6654774,-0.6698922,3928,0,0.15111941,0.79323936,-10.534687,3928
10978657,0.03653432,0.39801052,-0.5617163,4002,0,-1.809392,0.5360415,-11.185858,4002
10982670,-0.16090672,0.5497757,-0.72749674,4013,0,1.4032576,-2.7950978,-13.563028,4013
10986699,-0.19958179,0.5294502,-0.67132217,4029,0,-1.0175511,2.3145351,-10.605674,4029
10990715,0.016193023,0.47604996,-0.6731925,4016,0,0.9016613,-1.8420107,-13.418761,4016
10994655,-0.27750713,0.56476134,-0.73475736,3940,0,-1.5725813,2.5018265,-11.48606,3940
10998655,-0.027890146,0.47511768,-0.5663975,4000,0,-0.77004707,0.02019875,-11.421187,4000
11002657,-0.19535935,0.52657145,-0.651124,4002,0,1.0260124,-1.1622219,-11.653868,4002
11006657,-0.102297485,0.4892027,-0.5008948,4000,0,-1.0251226,2.7029321,-12.67333,4000
11010659,-0.021431958,0.5128944,-0.54212284,4002,0,1.5762633,-2.2860959,-11.841354,4002
11014705,-0.111142054,0.49197966,-0.57446706,4046,0,-1.8011535,2.5180442,-13.4139805,4046
11018666,0.030519066,0.5204051,-0.52736014,3961,0,-1.6305212,-1.5975997,-11.3485365,3961
11022655,-0.0947049,0.5002246,-0.69368017,3989,0,1.6910882,-0.39398518,-10.461036,3989
11026655,0.05635462,0.536697,-0.60837007,4000,0,-1.2918699,0.31413633,-13.522212,4000
11030655,-0.03078648,0.5903433,-0.7437879,4000,0,2.4608858,-1.9275928,-10.544801,4000
11034665,0.015093041,0.5054934,-0.7051694,4010,0,-3.4513974,2.9411812,-13.936934,4010
11038655,-0.03840176,0.6007914,-0.64691347,3990,0,-0.9788923,-1.3442867,-11.644919,3990
11042756,-0.051873766,0.5510711,-0.67001855,4101,0,0.8894139,0.9913983,-12.015347,4101
11046655,0.008542108,0.6123025,-0.50991476,3899,0,-0.7625752,-0.1289904,-12.857582,3899
11050657,-0.066404805,0.628201,-0.60915494,4002,0,2.418029,-0.49911743,-9.176089,4002
11054689,0.032916464,0.58643234,-0.5055493,4032,0,-3.58119,1.6258723,-16.002256,4032
11058655,-0.16307351,0.6833903,-0.57911533,3966,0,0.5198196,-1.738515,-10.529203,3966
11062655,0.08183294,0.5145231,-0.5961033,4000,0,-1.1989194,0.71045434,-13.31812,4000
11066657,-0.097298615,0.7136264,-0.62940717,4002,0,0.42928615,-1.7430545,-10.69579,4002
11070684,-0.03366413,0.5581696,-0.7271908,4027,0,2.6613588,0.6051432,-10.36334,4027
11074670,-0.011285301,0.5893046,-0.6804309,3986,0,-3.3278687,-0.82646036,-16.050179,3986
11079455,-0.20809107,0.6074919,-0.73697615,4785,0,1.788361,1.1686764,-7.160608,4785
11083469,0.11208754,0.4467001,-0.63876057,4014,0,-2.6040058,0.116182566,-15.379403,4014
11087455,-0.37786487,0.6490308,-0.65019554,3986,0,0.9624311,0.47136816,-9.36366,3986
11091486,0.08654318,0.33553645,-0.56393623,4031,0,-0.87914455,1.2390717,-13.410265,4031
11096255,-0.22114246,0.5855701,-0.5848296,4769,0,-0.29581404,-1.049296,-11.172738,4769
11100257,0.026279833,0.315219,-0.5318923,4002,0,-0.12374916,2.6661417,-11.46855,4002
11104257,0.02119076,0.45041633,-0.58362174,4000,0,-0.3362421,-5.025342,-14.554696,4000
11108274,-0.35649377,0.46775466,-0.6826514,4017,0,0.8907202,3.4396558,-9.295839,4017
11112272,0.2622341,0.29917875,-0.6251638,3998,0,-1.4725484,-1.611004,-14.725886,3998
11116264,-0.31701887,0.5142726,-0.76849866,3992,0,0.6710255,-1.3724167,-9.354815,3992
11120257,0.046698797,0.29753542,-0.64051354,3993,0,-1.7208623,4.264535,-11.962847,3993
11124257,-0.063729614,0.41001782,-0.6994664,4000,0,-0.17422564,-4.887866,-11.657216,4000
11128257,-0.23550507,0.3439488,-0.6382252,4000,0,0.054089557,5.133994,-12.363433,4000
11132269,0.20361418,0.3554105,-0.5587347,4012,0,0.4787893,-3.1548653,-12.333936,4012
11136314,-0.2534853,0.39189565,-0.6344886,4045,0,0.64245844,1.4254179,-10.685818,4045
11140257,0.1554856,0.34524602,-0.48637354,3943,0,-2.6948328,2.2061658,-12.497221,3943
11144258,-0.09260106,0.3435844,-0.63423425,4001,0,1.2293413,-4.2409086,-9.259236,4001
11148255,-0.06471652,0.32012025,-0.5460148,3997,0,-1.408079,4.2157307,-13.9527445,3997
11152276,0.17839703,0.42681774,-0.66293055,4021,0,1.9930921,-4.4588404,-8.530314,4021
11156261,-0.1211879,0.24601963,-0.69827974,3985,0,-0.86401564,2.2941508,-14.606009,3985
11160257,0.13387191,0.38185674,-0.667069,3996,0,-2.4588716,0.8213922,-13.556026,3996
11164273,-0.08123983,0.27579716,-0.741534,4016,0,2.0916624,-2.8284562,-8.447794,4016
11168255,0.019418033,0.3131318,-0.62060344,3982,0,-1.8981371,3.6133761,-13.229132,3982
11172328,0.009672994,0.33804673,-0.69663924,4073,0,1.3657712,-3.1724272,-6.9790864,4073
11176257,-0.054146845,0.22593553,-0.58522844,3929,0,-0.4970429,3.1338327,-15.328355,3929
11180261,-0.012640018,0.35700157,-0.56517184,4004,0,-0.85352784,-0.32986233,-10.869613,4004
11184257,-0.04338855,0.14733893,-0.55538666,3996,0,0.33438593,-0.40936852,-12.265591,3996
11188309,-0.008876982,0.35285485,-0.49234822,4052,0,-1.9669769,0.7198214,-13.145699,4052
11192306,-0.019086989,0.20647353,-0.61052054,3997,0,1.9891897,-1.5712421,-6.3765755,3997
11196257,0.0044141496,0.17546828,-0.53150356,3951,0,-1.1064621,0.42041522,-15.259748,3951
11200260,-0.17354111,0.34490743,-0.68471265,4003,0,0.14430113,0.11699124,-6.9629316,4003
11204255,0.060432985,0.018040733,-0.5804057,3995,0,0.32018784,-0.05334352,-14.142175,3995
11208257,-0.054063525,0.3268035,-0.6423269,4002,0,-1.9778616,-0.1136299,-13.661674,4002
11212255,-0.102825396,0.073809,-0.58596355,3998,0,0.7963038,1.5859903,-7.9477515,3998
11216273,0.039895836,0.11104473,-0.46858984,4018,0,-1.4057977,-0.8822216,-13.626276,4018
11220255,-0.22601368,0.25962922,-0.54655266,3982,0,1.5202996,0.19792551,-6.6678753,3982
11224267,0.026583083,-0.0045570782,-0.3592868,4012,0,0.73207814,2.0012805,-12.939726,4012
11228255,-0.034785103,0.18242854,-0.48195136,3988,0,-2.5990202,-0.5127417,-12.646941,3988
11232265,-0.15698351,0.033817936,-0.37395316,4010,0,-0.43903735,1.9389582,-10.044494,4010
11236255,0.07146854,0.1080405,-0.3683435,3990,0,0.30250707,-1.4373238,-11.117837,3990
11240312,-0.015261659,0.059330232,-0.47193235,4057,0,1.8203332,-0.5997607,-9.989636,4057
11244255,-0.0879993,0.061668374,-0.37921062,3943,0,-1.6495878,1.7669712,-11.508039,3943
11248264,0.005576705,0.021561045,-0.5164896,4009,0,-1.152833,0.2239497,-7.620169,4009
11252263,0.009959459,0.016304253,-0.37528405,3999,0,1.586589,-1.5264665,-11.24346,3999
11256292,-0.12235888,0.033399794,-0.42089143,4029,0,-0.5312287,2.0008137,-10.527953,4029
11260258,0.10454003,-0.107752874,-0.35804874,3966,0,-0.2946463,0.29372144,-12.295395,3966
11264255,-0.15868035,0.039851774,-0.30354995,3997,0,-0.9410467,-0.9247146,-10.28963,3997
11268267,0.093015015,-0.054152384,-0.29195145,4012,0,0.68293047,3.256403,-9.253757,4012
11272278,0.06256622,-0.101719216,-0.19910182,4011,0,-1.1956505,-3.0413153,-11.282584,4011
11276269,-0.23657876,-0.01197489,-0.2982545,3991,0,1.6850985,2.152476,-7.2510133,3991
11280257,0.22974107,-0.09140197,-0.1878233,3988,0,0.277969,-0.42432094,-10.878666,3988
11284258,-0.15776439,-0.10978916,-0.29397592,4001,0,-1.4579514,-2.2871392,-10.561417,4001
11288255,-0.045352805,-0.10037252,-0.22238499,3997,0,-1.0614921,4.3355546,-11.143392,3997
11292316,0.084368184,-0.09305093,-0.26818648,4061,0,1.0132556,-4.03542,-8.39625,4061
11308258,-0.01290726,-0.09605401,-0.060683455,3998,0,-0.3377785,-0.58387595,-15.896297,3998
11312257,-0.23830757,0.08932862,-0.18338223,3999,0,-2.219283,2.8438725,-6.100883,3999
11316268,0.08425655,-0.36639318,-0.06977464,4011,0,0.3909133,-0.66497153,-11.392946,4011
11320277,-0.08672299,0.07996134,-0.048973758,4009,0,0.18144208,-2.4773817,-12.931407,4009
11324255,-0.0773081,-0.044857185,-0.12742652,3978,0,-0.7104037,4.031059,-5.919401,3978
11328257,0.059518095,-0.22907032,-0.023704717,4002,0,-0.8915538,-2.4001966,-10.604937,4002
11332261,-0.14271024,0.06245621,-0.13130651,4004,0,1.7035089,-0.18378416,-8.477407,4004
11336255,-0.012079731,-0.06771783,-0.041207336,3994,0,-0.817891,2.987533,-9.117738,3994
11340302,-0.04250958,-0.15215348,-0.07210183,4047,0,-0.84807837,-1.9363191,-9.221626,4047
11344316,-0.023254292,-0.020087631,0.023254788,4014,0,0.21326764,1.3290682,-12.52433,4014
11348262,-0.06493358,-0.012782773,0.035626348,3946,0,-1.4437131,1.080346,-7.7068524,3946
11352276,0.065891266,-0.2132232,0.046080988,4014,0,0.3628042,-0.3072934,-8.105048,4014
11356255,0.012164661,0.050199434,0.17610227,3979,0,-0.047200076,-1.3963488,-10.894711,3979
11360279,-0.11922843,-0.04985822,0.002293969,4024,0,1.1578274,2.4810305,-4.7143683,4024
11364258,0.20438729,-0.23913233,0.17599279,3979,0,-1.8358792,-0.76124495,-13.281237,3979
11368257,-0.117425926,0.059186514,0.074386075,3999,0,0.1828123,-1.2256507,-8.045806,3999
11372282,0.088788584,-0.18873917,0.06053972,4025,0,-0.014724059,2.1799417,-8.776422,4025
11376258,0.11342685,-0.12192126,0.11967886,3976,0,-1.2262201,-1.8624462,-9.957919,3976
11380257,-0.027332837,-0.13918932,0.035554316,3999,0,1.2051723,0.97038144,-5.666044,3999
11384257,0.14263943,-0.19369026,0.10697137,4000,0,-0.49282023,-0.03766357,-10.528608,4000
11388259,-0.075515226,-0.16004139,0.088036805,4002,0,0.38905248,-0.121001855,-7.6256456,4002
11392257,0.12378251,-0.26912132,0.18728365,3998,0,-0.93983984,1.7783092,-9.9577675,3998
11396309,0.03175662,-0.16760431,0.19427383,4052,0,0.26976693,-1.8604264,-7.916519,4052
11400307,0.005830875,-0.33354262,0.20748138,3998,0,0.17397222,2.6210215,-7.6513653,3998
11404257,0.14505567,-0.23823637,0.33250156,3950,0,-1.0034728,-1.7152008,-10.63782,3950
11408257,-0.09482527,-0.26039368,0.15409738,4000,0,2.1648855,-0.41545725,-6.063137,4000
11412263,0.13804708,-0.40276256,0.27084437,4006,0,-2.5133948,1.8567619,-11.456404,4006
11416259,0.0044470057,-0.18401362,0.22209498,3996,0,0.12783174,-1.5816426,-7.0385265,3996
11420257,0.08635373,-0.4409312,0.16642806,3998,0,-0.46631557,1.112365,-8.927143,3998
11424324,0.03790926,-0.27009338,0.22832169,4067,0,-0.9895261,-1.2593648,-9.832023,4067
11428264,-0.030740483,-0.2649893,0.18539321,3940,0,1.772656,1.2654929,-4.7624116,3940
11432276,0.15083969,-0.43893656,0.25998023,4012,0,-2.0927756,0.54230595,-10.694335,4012
11436257,-0.09499356,-0.24363352,0.2442592,3981,0,0.30223987,-1.9035678,-8.185066,3981
11440257,0.043530393,-0.33190626,0.32677397,4000,0,0.30642778,3.2904675,-8.273368,4000
11444274,0.15117085,-0.3213442,0.381029,4017,0,-1.5179772,-1.3180665,-8.340469,4017
11448317,-0.06932463,-0.35954306,0.30738732,4043,0,1.8016287,-1.0348855,-6.866406,4043
11452276,0.07800889,-0.26702887,0.4284881,3959,0,-1.1037629,2.119196,-10.387736,3959
11456258,0.045587692,-0.30731404,0.29640123,3982,0,0.119190514,-1.715452,-6.3401203,3982
11460255,0.12436591,-0.44845,0.30505213,3997,0,-0.6195457,0.25019255,-10.9307785,3997
11464260,0.032335814,-0.13433842,0.33838084,4005,0,-0.2717585,-0.22845694,-6.933288,4005
11468255,0.08699187,-0.40118706,0.24640082,3995,0,1.2285388,0.92420757,-5.0287604,3995
11472267,0.13368659,-0.38295108,0.3290102,4012,0,-1.6635435,-0.9746263,-11.850307,4012
11476273,-0.11087948,-0.19666566,0.29871202,4006,0,0.37564176,0.51094514,-6.182565,4006
11480258,0.19346555,-0.44379166,0.37527534,3985,0,-0.08473456,2.4259424,-8.409363,3985
11484257,0.13343108,-0.3168144,0.43778515,3999,0,-1.2082939,-2.220678,-7.9966235,3999
11488257,-0.07876456,-0.32318887,0.39902464,4000,0,1.3299078,0.6008537,-5.626255,4000
11492263,0.16269568,-0.4099183,0.49273464,4006,0,-0.84966826,1.9582244,-9.921657,4006
11496261,0.028572371,-0.46153864,0.39786607,3998,0,0.27583456,-2.8845472,-6.9337635,3998
11500319,0.060334127,-0.4325264,0.46380422,4058,0,-0.49773657,1.1147393,-9.963606,4058
11504255,0.08702306,-0.37682983,0.43741375,3936,0,-0.4651779,0.9010864,-5.7559185,3936
11508302,0.069806986,-0.6931447,0.36757267,4047,0,1.5574889,-1.4036497,-6.0101066,4047
11512272,0.048805147,-0.50868964,0.4751453,3970,0,-0.5802028,-0.0028949138,-11.210449,3970
11516258,-0.06622448,-0.56090474,0.35604146,3986,0,0.5484109,0.78985673,-4.9787655,3986
11520259,0.16087252,-0.8207336,0.4573859,4001,0,0.16781434,1.2717149,-9.278129,4001
11524255,0.03338871,-0.59831476,0.53938645,3996,0,-0.51046693,-0.79034895,-7.4237976,3996
11528294,-0.027645249,-0.8164429,0.46458983,4039,0,1.8091402,0.49827284,-5.583769,4039
11533057,0.079290345,-0.83112127,0.602616,4763,0,-0.27860716,0.7103351,-9.995225,4763
11537869,0.024656907,-0.8876663,0.5415413,4812,0,0.39192364,0.33892933,-5.3658304,4812
11553863,0.1244522,-0.9730094,0.5398793,4008,0,-0.85571694,-1.8647593,-8.570323,4008
11557857,-0.026134208,-1.0908568,0.4630089,3994,0,0.6905105,0.8622516,-5.4060764,3994
11561866,0.14664204,-0.99690175,0.5984318,4009,0,0.8916888,0.9985637,-9.876866,4009
11565858,0.0011973749,-1.0891598,0.51861113,3992,0,-1.238746,-0.18021066,-8.463263,3992
11569866,0.1025442,-1.122589,0.57779646,4008,0,-0.8060155,0.3548788,-10.820856,4008
11573865,0.103696674,-0.82753754,0.6961735,3999,0,0.51444656,1.3651803,-6.052382,3999
11577855,0.16097464,-1.1312425,0.57101876,3990,0,-0.044637557,-0.5960606,-5.517266,3990
11581858,0.10314448,-0.96707684,0.68771344,4003,0,-0.37979928,-0.9774512,-13.537548,4003
11585855,-0.01974023,-0.7731897,0.6470782,3997,0,0.38257065,1.4057504,-6.4119163,3997
11589855,0.28041503,-1.042685,0.62282723,4000,0,-2.816806,0.63960385,-10.243213,4000
11593938,0.12978947,-0.69629264,0.67982936,4083,0,-0.62375486,-2.6470969,-10.204152,4083
11597855,0.049021162,-0.71030086,0.6176453,3917,0,1.8739464,2.7257826,-4.4408746,3917
11601855,0.31968778,-0.8167971,0.68747276,4000,0,-2.6683674,0.21792047,-11.942711,4000
11605855,0.0482738,-0.5668589,0.63008595,4000,0,1.0230048,-2.2597044,-9.6161,4000
11609855,0.1576513,-0.5608879,0.7227475,4000,0,-1.4657451,4.075467,-9.068241,4000
11613858,0.26496503,-0.5226299,0.79916304,4003,0,-2.4014072,-0.82768846,-8.231174,4003
11617855,0.13290477,-0.51400083,0.7196118,3997,0,3.1636834,-1.6797124,-7.425522,3997
11621866,0.2092523,-0.39507338,0.8518789,4011,0,-2.2105129,2.6906273,-11.730232,4011
11625898,0.19531275,-0.37254936,0.7662243,4032,0,0.63664484,-1.5808877,-6.316507,4032
11629864,0.2743831,-0.45531365,0.775596,3966,0,-0.39533916,0.12909944,-12.324914,3966
11633855,0.19129667,-0.21307771,0.7930788,3991,0,-2.8843815,0.37310326,-8.738815,3991
11637855,0.2429366,-0.3810273,0.708945,4000,0,2.8817666,-0.4068981,-4.2870507,4000
11641857,0.34583792,-0.35962227,0.751867,4002,0,-1.3991939,-0.31156152,-11.906082,4002
11645908,0.04970502,-0.2681945,0.6816696,4051,0,-0.41515148,0.25545382,-7.0815873,4051
11649855,0.3183009,-0.4138599,0.78406316,3947,0,0.7493949,2.163434,-9.632261,3947
11653862,0.30623162,-0.29069734,0.8213612,4007,0,-1.7231919,-1.3812653,-9.2331705,4007
11657855,0.07561143,-0.37820798,0.7873824,3993,0,0.30579138,0.6709757,-5.513435,3993
11661857,0.3076608,-0.3197945,0.9669149,4002,0,0.33070865,1.3650186,-9.591719,4002
11665855,0.12849838,-0.38979137,0.8111318,3998,0,0.27255452,-1.2827466,-6.5183787,3998
11669855,0.20322399,-0.50633776,0.87826806,4000,0,-1.2499944,0.48716158,-12.923299,4000
11673866,0.20587182,-0.19798681,0.8924246,4011,0,-0.6648444,0.2710415,-7.3678927,4011
11677855,0.22422582,-0.5247043,0.77097875,3989,0,0.51874226,-0.6327938,-4.9756227,3989
11681861,0.22155307,-0.3779015,0.8458219,4006,0,-0.16416577,-1.9347944,-11.917855,4006
11685855,-0.023700899,-0.25347838,0.7451438,3994,0,-0.2604676,1.6915785,-5.953014,3994
11689855,0.3025289,-0.53150004,0.76750994,4000,0,-1.5593493,0.7790905,-11.1158085,4000
11693863,0.15943186,-0.26359743,0.83823663,4008,0,-0.007861154,-2.412258,-10.094465,4008
11697890,0.013576306,-0.2845231,0.8051418,4027,0,0.12492303,2.865775,-4.9794564,4027
11701855,0.30245963,-0.39956248,0.91654056,3965,0,-0.7789959,0.26719064,-10.555037,3965
11705855,0.071329355,-0.28851122,0.87043077,4000,0,0.4211651,-2.5378015,-9.888255,4000
11709898,0.06854077,-0.24427612,0.9052174,4043,0,-1.2066433,3.774396,-9.532055,4043
11713855,0.3205992,-0.19838946,0.9472394,3957,0,-0.38198695,-1.5849262,-7.469826,3957
11717855,0.12623258,-0.31303355,0.81195766,4000,0,0.25732005,-1.493851,-8.303587,4000
11721855,0.115349814,-0.0360033,0.88186085,4000,0,-1.145848,1.4879775,-9.88223,4000
11725877,0.21970296,-0.13674124,0.7642347,4022,0,0.31332448,-0.9286174,-7.69018,4022
11729897,0.20661464,-0.17931385,0.7525353,4020,0,-1.8234215,-0.6372392,-12.377155,4020
11733855,0.063212484,0.20832227,0.83924556,3958,0,-0.9755245,1.624149,-6.611237,3958
11737855,0.24038169,-0.02511233,0.77652055,4000,0,0.93349004,-0.71788424,-5.985689,4000
11741855,0.15767384,0.12241838,0.84286034,4000,0,-1.8120425,-0.34210336,-13.673896,4000
11745860,0.029043702,0.32293487,0.8349099,4005,0,-1.2299832,1.3861169,-7.228563,4005
11749889,0.29192424,0.21195374,0.8389841,4029,0,-0.5127145,-0.2679604,-8.737039,4029
11753855,0.19910544,0.4856674,0.88158923,3966,0,-0.14376737,-1.789763,-10.444563,3966
11757855,0.03553472,0.5331912,0.805298,4000,0,-2.2940462,1.8936929,-7.136635,4000
11761855,0.24823484,0.5085268,0.81887937,4000,0,-1.5208961,-0.43107182,-11.6203375,4000
11765857,0.13289607,0.76676035,0.7358068,4002,0,2.036891,-2.7523313,-9.943256,4002
11769855,0.19412333,0.81202,0.726903,3998,0,-3.7076936,2.472647,-9.652143,3998
11773855,0.21319407,0.9565395,0.74735343,4000,0,-1.8587034,-1.0711299,-8.282058,4000
11777870,0.0527139,1.0261757,0.65040594,4015,0,1.3355614,-0.26974532,-8.437833,4015
11781855,0.28051576,1.1313987,0.747375,3985,0,-1.966301,0.55858284,-12.961374,3985
11785858,0.06491432,1.3558339,0.73445475,4003,0,-1.0939982,-1.0023634,-9.197829,4003
11789860,0.05771984,1.2879152,0.6816226,4002,0,-1.5758442,2.3290303,-6.831264,4002
11793899,0.28949353,1.4985054,0.7880331,4039,0,-1.5194626,-2.8065138,-10.9845295,4039
11797855,-0.033857785,1.624161,0.68900925,3956,0,1.5332491,-0.36305982,-8.870597,3956
11801901,0.17171922,1.5081418,0.63841534,4046,0,-1.6859885,2.307062,-9.332203,4046
11805858,0.09440774,1.7147577,0.6814409,3957,0,-2.6569822,-3.1355147,-9.687743,3957
11809860,-0.06565648,1.7254652,0.59193414,4002,0,0.77712613,1.18745,-7.931841,4002
11813882,0.1903674,1.633933,0.5742409,4022,0,1.9569374,-0.33743832,-9.688578,4022
11817864,-0.11796732,1.761352,0.56136996,3982,0,-2.4817002,-1.8985628,-9.529062,3982
11821855,-0.028782785,1.6529093,0.51877624,3991,0,-3.5820992,3.3916492,-8.056765,3991
11825855,0.15663539,1.5796174,0.5725029,4000,0,4.506728,-3.2448697,-7.707703,4000
11829866,-0.18094309,1.6468635,0.51181525,4011,0,2.1056547,-0.8417589,-9.247951,4011
11833945,-0.029745964,1.5059769,0.47183728,4079,0,-4.0454283,3.3989148,-9.095883,4079
11837855,-0.012013942,1.3967768,0.53791296,3910,0,1.1256163,-2.8023453,-7.886566,3910
11841855,-0.09745595,1.3225973,0.4388712,4000,0,1.3768246,0.15277517,-9.322069,4000
11845861,-0.048250217,1.2677621,0.41739622,4006,0,0.99541944,0.10244941,-7.6756554,4006
11849866,-0.092234954,1.1264678,0.40771443,4005,0,0.58227444,-0.48844644,-8.634325,4005
11853902,0.030323667,0.98396695,0.3007456,4036,0,-2.3009627,-0.16212346,-10.901507,4036
11857855,-0.1903077,0.9437717,0.3278903,3953,0,-0.37137473,1.3055516,-8.11697,3953
11861855,-0.022300407,0.72360194,0.26475477,4000,0,1.6821092,-0.62884206,-6.92881,4000
11865855,-0.03195328,0.7666147,0.262984,4000,0,0.1846451,-1.8696784,-10.16056,4000
11869855,-0.18349913,0.66717035,0.27023062,4000,0,0.54157585,3.1489632,-8.267401,4000
11873855,0.08317781,0.42183432,0.24415074,4000,0,-0.65003824,-2.3289747,-10.613466,4000
11877906,-0.21172309,0.5988392,0.23010367,4051,0,0.008022953,1.0407809,-9.59455,4051
11881866,0.049323544,0.45119166,0.24363282,3960,0,2.0409143,-0.2737248,-6.950143,3960
11885855,-0.025814869,0.33348882,0.17486191,3989,0,-2.7073238,-1.2707921,-13.038407,3989
11889856,-0.16623755,0.42365292,0.14309935,4001,0,-0.9235806,3.0228887,-9.88911,4001
11893857,0.085659854,0.3321138,0.14334896,4001,0,2.7621226,-3.6818013,-8.660104,4001
11897897,-0.07312141,0.36866358,0.05230489,4040,0,-2.2370827,1.3756177,-11.779297,4040
11901855,0.036682587,0.38670653,0.10813096,3958,0,0.34163535,0.34822875,-8.242247,3958
11905893,-0.030569721,0.2819419,0.06096696,4038,0,-0.70143867,-0.8368636,-12.140234,4038
11909858,-0.05126329,0.38049817,0.08396799,3965,0,-0.5114509,1.4646277,-10.854342,3965
11913855,0.07295064,0.3907247,0.13569197,3997,0,1.2394636,-1.2050726,-9.628036,3997
11917857,0.006750032,0.3512885,0.07044697,4002,0,-3.1742308,2.2556572,-11.85072,4002
11921858,0.05464793,0.38966733,0.13170454,4001,0,1.0873562,-1.2039223,-11.120563,4001
11925855,-0.012306571,0.41056582,0.06429023,3997,0,0.26415715,-0.4457895,-12.362755,3997
11929855,0.05878866,0.40655097,0.05790382,4000,0,-0.8538424,0.15058525,-10.136767,4000
11933871,0.038659696,0.44921514,0.042974636,4016,0,0.49031693,-0.9448664,-10.768036,4016
11937855,-0.011693163,0.378735,-0.033920836,3984,0,-1.8676891,1.6284428,-11.371608,3984
11941858,0.09194951,0.40163076,-0.023689138,4003,0,0.94785553,-1.3307396,-12.795391,4003
11945855,-0.036103416,0.47043416,-0.053196073,3997,0,-0.6427147,0.35758215,-11.410051,3997
11949855,0.051342417,0.34989157,-0.03508332,4000,0,-1.0121404,-0.30209553,-10.820377,4000
11953863,-0.025842257,0.4399457,-0.030922117,4008,0,0.18333842,0.08650838,-12.730742,4008
11957889,-0.08366225,0.3581116,-0.019266114,4026,0,-1.0015212,1.1897994,-9.824805,4026
11961902,0.0946652,0.26231927,-0.054932304,4013,0,0.6844608,-1.4329891,-15.339702,4013
11965855,-0.14728257,0.49260345,-0.02153993,3953,0,-0.010689796,0.45512033,-10.263909,3953
11969855,0.09905785,0.18883006,-0.09409136,4000,0,-0.61933637,0.2960412,-11.309663,4000
11973855,-0.073074676,0.40938094,-0.06035091,4000,0,0.3484918,-1.8124107,-14.2748375,4000
11977855,-0.16344431,0.22442324,-0.14138088,4000,0,-1.4804224,2.0763636,-12.124926,4000
11981870,0.13121006,0.19818702,-0.13394724,4015,0,0.96790785,-2.4194772,-16.75549,4015
11985861,-0.260488,0.3786308,-0.1684113,3991,0,-1.3898975,2.2788801,-10.69715,3991
11990669,0.17655845,0.088328,-0.19864063,4808,0,0.5584134,-2.023841,-14.3163595,4808
11994699,-0.25975406,0.38771003,-0.17905943,4030,0,-1.6639475,2.3319104,-13.913158,4030
11998681,0.09698414,0.04182992,-0.23018776,3982,0,1.30432,-1.8146894,-13.571595,3982
12002655,-0.13894165,0.36517927,-0.16372603,3974,0,-0.6991893,1.6793753,-15.399438,3974
12006668,-0.023894412,0.108268745,-0.26971337,4013,0,0.19657569,-1.1827927,-11.294486,4013
12011460,-0.038574062,0.27590197,-0.18729351,4792,0,-0.93609464,1.544928,-16.82091,4792
12015483,-0.020277208,0.15194228,-0.31479892,4023,0,0.4883668,-2.9125726,-9.456818,4023
12019469,0.08815608,0.20716584,-0.23669332,3986,0,-0.43012342,2.8272557,-17.313456,3986
12023455,-0.121270016,0.2848164,-0.34045374,3986,0,-0.82001907,-2.8760235,-9.634942,3986
12027476,0.19229853,0.07017687,-0.32682568,4021,0,0.029842883,3.061345,-17.841743,4021
12031455,-0.17694739,0.39051074,-0.35274586,3979,0,-0.75280726,-3.3487384,-12.895059,3979
12035455,0.16610011,-0.02076775,-0.4244693,4000,0,0.3257025,3.9293675,-18.243668,4000
12039455,-0.10631419,0.41841647,-0.32727006,4000,0,-0.4223959,-3.5916705,-16.337889,4000
12043455,0.025720974,-0.071164645,-0.47549716,4000,0,-0.8502481,3.0919917,-17.520716,4000
12047455,-0.013099522,0.38551602,-0.29295608,4000,0,1.5091125,-2.61896,-18.107056,4000
12051513,-0.081468716,-0.07406981,-0.49613893,4058,0,-2.1373174,1.4136869,-16.840935,4058
12055479,0.031325117,0.3285522,-0.2961593,3966,0,2.7460632,-0.21711306,-18.491762,3966
12059457,-0.10964965,-0.06659315,-0.51696724,3978,0,-3.489863,-0.83138245,-14.679331,3978
12063455,0.055394497,0.25934455,-0.33397537,3998,0,3.0482745,2.1578102,-17.875141,3998
12067455,-0.11582717,-0.009492038,-0.5409582,4000,0,-3.3334508,-2.8607013,-11.945151,4000
12071461,0.07523014,0.17984714,-0.39594364,4006,0,2.7692578,3.4170947,-16.930634,4006
12075457,-0.13869718,0.06607468,-0.5564191,3996,0,-3.3893228,-3.5323994,-11.1662445,3996
12079518,0.0805691,0.11009491,-0.43784443,4061,0,2.291627,3.580403,-15.486779,4061
12083457,-0.12804896,0.13914156,-0.5618304,3939,0,-3.0299985,-3.6335206,-11.115107,3939
12087457,0.082912564,0.07221925,-0.4717371,4000,0,1.369766,3.1175075,-14.018642,4000
12091461,-0.080096625,0.14173774,-0.54133457,4004,0,-2.202163,-2.5742836,-13.61637,4004
12095455,0.080134615,0.02743447,-0.49334857,3994,0,0.5595385,1.6010622,-13.5917425,3994
12099482,-0.057227474,0.13236457,-0.5266547,4027,0,-1.7912626,-1.1187658,-16.182722,4027
12103492,0.069677465,-0.01843404,-0.5229387,4010,0,0.19521439,0.24523954,-13.538868,4010
12107457,-0.0066866986,0.13211529,-0.5235273,3965,0,-1.3509637,0.26378208,-19.574776,3965
12111463,0.053321805,-0.040793825,-0.54939216,4006,0,-0.380382,-0.5662719,-13.575015,4006
12115457,0.07076624,0.08710246,-0.5205334,3994,0,-1.1248772,1.5160602,-22.203003,3994
12119459,-0.024428839,-0.028976277,-0.5721704,4002,0,-0.05586592,-1.9517778,-13.171178,4002
12123455,0.13196124,0.04348567,-0.5238896,3996,0,-0.8411413,2.4688902,-23.447508,3996
12127455,-0.09583603,-0.011018236,-0.59353787,4000,0,0.2642871,-2.7171767,-12.904706,4000
12135464,-0.15313879,-0.024621932,-0.60089594,3985,0,0.5643052,-4.1179724,-12.666041,3985
12139455,0.22251154,0.06101483,-0.52159566,3991,0,-0.3362945,4.163466,-21.013414,3991
12143457,-0.15122254,0.042289827,-0.60791624,4002,0,0.06565132,-5.6630783,-9.451474,4002
12147455,0.23939538,0.09234722,-0.52323604,3998,0,-1.0869431,4.4239817,-19.56787,3998
12151460,-0.19006808,0.07433998,-0.61462647,4005,0,0.19249137,-5.8745527,-9.115782,4005
12155499,0.2564018,0.083719105,-0.54202956,4039,0,-1.6713761,5.174694,-17.474276,4039
12159461,-0.20947498,0.11708442,-0.62648255,3962,0,0.0031630017,-5.6694465,-10.224544,3962
12163506,0.27661967,0.08127507,-0.5622035,4045,0,-1.9027282,5.3832626,-17.498308,4045
12167455,-0.22057322,0.13006762,-0.6251307,3949,0,-0.46206146,-5.7660418,-11.184823,3949
12171463,0.26486617,0.07248123,-0.58000654,4008,0,-1.651918,5.546214,-18.117973,4008
12175455,-0.20418459,0.13735355,-0.61237925,3992,0,-0.45279443,-5.044919,-12.423536,3992
12179455,0.28519604,0.027581384,-0.59034926,4000,0,-2.058862,5.8156877,-19.549116,4000
12183501,-0.18127333,0.14390303,-0.5931178,4046,0,-0.31448832,-4.623121,-13.302666,4046
12187466,0.2955285,-0.019569755,-0.5979368,3965,0,-1.3869284,5.3986745,-20.504986,3965
12191464,-0.14678024,0.15849301,-0.5896134,3998,0,-0.31487912,-3.9473317,-14.256861,3998
12195457,0.29497787,-0.08455719,-0.6188338,3993,0,-1.7785146,4.7795134,-20.742746,3993
12199474,-0.1769722,0.114325434,-0.59980476,4017,0,1.4048711,-3.796773,-13.324404,4017
12203455,0.28532386,-0.118210964,-0.63948953,3981,0,-1.7584434,3.863181,-20.349712,3981
12207490,-0.14723009,0.12182916,-0.606083,4035,0,0.60618603,-2.7041044,-13.322524,4035
12211457,0.24236383,-0.1417081,-0.6521437,3967,0,-1.6211413,2.9860559,-19.28447,3967
12215458,-0.11434355,0.095089376,-0.60265243,4001,0,-0.5885846,-1.9248722,-11.693696,4001
12219463,0.1457955,-0.13154596,-0.6521264,4005,0,-0.58090556,1.2491548,-17.123648,4005
12223461,-0.10814285,0.06468686,-0.5990604,3998,0,-1.2757964,-0.59775484,-11.105744,3998
12227457,0.117726535,-0.095131785,-0.635247,3996,0,-0.19406134,-0.5437774,-15.488049,3996
12231464,-0.14865506,0.04486729,-0.6139621,4007,0,-2.2714894,0.53763086,-11.396297,4007
12235463,0.101051606,-0.047442745,-0.61645013,3999,0,0.5423265,-1.3675921,-14.780516,3999
12239457,-0.12329887,0.0074080913,-0.6339796,3994,0,-2.2548683,1.0448006,-12.348459,3994
12243457,0.07825011,0.002576008,-0.61057484,4000,0,0.014392221,-1.279991,-16.221094,4000
12247510,-0.1397905,-0.04741097,-0.66362405,4053,0,-1.9823835,1.4735489,-13.361336,4053
12251470,0.082825966,0.027045283,-0.6015238,3960,0,-0.10093235,-0.84495854,-17.979095,3960
12255455,-0.12650645,-0.08420846,-0.68575287,3985,0,-1.2307141,1.032509,-13.821926,3985
12259498,0.07886068,0.043265868,-0.5886798,4043,0,-0.17326736,0.050339274,-19.55066,4043
12263461,-0.13155171,-0.15908869,-0.6884053,3963,0,-1.0123398,0.4441015,-14.280989,3963
12267476,0.10506008,0.0691169,-0.5579701,4015,0,-0.3442719,0.7918288,-20.791729,4015
12271470,-0.17512512,-0.21259639,-0.6914184,3994,0,0.19443692,-0.63411874,-13.101619,3994
12275455,0.19976726,0.10594352,-0.5416892,3985,0,-1.5092124,2.5308013,-21.599718,3985
12279463,-0.259989,-0.2539196,-0.68605405,4008,0,1.0373474,-2.882241,-11.429866,4008
12283466,0.2648338,0.15170337,-0.5270307,4003,0,-2.071605,4.016312,-20.457111,4003
12287511,-0.26495513,-0.26969585,-0.6915707,4045,0,2.1043694,-4.9580836,-10.341805,4045
12291457,0.2699283,0.22165254,-0.5297763,3946,0,-2.7170396,5.3959513,-18.436876,3946
12295464,-0.274771,-0.29265925,-0.6894435,4007,0,2.6191545,-6.1431723,-9.60639,4007
12299463,0.3132853,0.23203789,-0.5723623,3999,0,-4.132848,6.6433287,-18.971252,3999
12303457,-0.32159927,-0.21565934,-0.6580505,3994,0,3.0750644,-6.9474087,-10.3531275,3994
12307470,0.35857645,0.22275886,-0.575965,4013,0,-3.7701452,6.537967,-19.979422,4013
12311518,-0.32561713,-0.24286886,-0.6249242,4048,0,2.332271,-6.3337293,-11.183483,4048
12315457,0.34796187,0.2090613,-0.5889858,3939,0,-2.5198064,6.453341,-20.32709,3939
12319455,-0.28654715,-0.23778512,-0.57898855,3998,0,1.3964742,-5.0730214,-12.430043,3998
12323455,0.29655048,0.11757405,-0.6052011,4000,0,-1.3420225,5.542497,-20.16323,4000
12327457,-0.20738003,-0.20775625,-0.5160928,4002,0,0.1108486,-3.692001,-13.055389,4002
12331532,0.18837439,0.03153778,-0.6134073,4075,0,0.28729165,3.177407,-18.605669,4075
12335455,-0.13770738,-0.13467711,-0.46648932,3923,0,-0.41531682,-1.3346579,-13.504644,3923
12339479,0.11789355,-0.079617806,-0.6123716,4024,0,0.68645346,1.0247215,-15.967439,4024
12343457,-0.046640467,-0.05304899,-0.41317186,3978,0,-0.39149466,1.0255938,-13.718213,3978
12347473,0.024468768,-0.13358489,-0.55038106,4016,0,0.10456991,-1.0803318,-12.8929825,4016
12351474,0.05642253,-0.040810727,-0.3694876,4001,0,0.6524693,2.1754296,-13.5661125,4001
12355457,-0.09563346,-0.105408154,-0.4436708,3983,0,-1.0251122,-1.6661063,-11.275403,3983
12359455,0.1819533,-0.10783576,-0.39209214,3998,0,1.0322433,2.5688918,-15.939791,3998
12363490,-0.1893797,-0.032126095,-0.33020565,4035,0,-1.5028864,-1.4273875,-11.181268,4035
12367455,0.2802104,-0.2705564,-0.36342648,3965,0,1.2919453,2.9229116,-17.336983,3965
12371457,-0.18364584,0.026527302,-0.23174292,4002,0,-2.8309703,-1.709905,-11.474984,4002
12375463,0.20681234,-0.2963704,-0.3339878,4006,0,2.681168,3.063716,-12.390707,4006
12379455,-0.02330474,-0.033024214,-0.18156509,3992,0,-4.1955433,-1.4577645,-13.365544,3992
12383455,0.04862593,-0.1969777,-0.25816506,4000,0,3.929406,3.187821,-10.187068,4000
12387455,0.16328666,-0.15895936,-0.14945227,4000,0,-3.1077976,-3.2493863,-14.1760645,4000
12391470,-0.17470641,-0.1550147,-0.15698622,4015,0,3.2799778,2.757025,-10.294669,4015
12395457,0.26818103,-0.17641985,-0.086654566,3987,0,-2.587378,-0.5957491,-12.482617,3987
12399455,-0.08429479,-0.22435832,-0.081756376,3998,0,1.8258767,-0.71025956,-11.958296,3998
12403455,0.058517553,-0.13065211,-3.956797e-05,4000,0,-2.7601147,3.5134983,-10.11893,4000
12407468,0.1571533,-0.34099206,-0.009568068,4013,0,2.2095792,-3.2866466,-10.1047125,4013
12411457,-0.16653386,-0.039754234,0.062600896,3989,0,-1.5436354,1.992243,-10.625869,3989
12415532,0.22330917,-0.3093662,0.032515623,4075,0,1.9349209,0.6574256,-9.21039,4075
12419459,-0.038843695,-0.17618503,0.10355389,3927,0,-1.8988853,-2.0513468,-9.877922,3927
12423455,-0.03813821,-0.23986724,0.11067637,3996,0,-0.29105908,3.128177,-8.882484,3996
12427457,0.100716956,-0.16770817,0.13506244,4002,0,1.4563823,-1.8127031,-7.663766,4002
12431455,-0.028782764,-0.32340962,0.15369628,3998,0,-1.7342173,-0.6085113,-11.88391,3998
12435459,-0.05865544,-0.054876395,0.16671923,4004,0,0.28781843,3.4486768,-6.1180873,4004
12439455,0.12103224,-0.38621986,0.20140132,3996,0,-3.131959,-1.6859233,-9.106674,3996
12443474,-0.13132906,-0.10611294,0.22205617,4019,0,4.572993,-1.463082,-9.059542,4019
12447480,0.009724931,-0.14973801,0.2653289,4006,0,-5.591661,3.7141929,-7.754124,4006
12452279,-0.055880547,-0.295916,0.21520624,4799,0,2.9829597,-2.188778,-7.8680816,4799
12456258,0.02131774,-0.13862623,0.3115645,3979,0,-3.4692903,-0.07575254,-10.794671,3979
12460263,-0.14973281,-0.09328521,0.23883402,4005,0,2.9061542,1.3959414,-4.832458,4005
12464277,0.11664895,-0.3564874,0.32491237,4014,0,-3.3100693,0.4177781,-9.04685,4014
12469068,-0.1464587,-0.027027195,0.29505193,4791,0,1.8152905,-2.3835964,-7.52073,4791
12473055,-0.07688827,-0.21908727,0.31961137,3987,0,-1.8263757,5.3997755,-5.345603,3987
12477055,0.16920261,-0.17982915,0.33775997,4000,0,-0.3568125,-3.4940705,-8.929977,4000
12481064,-0.30437425,-0.05770046,0.30432576,4009,0,1.7548738,-0.035313353,-4.4957447,4009
12485074,0.12699725,-0.16009185,0.36832392,4010,0,-3.5969274,2.642857,-10.58223,4010
12489055,-0.14210884,-0.088163696,0.30969632,3981,0,3.041625,-2.4360669,-4.2895517,3981
12493055,0.09305264,-0.1662545,0.3848024,4000,0,-3.0025897,1.9308186,-9.272527,4000
12497055,-0.099892825,0.08494836,0.35631746,4000,0,0.8554582,-2.8064237,-5.333844,4000
12501055,-0.17517424,-0.11882407,0.3150251,4000,0,1.3508235,3.47504,-3.3457909,4000
12505055,0.22432186,-0.117890574,0.38470212,4000,0,-4.170395,-1.2777182,-11.07062,4000
12509090,-0.30836016,0.13617544,0.32555124,4035,0,3.3333538,-1.8506899,-3.3613253,4035
12513061,0.10169345,-0.1266469,0.33109957,3971,0,-1.2894601,3.9085772,-6.443869,3971
12517060,0.061998762,0.043699935,0.31385997,3999,0,-1.1184933,-4.4657097,-6.8864713,3999
12521055,-0.30715647,0.022268383,0.23325975,3995,0,1.4749788,1.4517144,-3.9993517,3995
12525055,0.19112366,-0.04053168,0.2605204,4000,0,-1.872286,0.8004862,-8.802219,4000
12529055,-0.13440768,0.09115311,0.20981452,4000,0,1.2815948,-2.0275483,-3.6402462,4000
12533157,-0.04877278,-0.08387848,0.1921693,4102,0,-0.660987,2.0549629,-4.6323776,4102
12537061,0.06754349,0.044247698,0.22551824,3904,0,-1.5741984,-1.6767309,-8.145662,3904
12541055,-0.19691712,0.06799835,0.18546362,3994,0,1.6859567,1.1561456,-3.0899074,3994
12545064,0.089778244,-0.11510929,0.19661352,4009,0,-0.52385396,0.45228928,-4.7220774,4009
12549055,-0.020784236,0.06119301,0.23691331,3991,0,-1.4597276,-2.0990646,-8.088846,3991
12553069,-0.17978987,0.05576832,0.1868147,4014,0,1.2780057,1.7839129,-3.5256987,4014
12557055,0.10406372,-0.1300382,0.1915764,3986,0,0.0056773466,0.13189924,-4.6380944,3986
12561090,0.0073733185,0.052358076,0.22152792,4035,0,-1.802684,-2.0938132,-7.6684885,4035
12565057,-0.207813,0.048868585,0.15069196,3967,0,1.4148703,1.1122077,-2.7394605,3967
12569055,0.114117585,-0.12583421,0.13062486,3998,0,0.24083674,1.0119247,-4.280357,3998
12573055,0.033584192,0.0064361314,0.1651793,4000,0,-1.9202137,-1.9352021,-7.465574,4000
12577055,-0.18077879,0.039132882,0.12618707,4000,0,1.5885289,0.31670663,-2.7470317,4000
12581065,0.05510464,-0.12364734,0.09508443,4010,0,-0.16039987,1.6800964,-4.5494967,4010
12585061,0.07209007,-0.02075856,0.15064237,3996,0,-1.6158183,-1.0603198,-6.8763337,3996
12589074,-0.104241915,0.0246342,0.14903313,4013,0,1.2592208,-0.3761342,-2.751715,4013
12593055,-0.00585638,-0.12113378,0.1027269,3981,0,0.48940068,0.98743445,-3.8107536,3981
12597055,0.1099307,-0.033451125,0.14321496,4000,0,-1.4027919,0.30942088,-6.7634277,4000
12601055,-0.026835041,0.011950815,0.16276042,4000,0,0.52665764,-1.366372,-3.5781333,4000
12605055,-0.045049757,-0.09897751,0.102105774,4000,0,0.67581487,0.5212182,-3.746503,4000
12609055,0.096858524,-0.061272603,0.08357007,4000,0,-1.6808584,1.0616703,-6.909132,4000
12613090,0.03768174,0.006368518,0.12665261,4035,0,0.29965374,-1.578456,-4.3226075,4035
12617126,-0.06001285,-0.091845095,0.068549156,4036,0,0.47133058,0.14231734,-3.5954986,4036
12621055,0.054704268,-0.101589985,0.030806424,3929,0,-0.74948275,0.37563652,-6.301938,3929
12625055,0.09189372,0.0019815243,0.09441477,4000,0,-0.16520487,-0.22463785,-5.861476,4000
12629055,-0.02592641,-0.075492844,0.083566085,4000,0,0.9607384,-0.4418726,-3.1138089,4000
12633066,-0.023341563,-0.10268482,0.07270771,4011,0,-0.28121513,0.4104392,-4.7965856,4011
12637068,0.08875498,0.0033593166,0.10589918,4002,0,-0.8421445,0.95578176,-6.166469,4002
12641074,0.01065018,-0.029185899,0.14246753,4006,0,0.6705511,-0.699464,-2.7903929,4006
12645055,-0.04588896,-0.08221241,0.10671375,3981,0,-0.06092294,0.01486321,-3.2210913,3981
12649055,0.06923749,-0.01592174,0.090424046,4000,0,-1.1531321,0.5682253,-6.496067,4000
12653058,0.0064347386,0.016757341,0.10322772,4003,0,0.28588492,-0.5751643,-3.481706,4003
12657055,-0.03543984,-0.06565401,0.05787144,3997,0,0.44411832,-0.50321054,-3.5710196,3997
12661055,0.015917975,-0.038116418,0.01944973,4000,0,-1.0995356,0.19176432,-7.568754,4000
12665090,0.011168312,0.035356384,0.031470295,4035,0,0.045376044,-0.095740624,-6.081165,4035
12669057,-0.0016210063,-0.035351243,0.036437877,3967,0,0.53881323,-0.14029837,-3.7106402,3967
12673055,-0.048840676,-0.017201267,0.037481748,3998,0,-0.9336932,-0.16932705,-4.5050664,3998
12677061,0.007982645,0.07190031,0.06098604,4006,0,0.02419585,0.55604964,-5.228557,4006
12681055,-0.011292578,0.03308876,0.08875575,3994,0,0.4194227,0.28956288,-3.2046201,3994
12685055,-0.05170651,0.0050324006,0.08792455,4000,0,-0.18034759,-0.39429402,-3.3262486,4000
12689055,0.01656483,0.07263525,0.09297089,4000,0,-0.48903692,0.74279654,-6.547316,4000
