timestamp,timestamp_sample,control[0],control[1],control[2],control[3],control[4],control[5],control[6],control[7]
9722009,9721906,-0.00018143188,-0.020510737,0.42185107,0.1762592,0.0,0.0,0.0,-1.0
9737167,9737055,0.03024808,-0.013307969,0.37694037,0.17768162,0.0,0.0,0.0,-1.0
9859559,9859457,0.035796262,0.005362039,0.17959237,0.17914493,0.0,0.0,0.0,-1.0
9862757,9862655,0.054188468,-0.0031773574,0.14064018,0.17914493,0.0,0.0,0.0,-1.0
9865957,9865855,-0.031518225,0.026954683,0.087265186,0.17914493,0.0,0.0,0.0,-1.0
9869960,9869857,0.04588938,0.0023461033,0.05230405,0.17914493,0.0,0.0,0.0,-1.0
9872449,9872274,0.042106804,0.02690416,-0.01097676,0.17914493,0.0,0.0,0.0,-1.0
9876376,9876255,-0.04932081,0.030383214,-0.037140712,0.17914493,0.0,0.0,0.0,-1.0
9880375,9880257,0.056998733,-0.025104972,-0.03146927,0.18019415,0.0,0.0,0.0,-1.0
9883557,9883455,-0.01601287,0.045516055,-0.010197964,0.18019415,0.0,0.0,0.0,-1.0
9887557,9887455,-0.084477946,0.03158359,0.069897175,0.18019415,0.0,0.0,0.0,-1.0
9890757,9890655,0.030399853,-0.034501657,0.12933965,0.18019415,0.0,0.0,0.0,-1.0
9893960,9893856,-0.025200102,0.008835594,0.12523739,0.18019415,0.0,0.0,0.0,-1.0
9897959,9897857,-0.03569622,0.0062655713,0.14319462,0.18019415,0.0,0.0,0.0,-1.0
9900385,9900255,0.035101514,-0.018470464,0.19838108,0.18123677,0.0,0.0,0.0,-1.0
9904375,9904257,-0.053493086,0.007373198,0.13746336,0.18123677,0.0,0.0,0.0,-1.0
9908378,9908260,-0.04658246,-0.035680145,0.04551828,0.18123677,0.0,0.0,0.0,-1.0
9911612,9911466,0.00038299814,-0.024721652,-0.0148648415,0.18123677,0.0,0.0,0.0,-1.0
9915661,9915481,-0.11281407,0.030607412,-0.059275426,0.18123677,0.0,0.0,0.0,-1.0
9918784,9918683,-0.067508794,-0.025449006,-0.0825531,0.18198068,0.0,0.0,0.0,-1.0
9921957,9921855,0.008465136,-0.036786225,-0.033387616,0.18198068,0.0,0.0,0.0,-1.0
9925974,9925858,-0.08582358,0.017434934,-0.02050005,0.18198068,0.0,0.0,0.0,-1.0
9928384,9928257,-0.098173805,-0.0018019938,0.018153144,0.18198068,0.0,0.0,0.0,-1.0
9932458,9932285,-0.0012450912,-0.057305664,0.12786683,0.18198068,0.0,0.0,0.0,-1.0
9936380,9936255,-0.0841214,-0.025168812,0.14807583,0.18198068,0.0,0.0,0.0,-1.0
9939567,9939458,-0.056812644,-0.044765342,0.18490697,0.18198068,0.0,0.0,0.0,-1.0
9943569,9943460,0.018511968,-0.032039277,0.22393751,0.1831796,0.0,0.0,0.0,-1.0
9946768,9946655,-0.053725623,-0.020718183,0.15129681,0.1831796,0.0,0.0,0.0,-1.0
9949961,9949858,-0.030202106,-0.053709056,0.057672746,0.1831796,0.0,0.0,0.0,-1.0
9953970,9953857,0.012511058,-0.019135972,0.03007683,0.1831796,0.0,0.0,0.0,-1.0
9956383,9956255,-0.032770623,0.016504925,-0.05035334,0.1831796,0.0,0.0,0.0,-1.0
9960375,9960257,0.009155556,-0.061817806,-0.10742309,0.1831796,0.0,0.0,0.0,-1.0
9964384,9964263,0.0040793,-0.019937553,-0.07665267,0.1848872,0.0,0.0,0.0,-1.0
9967564,9967455,-0.11073437,0.04922988,-0.07017976,0.1848872,0.0,0.0,0.0,-1.0
9971698,9971533,-0.010351379,-0.030555783,0.006355524,0.1848872,0.0,0.0,0.0,-1.0
9974767,9974658,0.044874284,-0.022890855,0.09261487,0.1848872,0.0,0.0,0.0,-1.0
9978786,9978684,-0.112858616,0.053192016,0.12012399,0.1848872,0.0,0.0,0.0,-1.0
9982022,9981912,-0.030287156,0.0014605417,0.11372012,0.1848872,0.0,0.0,0.0,-1.0
9984375,9984257,0.052545752,-0.010696429,0.2185689,0.1862706,0.0,0.0,0.0,-1.0
9988382,9988257,-0.070740566,0.032891575,0.1523352,0.1862706,0.0,0.0,0.0,-1.0
9992489,9992341,-0.030890826,0.030776644,0.0884756,0.1862706,0.0,0.0,0.0,-1.0
9995564,9995455,0.050339364,0.020118205,0.06133701,0.1862706,0.0,0.0,0.0,-1.0
9999682,9999542,-0.03984107,0.028552454,-0.053086653,0.1862706,0.0,0.0,0.0,-1.0
10002815,10002712,-0.038307264,0.025597483,-0.0995862,0.18644743,0.0,0.0,0.0,-1.0
10005978,10005856,0.011926956,0.049315494,-0.074935794,0.18644743,0.0,0.0,0.0,-1.0
10009975,10009866,-0.0335993,0.04648991,-0.10251773,0.18644743,0.0,0.0,0.0,-1.0
10013958,10013856,0.0017929645,0.026650518,-0.080324486,0.18644743,0.0,0.0,0.0,-1.0
10016446,10016291,0.013216985,0.07091486,0.05727628,0.18644743,0.0,0.0,0.0,-1.0
10019567,10019457,-0.030262832,0.07005736,0.09354559,0.18644743,0.0,0.0,0.0,-1.0
10023626,10023504,0.0070034154,0.004469344,0.12650529,0.18644743,0.0,0.0,0.0,-1.0
10027559,10027457,0.0075540515,0.04237261,0.2218844,0.18610086,0.0,0.0,0.0,-1.0
10030774,10030670,-0.03127556,0.053203855,0.1860328,0.18610086,0.0,0.0,0.0,-1.0
10034820,10034671,0.038379166,-0.021937301,0.0971396,0.18610086,0.0,0.0,0.0,-1.0
10038763,10038656,0.00065875624,0.007929281,0.06178377,0.18610086,0.0,0.0,0.0,-1.0
10041168,10041066,-0.03209837,0.029192058,0.029685408,0.18610086,0.0,0.0,0.0,-1.0
10044433,10044321,-0.0011063388,-0.026468992,-0.07585642,0.18610086,0.0,0.0,0.0,-1.0
10047565,10047456,0.028440483,-0.040148064,-0.10091414,0.18610086,0.0,0.0,0.0,-1.0
10051620,10051470,-0.05476451,-0.0066021434,-0.10659115,0.18664327,0.0,0.0,0.0,-1.0
10055573,10055457,-0.04575566,-0.0349629,-0.09244099,0.18664327,0.0,0.0,0.0,-1.0
10058760,10058658,-0.00862814,-0.050316036,-0.010176608,0.18664327,0.0,0.0,0.0,-1.0
10062793,10062691,-0.024872778,-0.05161652,0.060364775,0.18664327,0.0,0.0,0.0,-1.0
10065968,10065857,-0.032602362,-0.035720192,0.11691146,0.18664327,0.0,0.0,0.0,-1.0
10069157,10069055,-0.017825881,-0.024462117,0.07576886,0.18789874,0.0,0.0,0.0,-1.0
10073227,10073064,-0.020175196,-0.046517715,0.06729592,0.18789874,0.0,0.0,0.0,-1.0
10075612,10075510,-0.034575693,-0.048346523,0.090279065,0.18789874,0.0,0.0,0.0,-1.0
10079559,10079457,-0.022756783,0.015571447,0.072295934,0.18789874,0.0,0.0,0.0,-1.0
10083571,10083469,0.04026993,-0.048389748,-0.015008705,0.18789874,0.0,0.0,0.0,-1.0
10087562,10087456,-0.006823306,-0.013581262,-0.09425079,0.18789874,0.0,0.0,0.0,-1.0
10089989,10089874,-0.043127287,0.032914136,-0.09384379,0.18789874,0.0,0.0,0.0,-1.0
10095565,10095457,0.023897246,-0.041952897,-0.14772396,0.18896157,0.0,0.0,0.0,-1.0
10097230,10097126,0.001714544,-0.035565328,-0.10501067,0.18896157,0.0,0.0,0.0,-1.0
10101167,10101055,-0.044394378,0.033732608,-0.05888284,0.18896157,0.0,0.0,0.0,-1.0
10103596,10103484,-0.0035355971,0.042693328,0.018846951,0.18896157,0.0,0.0,0.0,-1.0
10107573,10107457,0.052508052,-0.031881317,0.06959858,0.18896157,0.0,0.0,0.0,-1.0
10111560,10111456,-0.07139511,0.058600053,0.12270926,0.18896157,0.0,0.0,0.0,-1.0
10114759,10114657,-0.06475465,0.060786042,0.20093635,0.18896157,0.0,0.0,0.0,-1.0
10119558,10119456,0.04111787,-0.025562964,0.104957625,0.18939051,0.0,0.0,0.0,-1.0
10121966,10121855,-0.031375486,0.017088333,0.055737518,0.18939051,0.0,0.0,0.0,-1.0
10125157,10125055,-0.0579252,0.03522421,-0.008977542,0.18939051,0.0,0.0,0.0,-1.0
10129176,10129057,0.0331519,-0.027493725,-0.06358322,0.18939051,0.0,0.0,0.0,-1.0
10131559,10131457,0.0042358767,-0.017476192,-0.17182708,0.18976396,0.0,0.0,0.0,-1.0
10135561,10135458,-0.10437924,0.033623483,-0.1942619,0.18976396,0.0,0.0,0.0,-1.0
10139557,10139455,0.03180447,-0.055201206,-0.17064948,0.18976396,0.0,0.0,0.0,-1.0
10143562,10143458,-0.0461527,-0.027413696,-0.122390315,0.18976396,0.0,0.0,0.0,-1.0
10145966,10145855,-0.10003213,0.000473918,-0.074339285,0.18976396,0.0,0.0,0.0,-1.0
10150787,10150675,0.041134942,-0.057978522,0.04077318,0.18976396,0.0,0.0,0.0,-1.0
10153211,10153065,0.06504023,-0.06629209,0.072728485,0.18976396,0.0,0.0,0.0,-1.0
10157167,10157055,-0.06282419,-0.0051874546,0.010981066,0.19094615,0.0,0.0,0.0,-1.0
10160368,10160257,-0.015442788,-0.031723544,0.0305744,0.19094615,0.0,0.0,0.0,-1.0
10162757,10162655,0.074929014,-0.06446401,0.11040534,0.19094615,0.0,0.0,0.0,-1.0
10166758,10166656,-0.032484885,-0.016816616,0.035178885,0.19094615,0.0,0.0,0.0,-1.0
10170757,10170655,-0.034712136,-0.0035517747,-0.04524113,0.19094615,0.0,0.0,0.0,-1.0
10174801,10174692,0.08448139,-0.05639391,-0.104600325,0.19094615,0.0,0.0,0.0,-1.0
10177974,10177855,-0.020337697,-0.018589394,-0.14917956,0.19094615,0.0,0.0,0.0,-1.0
10181236,10181129,-0.027827868,-0.007556838,-0.14907125,0.19243805,0.0,0.0,0.0,-1.0
10185167,10185055,0.096762806,-0.05377622,-0.14718278,0.19243805,0.0,0.0,0.0,-1.0
10188363,10188255,0.0077604223,-0.03486933,-0.10140432,0.19243805,0.0,0.0,0.0,-1.0
10190757,10190656,-0.061039392,-0.0029356135,-0.050124183,0.19243805,0.0,0.0,0.0,-1.0
10194773,10194657,0.019794181,-0.026783762,0.05778003,0.19243805,0.0,0.0,0.0,-1.0
10198761,10198657,0.017100062,-0.028658576,0.11166393,0.19332194,0.0,0.0,0.0,-1.0
10201967,10201856,-0.05481618,0.0031832904,0.11423434,0.19332194,0.0,0.0,0.0,-1.0
10206765,10206656,0.07989348,-0.02866545,0.095838934,0.19332194,0.0,0.0,0.0,-1.0
10209157,10209055,0.093520164,-0.03140481,0.068217225,0.19332194,0.0,0.0,0.0,-1.0
10213227,10213063,-0.028216744,0.020141585,-0.018098561,0.19332194,0.0,0.0,0.0,-1.0
10216389,10216265,0.005915611,0.004221851,-0.08503209,0.19332194,0.0,0.0,0.0,-1.0
10218803,10218662,0.07275221,-0.01735854,-0.1515265,0.19332194,0.0,0.0,0.0,-1.0
10222758,10222655,-0.027047144,0.018715134,-0.18274984,0.19335644,0.0,0.0,0.0,-1.0
10226757,10226655,-0.047708537,0.024459502,-0.20300226,0.19335644,0.0,0.0,0.0,-1.0
10230802,10230692,0.07041259,-0.03268226,-0.120430395,0.19335644,0.0,0.0,0.0,-1.0
10233969,10233858,-0.018158844,0.0046762135,-0.044388495,0.19335644,0.0,0.0,0.0,-1.0
10237164,10237061,-0.09053897,0.03758656,-0.0012637619,0.19335644,0.0,0.0,0.0,-1.0
10241177,10241058,0.03314367,-0.035387497,0.07012654,0.19335644,0.0,0.0,0.0,-1.0
10244369,10244258,-0.004232748,-0.012975615,0.033881582,0.19277303,0.0,0.0,0.0,-1.0
10246762,10246656,-0.0959681,0.023643814,0.12318515,0.19277303,0.0,0.0,0.0,-1.0
10250763,10250657,-0.005142604,-0.03488506,0.063554026,0.19277303,0.0,0.0,0.0,-1.0
10254762,10254659,0.03267435,-0.03718855,0.04702376,0.19277303,0.0,0.0,0.0,-1.0
10257970,10257855,-0.063271,0.03300296,-0.012047561,0.19277303,0.0,0.0,0.0,-1.0
10262831,10262712,0.0344263,-0.04211339,-0.16183542,0.19212763,0.0,0.0,0.0,-1.0
10265234,10265129,0.045139834,-0.037268132,-0.15992959,0.19212763,0.0,0.0,0.0,-1.0
10269167,10269055,-0.05796894,0.040965963,-0.15317158,0.19212763,0.0,0.0,0.0,-1.0
10272432,10272265,-0.008762035,-0.012686145,-0.14306201,0.19212763,0.0,0.0,0.0,-1.0
10274767,10274665,0.0459479,-0.045734335,-0.12353182,0.19212763,0.0,0.0,0.0,-1.0
10278765,10278656,-0.038657058,0.02401268,0.0020484943,0.19212763,0.0,0.0,0.0,-1.0
10282821,10282663,-0.020091835,0.015721308,0.054822452,0.19212763,0.0,0.0,0.0,-1.0
10286801,10286692,0.05253407,-0.00907334,0.07854387,0.19186234,0.0,0.0,0.0,-1.0
10289985,10289855,-0.0055484283,0.04950206,0.11664574,0.19186234,0.0,0.0,0.0,-1.0
10293217,10293061,-0.0029758862,0.051762037,0.100906074,0.19186234,0.0,0.0,0.0,-1.0
10297177,10297057,0.07105169,-0.0060037384,0.0169508,0.19186234,0.0,0.0,0.0,-1.0
10300370,10300255,0.009630996,0.03262997,-0.04524958,0.19186234,0.0,0.0,0.0,-1.0
10302768,10302665,0.013912708,0.048024047,-0.071281694,0.19186234,0.0,0.0,0.0,-1.0
10307564,10307455,0.054082785,-0.018811313,-0.1459863,0.19174969,0.0,0.0,0.0,-1.0
10309969,10309857,0.030667601,0.0029599718,-0.19522595,0.19174969,0.0,0.0,0.0,-1.0
10313968,10313857,0.01253726,0.021507783,-0.15366808,0.19174969,0.0,0.0,0.0,-1.0
10318795,10318693,0.017094817,-0.037156194,-0.10321251,0.19174969,0.0,0.0,0.0,-1.0
10321171,10321055,-0.013769912,-0.009791576,-0.071731955,0.19174969,0.0,0.0,0.0,-1.0
10325220,10325107,0.009998422,-0.00054070866,-0.00089972885,0.1911959,0.0,0.0,0.0,-1.0
10328367,10328255,0.036815315,-0.05638674,0.05483987,0.1911959,0.0,0.0,0.0,-1.0
10331564,10331455,-0.0018006806,-0.03147212,-0.004373646,0.1911959,0.0,0.0,0.0,-1.0
10335633,10335521,0.013655631,-0.006619733,0.013699663,0.1911959,0.0,0.0,0.0,-1.0
10337995,10337863,0.042902086,-0.065175086,0.074987724,0.1911959,0.0,0.0,0.0,-1.0
10341973,10341855,-0.010687181,-0.06565959,0.0020683184,0.1911959,0.0,0.0,0.0,-1.0
10346024,10345912,0.00072641746,-0.013508081,-0.07457197,0.1911959,0.0,0.0,0.0,-1.0
10349247,10349141,0.032363124,-0.08426575,-0.15970047,0.19059028,0.0,0.0,0.0,-1.0
10353179,10353066,-0.03428434,-0.07111332,-0.20541772,0.19059028,0.0,0.0,0.0,-1.0
10356422,10356314,-0.030335119,-0.011104375,-0.23188247,0.19059028,0.0,0.0,0.0,-1.0
10359573,10359457,0.022873845,-0.05267658,-0.17505784,0.19059028,0.0,0.0,0.0,-1.0
10363572,10363470,-0.031260163,-0.046917044,-0.12026389,0.19059028,0.0,0.0,0.0,-1.0
10366008,10365889,-0.07009764,-0.008781795,-0.07741154,0.19059028,0.0,0.0,0.0,-1.0
10369973,10369855,-0.0021612158,-0.055116784,-0.06253834,0.19146205,0.0,0.0,0.0,-1.0
10373977,10373866,-0.05100699,-0.046338595,0.03458569,0.19146205,0.0,0.0,0.0,-1.0
10377206,10377103,-0.069689736,-0.011209935,0.006906403,0.19146205,0.0,0.0,0.0,-1.0
10381167,10381055,0.01703259,-0.05175977,0.0010550831,0.19146205,0.0,0.0,0.0,-1.0
10384377,10384273,-0.00072911486,-0.037146285,0.018262494,0.19146205,0.0,0.0,0.0,-1.0
10387620,10387514,-0.03631661,-0.005042876,-0.0619417,0.19146205,0.0,0.0,0.0,-1.0
10391608,10391452,0.005972412,-0.045795605,-0.16245732,0.19514634,0.0,0.0,0.0,-1.0
10393973,10393855,0.012532369,-0.019876018,-0.1644882,0.19514634,0.0,0.0,0.0,-1.0
10398015,10397903,-0.03572562,0.038924232,-0.19081153,0.19514634,0.0,0.0,0.0,-1.0
10401980,10401855,0.03416851,-0.022793546,-0.20682526,0.19514634,0.0,0.0,0.0,-1.0
10405175,10405066,0.037685134,-0.008049786,-0.17988965,0.19514634,0.0,0.0,0.0,-1.0
10409167,10409055,-0.02206943,0.036556687,-0.14879273,0.20070875,0.0,0.0,0.0,-1.0
10412427,10412279,0.0026965467,-0.0062712785,-0.087166525,0.20070875,0.0,0.0,0.0,-1.0
10415570,10415468,0.00393265,-0.025659697,-0.103872634,0.20070875,0.0,0.0,0.0,-1.0
10419574,10419472,-0.014063918,0.01769152,-0.0936766,0.20070875,0.0,0.0,0.0,-1.0
10421973,10421855,0.010710227,0.0117725395,0.02540369,0.20070875,0.0,0.0,0.0,-1.0
10425985,10425874,0.037454408,-0.01867131,0.043802,0.20070875,0.0,0.0,0.0,-1.0
10429974,10429855,0.004446542,0.023881944,-0.05980271,0.20458119,0.0,0.0,0.0,-1.0
10433333,10433172,0.003997189,0.0071384036,-0.08078373,0.20458119,0.0,0.0,0.0,-1.0
10437181,10437055,0.004501061,-0.015407499,-0.11749537,0.20458119,0.0,0.0,0.0,-1.0
10440363,10440255,-0.0086332075,0.008388884,-0.21321508,0.20458119,0.0,0.0,0.0,-1.0
10443564,10443455,0.0006859562,0.0025527757,-0.20516483,0.20458119,0.0,0.0,0.0,-1.0
10447571,10447455,-0.009929676,0.009323509,-0.17527486,0.20458119,0.0,0.0,0.0,-1.0
10450065,10449954,-0.038046155,0.020194285,-0.17615119,0.20458119,0.0,0.0,0.0,-1.0
10455559,10455456,-0.006361269,-0.006225222,-0.12590256,0.20449989,0.0,0.0,0.0,-1.0
10457970,10457855,-0.03050975,0.012213355,-0.029550731,0.20449989,0.0,0.0,0.0,-1.0
10461161,10461055,-0.061549366,0.004141128,0.01930984,0.20449989,0.0,0.0,0.0,-1.0
10465167,10465055,-0.0038641484,-0.046093483,0.061961845,0.20449989,0.0,0.0,0.0,-1.0
10468369,10468257,-0.0053950544,-0.02150431,0.05145504,0.20449989,0.0,0.0,0.0,-1.0
10471563,10471456,-0.049914535,-6.8742316e-05,0.029471975,0.20449989,0.0,0.0,0.0,-1.0
10475561,10475455,-0.0009739818,-0.055265564,-0.0012688441,0.20449989,0.0,0.0,0.0,-1.0
10479558,10479456,0.0139958775,-0.046917424,-0.12948269,0.20159623,0.0,0.0,0.0,-1.0
10481214,10481112,-0.019360341,-0.024314485,-0.1769014,0.20159623,0.0,0.0,0.0,-1.0
10485157,10485055,-0.014740444,-0.06665593,-0.19414453,0.20159623,0.0,0.0,0.0,-1.0
10489157,10489055,0.006694567,-0.0564664,-0.23237273,0.20159623,0.0,0.0,0.0,-1.0
10493239,10493063,-0.043414652,-0.035102453,-0.19369197,0.19842382,0.0,0.0,0.0,-1.0
10496367,10496257,-0.02930843,-0.049044333,-0.10009192,0.19842382,0.0,0.0,0.0,-1.0
10499561,10499455,-0.0056607802,-0.0538871,-0.043122012,0.19842382,0.0,0.0,0.0,-1.0
10503599,10503474,-0.009274845,-0.030164272,0.022890043,0.19842382,0.0,0.0,0.0,-1.0
10506768,10506657,-0.007295048,-0.036624122,0.0025619296,0.19842382,0.0,0.0,0.0,-1.0
10509168,10509066,-0.00842366,-0.018025557,0.08224364,0.19842382,0.0,0.0,0.0,-1.0
10513168,10513057,-0.016659698,-0.01501376,0.066405654,0.19842382,0.0,0.0,0.0,-1.0
10517230,10517126,0.03271047,-0.026931494,0.010191533,0.1965509,0.0,0.0,0.0,-1.0
10521168,10521055,-0.041528378,0.009419551,-0.107631214,0.1965509,0.0,0.0,0.0,-1.0
10524368,10524259,-0.050339445,-0.009410069,-0.14318758,0.1965509,0.0,0.0,0.0,-1.0
10527565,10527456,0.025030589,-0.029563136,-0.15024371,0.1965509,0.0,0.0,0.0,-1.0
10531573,10531464,-0.0262557,0.0071862936,-0.21638511,0.1965509,0.0,0.0,0.0,-1.0
10536372,10536257,-0.029231843,-0.028854478,-0.14387597,0.1965509,0.0,0.0,0.0,-1.0
10580366,10580257,0.024933144,0.007914081,-0.113161154,0.19550216,0.0,0.0,0.0,-1.0
10583560,10583457,-0.0016971482,-0.031619027,-0.105603024,0.19550216,0.0,0.0,0.0,-1.0
10587574,10587471,0.011417361,-0.037629623,0.0036856271,0.19550216,0.0,0.0,0.0,-1.0
10591565,10591456,0.028811367,0.0019950876,0.10468888,0.19550216,0.0,0.0,0.0,-1.0
10593211,10593063,-0.007006311,0.00195676,0.09603491,0.19550216,0.0,0.0,0.0,-1.0
10597160,10597057,0.006508296,-0.02279427,0.1296196,0.19550216,0.0,0.0,0.0,-1.0
10601233,10601128,0.07809638,-0.009221188,0.12057406,0.19550216,0.0,0.0,0.0,-1.0
10605167,10605055,-0.014505436,-0.014451806,0.035471924,0.19730788,0.0,0.0,0.0,-1.0
10608377,10608263,-0.023316652,-0.02098026,-0.026299573,0.19730788,0.0,0.0,0.0,-1.0
10611628,10611469,0.048518065,-0.033518385,-0.07450042,0.19730788,0.0,0.0,0.0,-1.0
10615558,10615456,-0.0021041548,-0.023746645,-0.13552712,0.19730788,0.0,0.0,0.0,-1.0
10618801,10618662,-0.078574196,-0.003994622,-0.1720381,0.19730788,0.0,0.0,0.0,-1.0
10621174,10621072,0.0053864773,-0.032954898,-0.1599144,0.19730788,0.0,0.0,0.0,-1.0
10625957,10625855,0.027312163,-0.03166176,-0.065048024,0.19730788,0.0,0.0,0.0,-1.0
10628371,10628255,-0.09644008,-0.027823359,-0.027374946,0.20015231,0.0,0.0,0.0,-1.0
10632364,10632256,-0.04391682,-0.06437034,0.029244062,0.20015231,0.0,0.0,0.0,-1.0
10636366,10636257,0.04303168,-0.09315589,0.11067814,0.20015231,0.0,0.0,0.0,-1.0
10639558,10639456,-0.08630108,-0.027211292,0.14129482,0.20015231,0.0,0.0,0.0,-1.0
10643564,10643455,-0.053881105,-0.047040075,0.10529834,0.20015231,0.0,0.0,0.0,-1.0
10647608,10647504,0.031014,-0.11416101,0.085344,0.20550357,0.0,0.0,0.0,-1.0
10649957,10649855,-0.048561137,-0.061949305,0.037753068,0.20550357,0.0,0.0,0.0,-1.0
10654017,10653861,-0.055649642,-0.0494188,-0.017926006,0.20550357,0.0,0.0,0.0,-1.0
10656364,10656256,0.028358815,-0.100597635,-0.08419829,0.20550357,0.0,0.0,0.0,-1.0
10660365,10660257,-0.02456554,-0.042035535,-0.09184138,0.20550357,0.0,0.0,0.0,-1.0
10664383,10664266,-0.109653346,0.016989477,-0.121507406,0.20550357,0.0,0.0,0.0,-1.0
10667559,10667457,-0.023246804,-0.05888194,-0.11549849,0.20550357,0.0,0.0,0.0,-1.0
10671577,10671468,-0.016075749,-0.043095194,-0.021101404,0.21510333,0.0,0.0,0.0,-1.0
10674885,10674743,-0.087865025,0.03063969,0.015541648,0.21510333,0.0,0.0,0.0,-1.0
10677969,10677856,-0.04108712,-0.038690124,0.02309905,0.21510333,0.0,0.0,0.0,-1.0
10681980,10681865,-0.010332199,-0.028658662,0.080431275,0.21510333,0.0,0.0,0.0,-1.0
10684376,10684260,-0.069139935,0.056027617,0.13285194,0.21510333,0.0,0.0,0.0,-1.0
10688372,10688262,-0.056834966,0.018420843,0.080493934,0.21510333,0.0,0.0,0.0,-1.0
10692446,10692277,0.039549872,-0.009478367,0.07020456,0.22705136,0.0,0.0,0.0,-1.0
10696378,10696272,-0.03685822,0.06370374,-0.01968263,0.22705136,0.0,0.0,0.0,-1.0
10699610,10699507,-0.03006043,0.010869342,-0.09331052,0.22705136,0.0,0.0,0.0,-1.0
10710009,10709907,-0.03285319,0.035039928,-0.078142434,0.23959932,0.0,0.0,0.0,-1.0
10712374,10712257,0.016778786,0.0076605165,-0.06472711,0.23959932,0.0,0.0,0.0,-1.0
10716433,10716265,0.027265005,0.040945962,0.027673755,0.23959932,0.0,0.0,0.0,-1.0
10720429,10720310,-0.028518284,0.032087818,0.052009605,0.23959932,0.0,0.0,0.0,-1.0
10723570,10723460,0.027200658,-0.0071300725,0.13232481,0.23959932,0.0,0.0,0.0,-1.0
10727570,10727468,0.041677184,0.025913138,0.19993614,0.23959932,0.0,0.0,0.0,-1.0
10731561,10731459,-0.014010183,0.010607378,0.1348778,0.23959932,0.0,0.0,0.0,-1.0
10735601,10735499,0.056371585,0.0008545043,0.100023225,0.25233218,0.0,0.0,0.0,-1.0
10737968,10737866,0.025954485,0.03576093,0.049558695,0.25233218,0.0,0.0,0.0,-1.0
10740366,10740257,-0.010101467,0.03280712,-0.030178905,0.25233218,0.0,0.0,0.0,-1.0
10744373,10744260,0.013610903,-0.026236186,-0.121986315,0.25233218,0.0,0.0,0.0,-1.0
10748375,10748273,0.021149416,0.026736503,-0.110858396,0.26360568,0.0,0.0,0.0,-1.0
10751610,10751504,-0.029003521,0.025491385,-0.13228439,0.26360568,0.0,0.0,0.0,-1.0
10755587,10755484,-0.01423946,-0.033769146,-0.110629395,0.26360568,0.0,0.0,0.0,-1.0
10759558,10759456,-0.01800162,0.020728135,0.03828893,0.26360568,0.0,0.0,0.0,-1.0
10762009,10761907,-0.044469725,0.032725513,0.0371534,0.26360568,0.0,0.0,0.0,-1.0
10765971,10765855,-0.05021918,-0.03676617,0.11274128,0.26360568,0.0,0.0,0.0,-1.0
10769237,10769129,-0.0030081586,0.0060178726,0.13360587,0.26360568,0.0,0.0,0.0,-1.0
10772518,10772365,-0.0503765,0.03372588,0.1790399,0.27261144,0.0,0.0,0.0,-1.0
10775569,10775459,-0.03505067,-0.03270024,0.11750251,0.27261144,0.0,0.0,0.0,-1.0
10779580,10779470,0.01820688,-0.02283679,0.075423084,0.27261144,0.0,0.0,0.0,-1.0
10783561,10783458,-0.048635222,0.018124841,-0.054628447,0.27261144,0.0,0.0,0.0,-1.0
10786766,10786655,-0.033011645,-0.04695214,-0.14854978,0.27261144,0.0,0.0,0.0,-1.0
10790021,10789875,0.009244362,-0.048708513,-0.12597573,0.27261144,0.0,0.0,0.0,-1.0
10793966,10793857,-0.05318047,0.018267965,-0.14494473,0.27261144,0.0,0.0,0.0,-1.0
10797161,10797055,-0.022987317,-0.0071556764,-0.07028682,0.28177008,0.0,0.0,0.0,-1.0
10801172,10801058,0.0042676046,-0.004944058,0.02332414,0.28177008,0.0,0.0,0.0,-1.0
10803636,10803511,-0.03935952,0.024153715,0.07486819,0.28177008,0.0,0.0,0.0,-1.0
10807558,10807456,-0.009624974,-0.028087765,0.114839435,0.28177008,0.0,0.0,0.0,-1.0
10811570,10811457,0.019515714,-0.025786147,0.23586357,0.28177008,0.0,0.0,0.0,-1.0
10815567,10815457,-0.039790627,0.039672133,0.18022302,0.29382664,0.0,0.0,0.0,-1.0
10818018,10817871,-0.015934914,0.016607966,0.14554435,0.29382664,0.0,0.0,0.0,-1.0
10821964,10821858,0.0184616,-0.003033487,0.1168487,0.29382664,0.0,0.0,0.0,-1.0
10825173,10825057,-0.02434258,0.029223777,0.03544927,0.29382664,0.0,0.0,0.0,-1.0
10829167,10829055,0.010106111,0.0044127963,-0.03909891,0.29382664,0.0,0.0,0.0,-1.0
10842766,10842655,-0.007320964,0.00030576903,-0.043776743,0.30777028,0.0,0.0,0.0,-1.0
10845972,10845871,-0.028916413,-0.0028388132,0.032784913,0.30777028,0.0,0.0,0.0,-1.0
10849964,10849855,-0.022185303,-0.0005759713,0.098020636,0.30777028,0.0,0.0,0.0,-1.0
10853333,10853175,-0.017380826,0.0029099993,0.11493942,0.30777028,0.0,0.0,0.0,-1.0
10857169,10857055,-0.009986074,-0.010264331,0.13525929,0.30777028,0.0,0.0,0.0,-1.0
10859558,10859456,-0.009980706,-0.007590062,0.18958399,0.30777028,0.0,0.0,0.0,-1.0
10863566,10863456,-0.016836513,-0.00678869,0.12903588,0.3207156,0.0,0.0,0.0,-1.0
10867560,10867457,0.0011503708,-0.021979747,-0.0021832213,0.3207156,0.0,0.0,0.0,-1.0
10871558,10871456,-0.040101264,0.0038230373,-0.1026018,0.3207156,0.0,0.0,0.0,-1.0
10874022,10873864,-0.028752415,-0.023728564,-0.13353597,0.3207156,0.0,0.0,0.0,-1.0
10877964,10877861,-0.0023471317,-0.01510792,-0.18676895,0.3305251,0.0,0.0,0.0,-1.0
10881159,10881057,-0.04286878,0.026295718,-0.12178045,0.3305251,0.0,0.0,0.0,-1.0
10885167,10885055,-0.009832375,-0.017374232,-0.06225776,0.3305251,0.0,0.0,0.0,-1.0
10887558,10887456,0.004305116,-0.031280763,-0.028429218,0.3305251,0.0,0.0,0.0,-1.0
10891609,10891463,-0.07065577,0.021168573,0.057409696,0.3305251,0.0,0.0,0.0,-1.0
10895559,10895457,-0.00957248,-0.047940496,0.19643924,0.3305251,0.0,0.0,0.0,-1.0
10898778,10898664,-0.018450733,-0.031121992,0.21229212,0.3305251,0.0,0.0,0.0,-1.0
10901957,10901855,-0.075799264,0.026859779,0.19311377,0.3365509,0.0,0.0,0.0,-1.0
10905964,10905862,0.018504066,-0.05887721,0.16612126,0.3365509,0.0,0.0,0.0,-1.0
10909157,10909055,-0.00078701414,-0.01853158,0.053768545,0.3365509,0.0,0.0,0.0,-1.0
10913234,10913064,-0.053108998,-0.006520634,-0.028934056,0.3365509,0.0,0.0,0.0,-1.0
10915576,10915469,0.009336568,-0.081010774,-0.11289389,0.3365509,0.0,0.0,0.0,-1.0
10918825,10918660,0.0005816312,-0.061668057,-0.17156912,0.3365509,0.0,0.0,0.0,-1.0
10923571,10923469,-0.07274936,-0.015329334,-0.1872037,0.34010026,0.0,0.0,0.0,-1.0
10926766,10926655,0.015510089,-0.07729457,-0.09922401,0.34010026,0.0,0.0,0.0,-1.0
10929957,10929855,-0.040696014,-0.021594815,-0.039518464,0.34010026,0.0,0.0,0.0,-1.0
10934025,10933869,-0.06678044,-0.02202781,0.063295715,0.34010026,0.0,0.0,0.0,-1.0
10937237,10937133,0.020093981,-0.082821734,0.16212296,0.34010026,0.0,0.0,0.0,-1.0
10941177,10941064,-0.059919402,0.028402101,0.17210792,0.3433344,0.0,0.0,0.0,-1.0
10944367,10944257,-0.03522102,-0.011613122,0.11952655,0.3433344,0.0,0.0,0.0,-1.0
10946765,10946655,0.03967175,-0.059892416,0.20718846,0.3433344,0.0,0.0,0.0,-1.0
10950837,10950663,-0.05237161,0.02456534,0.0860398,0.3433344,0.0,0.0,0.0,-1.0
10954766,10954655,-0.009592977,-0.036762327,0.035406053,0.3433344,0.0,0.0,0.0,-1.0
10957957,10957855,0.039226834,-0.056266245,-0.01796195,0.3433344,0.0,0.0,0.0,-1.0
10961957,10961855,-0.052059863,0.020180546,-0.15335366,0.3433344,0.0,0.0,0.0,-1.0
10965163,10965055,0.014747446,-0.015416701,-0.11902199,0.34820616,0.0,0.0,0.0,-1.0
10969171,10969055,0.03305523,-0.010118135,-0.1088821,0.34820616,0.0,0.0,0.0,-1.0
10972363,10972255,-0.044236593,0.021705376,-0.07468871,0.34820616,0.0,0.0,0.0,-1.0
10974766,10974655,0.004854282,-0.02203871,0.0038429946,0.34820616,0.0,0.0,0.0,-1.0
10978781,10978657,0.024433224,-0.01727992,0.07582234,0.34820616,0.0,0.0,0.0,-1.0
10982783,10982670,-0.032654844,0.00057381764,0.119204,0.34820616,0.0,0.0,0.0,-1.0
10985957,10985855,0.032951836,-0.011707156,0.2213346,0.35901543,0.0,0.0,0.0,-1.0
10989957,10989855,0.0040249885,0.0077415397,0.13737398,0.35901543,0.0,0.0,0.0,-1.0
10993166,10993064,-0.008332051,0.010553869,0.11525054,0.35901543,0.0,0.0,0.0,-1.0
10997174,10997059,0.045087386,-0.01368418,0.088627845,0.35901543,0.0,0.0,0.0,-1.0
11000376,11000273,-0.0118903555,-0.00074345525,-0.015407528,0.35901543,0.0,0.0,0.0,-1.0
11002769,11002657,-0.013173296,-0.0022477657,-0.07383273,0.35901543,0.0,0.0,0.0,-1.0
11006768,11006657,0.01793879,0.009924288,-0.096497685,0.36605954,0.0,0.0,0.0,-1.0
11010771,11010659,-0.03546817,0.0059667565,-0.17994621,0.36605954,0.0,0.0,0.0,-1.0
11013959,11013857,-0.0154805565,0.008820056,-0.101265416,0.36605954,0.0,0.0,0.0,-1.0
11017970,11017855,-0.030416988,0.004258442,-0.05752693,0.36605954,0.0,0.0,0.0,-1.0
11021239,11021126,-0.047093604,-0.015692204,-0.0057366407,0.36605954,0.0,0.0,0.0,-1.0
11025178,11025058,-0.0331622,-0.014456066,0.15931977,0.36605954,0.0,0.0,0.0,-1.0
11028373,11028258,-0.036501795,-0.016922392,0.08718804,0.36605954,0.0,0.0,0.0,-1.0
11030766,11030655,-0.03932336,-0.035389833,0.1649211,0.36639103,0.0,0.0,0.0,-1.0
11034843,11034665,-0.01519369,-0.019563522,0.20110883,0.36639103,0.0,0.0,0.0,-1.0
11038773,11038655,-0.019168252,-0.037284873,0.07913608,0.36639103,0.0,0.0,0.0,-1.0
11041961,11041858,0.0024309522,-0.055156317,0.04246874,0.36639103,0.0,0.0,0.0,-1.0
11045975,11045858,-0.016108831,-0.043627113,-0.046988137,0.36639103,0.0,0.0,0.0,-1.0
11049167,11049055,-0.0075392444,-0.06007984,-0.1546194,0.36639103,0.0,0.0,0.0,-1.0
11053305,11053152,-0.0030956324,-0.05218802,-0.11044647,0.36479467,0.0,0.0,0.0,-1.0
11056370,11056257,-0.024373177,-0.050475284,-0.07861513,0.36479467,0.0,0.0,0.0,-1.0
11058766,11058655,0.0055546807,-0.081617355,-0.107623376,0.36479467,0.0,0.0,0.0,-1.0
11062766,11062655,-0.007449471,-0.051189672,0.030956736,0.36479467,0.0,0.0,0.0,-1.0
11066777,11066657,-0.022743404,-0.059896767,0.08369904,0.36479467,0.0,0.0,0.0,-1.0
11070795,11070684,0.018618952,-0.07410493,0.19312893,0.3641399,0.0,0.0,0.0,-1.0
11074013,11073910,-0.02965098,-0.029656462,0.19308323,0.3641399,0.0,0.0,0.0,-1.0
11077164,11077055,-0.0042552603,-0.05970163,0.15698612,0.3641399,0.0,0.0,0.0,-1.0
11081190,11081077,0.0447924,-0.057732925,0.13920304,0.3641399,0.0,0.0,0.0,-1.0
11084424,11084312,-0.026936505,-0.007933134,0.059820984,0.3641399,0.0,0.0,0.0,-1.0
11088408,11088306,0.047172043,-0.06429461,-0.03170453,0.3641399,0.0,0.0,0.0,-1.0
11091597,11091486,0.025244202,-0.047011662,-0.021765236,0.3641399,0.0,0.0,0.0,-1.0
11094845,11094732,-0.049833573,-0.0014985157,-0.13388462,0.36455005,0.0,0.0,0.0,-1.0
11097980,11097869,0.039154176,-0.05838704,-0.099498406,0.36455005,0.0,0.0,0.0,-1.0
11101999,11101889,-0.009736473,-0.008771652,-0.0811554,0.36455005,0.0,0.0,0.0,-1.0
11105962,11105858,-0.043066584,-0.020991925,-0.02330706,0.36455005,0.0,0.0,0.0,-1.0
11109175,11109055,0.068349764,-0.05815128,0.11012178,0.36455005,0.0,0.0,0.0,-1.0
11113965,11113862,-0.06815271,-0.012749136,0.13068916,0.36455005,0.0,0.0,0.0,-1.0
11116438,11116264,-0.039585352,-0.035891857,0.1815588,0.36455005,0.0,0.0,0.0,-1.0
11119559,11119457,0.053552315,-0.044995558,0.13466817,0.36415082,0.0,0.0,0.0,-1.0
11122021,11121898,-0.011414824,-0.020289183,0.10786694,0.36415082,0.0,0.0,0.0,-1.0
11126009,11125903,-0.008089089,-0.03890567,0.06351176,0.36415082,0.0,0.0,0.0,-1.0
11129962,11129856,0.04622341,-0.035481974,-0.0021527791,0.36415082,0.0,0.0,0.0,-1.0
11133967,11133865,-0.054574966,-0.030974995,-0.11734382,0.36415082,0.0,0.0,0.0,-1.0
11137169,11137056,0.009526239,-0.04390074,-0.081251845,0.36415082,0.0,0.0,0.0,-1.0
11140375,11140257,0.013814709,-0.03680372,-0.1063185,0.35984898,0.0,0.0,0.0,-1.0
11143568,11143466,-0.051060736,-0.04383041,-0.0619095,0.35984898,0.0,0.0,0.0,-1.0
11147557,11147455,0.0078039067,-0.035064913,0.014155049,0.35984898,0.0,0.0,0.0,-1.0
11150021,11149864,-0.0012193997,-0.037819378,0.014843139,0.35984898,0.0,0.0,0.0,-1.0
11153973,11153869,-0.051238257,-0.058208007,0.10591784,0.35984898,0.0,0.0,0.0,-1.0
11157968,11157855,0.010966721,-0.02652714,0.21054406,0.34796336,0.0,0.0,0.0,-1.0
11161158,11161056,-0.020458749,-0.045514055,0.1704457,0.34796336,0.0,0.0,0.0,-1.0
11165177,11165065,-0.014457095,-0.047254894,0.19244204,0.34796336,0.0,0.0,0.0,-1.0
11169165,11169056,0.008506626,-0.024503877,0.1029411,0.34796336,0.0,0.0,0.0,-1.0
11171625,11171467,-0.010527768,-0.051528297,0.0586978,0.34796336,0.0,0.0,0.0,-1.0
11175570,11175468,0.005785971,-0.03968911,0.046629306,0.34796336,0.0,0.0,0.0,-1.0
11178007,11177904,0.013231449,-0.030640194,-0.050399147,0.34796336,0.0,0.0,0.0,-1.0
11181957,11181855,0.004085842,-0.06424613,-0.06009341,0.33504915,0.0,0.0,0.0,-1.0
11185968,11185857,0.0034989761,-0.018616559,-0.041318934,0.33504915,0.0,0.0,0.0,-1.0
11189242,11189129,-0.00015802041,-0.04293953,-0.061212223,0.33504915,0.0,0.0,0.0,-1.0
11193169,11193056,0.007345172,-0.056467317,0.056545552,0.33504915,0.0,0.0,0.0,-1.0
11196375,11196257,-0.010607363,-0.0047782436,0.0922671,0.33504915,0.0,0.0,0.0,-1.0
11199564,11199455,0.0010395697,-0.06298619,0.16803938,0.31652847,0.0,0.0,0.0,-1.0
11203566,11203463,0.012410267,-0.05256607,0.22717589,0.31652847,0.0,0.0,0.0,-1.0
11206012,11205910,-0.012702702,-0.004263421,0.22519237,0.31652847,0.0,0.0,0.0,-1.0
11210011,11209864,0.015696634,-0.06331017,0.21418084,0.31652847,0.0,0.0,0.0,-1.0
11213957,11213855,0.03169579,-0.02492803,0.15574335,0.31652847,0.0,0.0,0.0,-1.0
11217962,11217856,-0.017317953,-0.015730651,0.01194042,0.31652847,0.0,0.0,0.0,-1.0
11221167,11221055,0.030589994,-0.061286524,0.019785613,0.31652847,0.0,0.0,0.0,-1.0
11225982,11225871,-0.0027446754,-0.013241536,-0.06954975,0.29768807,0.0,0.0,0.0,-1.0
11227559,11227457,-0.013447985,-0.026068917,0.013831339,0.29768807,0.0,0.0,0.0,-1.0
11231606,11231461,0.013499486,-0.052792434,0.0865942,0.29768807,0.0,0.0,0.0,-1.0
11234758,11234655,0.01807968,-0.036844436,0.07246928,0.29768807,0.0,0.0,0.0,-1.0
11237168,11237066,-0.008920937,-0.029621217,0.03242314,0.29768807,0.0,0.0,0.0,-1.0
11241158,11241056,-0.017396612,-0.024724053,0.17309922,0.29768807,0.0,0.0,0.0,-1.0
11245157,11245055,0.011238105,-0.023254335,0.15029186,0.29768807,0.0,0.0,0.0,-1.0
11249168,11249056,-0.0065790373,-0.026419468,0.24181907,0.28363493,0.0,0.0,0.0,-1.0
11252432,11252263,-0.02471868,-0.010980694,0.22955225,0.28363493,0.0,0.0,0.0,-1.0
11255559,11255457,0.018742533,-0.022136904,0.1511161,0.28363493,0.0,0.0,0.0,-1.0
11259578,11259462,0.0075313416,-0.018573344,0.13392414,0.28363493,0.0,0.0,0.0,-1.0
11262768,11262662,-0.0243429,-0.01099328,0.13426113,0.27381083,0.0,0.0,0.0,-1.0
11265162,11265056,0.021759568,-0.016692448,0.042381003,0.27381083,0.0,0.0,0.0,-1.0
11269167,11269066,0.013203895,-0.01363455,0.042110465,0.27381083,0.0,0.0,0.0,-1.0
11273312,11273172,-0.041712858,0.005257887,-0.00089020724,0.27381083,0.0,0.0,0.0,-1.0
11277167,11277055,0.051484205,-0.019953674,0.054193124,0.27381083,0.0,0.0,0.0,-1.0
11281158,11281056,-0.031634815,-0.0039567016,0.06390533,0.27381083,0.0,0.0,0.0,-1.0
11283631,11283461,-0.041745633,0.010816752,0.08194997,0.27381083,0.0,0.0,0.0,-1.0
11287559,11287457,0.042423453,0.002706635,0.19962242,0.26334286,0.0,0.0,0.0,-1.0
11290809,11290663,0.0036073439,-0.016879564,0.1719915,0.26334286,0.0,0.0,0.0,-1.0
11293177,11293075,-0.022578442,-0.008021152,0.18828037,0.26334286,0.0,0.0,0.0,-1.0
11308375,11308258,-0.00015449846,0.04873127,0.07759378,0.26334286,0.0,0.0,0.0,-1.0
11311613,11311465,0.03208253,-0.047108795,0.030296637,0.2499755,0.0,0.0,0.0,-1.0
11315557,11315455,0.047223486,-0.0491782,0.086483344,0.2499755,0.0,0.0,0.0,-1.0
11318763,11318661,-0.011503035,0.030413503,0.10272212,0.2499755,0.0,0.0,0.0,-1.0
11322837,11322716,0.027750008,-0.04523821,0.12271027,0.2499755,0.0,0.0,0.0,-1.0
11325157,11325055,0.036044806,-0.06716711,0.14892843,0.2499755,0.0,0.0,0.0,-1.0
11329161,11329057,-0.017022302,0.0019424926,0.15317725,0.23791923,0.0,0.0,0.0,-1.0
11333167,11333055,0.024990918,-0.040801473,0.2043808,0.23791923,0.0,0.0,0.0,-1.0
11337172,11337056,0.02073917,-0.05754324,0.19391744,0.23791923,0.0,0.0,0.0,-1.0
11339563,11339457,0.0015267148,-0.034836188,0.16067111,0.23791923,0.0,0.0,0.0,-1.0
11343578,11343476,0.0074850526,-0.00956601,0.15033333,0.23791923,0.0,0.0,0.0,-1.0
11346760,11346657,0.01145035,-0.044869244,0.118566595,0.23791923,0.0,0.0,0.0,-1.0
11349161,11349055,0.019579012,-0.06146219,0.042947777,0.23791923,0.0,0.0,0.0,-1.0
11353164,11353058,-0.010067011,-0.0067551974,0.07596566,0.2308638,0.0,0.0,0.0,-1.0
11357237,11357129,-0.017378833,-0.04588345,-0.0040598838,0.2308638,0.0,0.0,0.0,-1.0
11361174,11361056,0.034630112,-0.07286919,0.094098166,0.2308638,0.0,0.0,0.0,-1.0
11364375,11364258,-0.023737675,0.0026622387,0.11148694,0.2308638,0.0,0.0,0.0,-1.0
11367564,11367455,-0.046747036,-0.026511772,0.06546813,0.22582267,0.0,0.0,0.0,-1.0
11371567,11371457,0.025867576,-0.0751555,0.17618823,0.22582267,0.0,0.0,0.0,-1.0
11374757,11374655,-0.012411937,-0.029879026,0.19009954,0.22582267,0.0,0.0,0.0,-1.0
11377195,11377091,-0.032800898,-0.016902562,0.18333301,0.22582267,0.0,0.0,0.0,-1.0
11381964,11381855,0.006938303,-0.03184883,0.20317712,0.22582267,0.0,0.0,0.0,-1.0
11384382,11384257,-0.018829947,-0.010220586,0.20195585,0.22582267,0.0,0.0,0.0,-1.0
11388377,11388259,0.0060579344,-0.015410203,0.14768842,0.22582267,0.0,0.0,0.0,-1.0
11393987,11393883,-0.0069308095,-0.014541006,0.099705994,0.22082868,0.0,0.0,0.0,-1.0
11395624,11395467,-0.021023104,-0.009198144,0.013528253,0.22082868,0.0,0.0,0.0,-1.0
11399564,11399455,0.027914269,-0.009581499,0.04757743,0.22082868,0.0,0.0,0.0,-1.0
11402764,11402655,0.0032845344,0.0208539,0.021241166,0.22082868,0.0,0.0,0.0,-1.0
11405957,11405855,-0.02390331,-0.012986536,0.015971303,0.22082868,0.0,0.0,0.0,-1.0
11409977,11409866,0.019750545,-0.00881085,0.10910409,0.22082868,0.0,0.0,0.0,-1.0
11412438,11412263,0.0077946917,0.031107057,0.13941322,0.21799608,0.0,0.0,0.0,-1.0
11417236,11417132,-0.0018863505,-0.026686722,0.12221539,0.21799608,0.0,0.0,0.0,-1.0
11420383,11420257,0.0081841955,-0.0034813266,0.2122957,0.21799608,0.0,0.0,0.0,-1.0
11423567,11423457,-0.012494765,0.028747885,0.2156869,0.21799608,0.0,0.0,0.0,-1.0
11427633,11427520,0.02888728,-0.026155049,0.17228349,0.21799608,0.0,0.0,0.0,-1.0
11430841,11430686,0.014889762,-0.026740385,0.17277254,0.21736316,0.0,0.0,0.0,-1.0
11434793,11434684,-0.03502228,0.010561184,0.08673229,0.21736316,0.0,0.0,0.0,-1.0
11438011,11437909,0.023998506,-0.025641028,0.104789294,0.21736316,0.0,0.0,0.0,-1.0
11440375,11440257,0.04317562,-0.032233816,0.052343544,0.21736316,0.0,0.0,0.0,-1.0
11444392,11444274,-0.034712225,-0.007904775,-0.04742508,0.21736316,0.0,0.0,0.0,-1.0
11448435,11448317,0.0027993503,-0.0032439302,0.011617525,0.21736316,0.0,0.0,0.0,-1.0
11452443,11452276,0.012989457,-0.007360881,0.015009767,0.21736316,0.0,0.0,0.0,-1.0
11455576,11455474,-0.014343931,-0.080161825,0.024204955,0.21711986,0.0,0.0,0.0,-1.0
11458810,11458707,-0.015279441,-0.04755409,0.14333473,0.21711986,0.0,0.0,0.0,-1.0
11461964,11461855,-0.016565504,-0.015247179,0.17858097,0.21711986,0.0,0.0,0.0,-1.0
11465973,11465870,0.0057704286,-0.07490028,0.16140775,0.21711986,0.0,0.0,0.0,-1.0
11468379,11468255,0.012999212,-0.071053125,0.22065556,0.21711986,0.0,0.0,0.0,-1.0
11473963,11473858,-0.027454052,-0.016176933,0.16103134,0.21711986,0.0,0.0,0.0,-1.0
11476385,11476273,0.023398051,-0.11637677,0.16082233,0.21729492,0.0,0.0,0.0,-1.0
11479619,11479513,0.036621355,-0.114723064,0.1355615,0.21729492,0.0,0.0,0.0,-1.0
11483557,11483455,-0.05172641,-0.051533125,0.029487867,0.21729492,0.0,0.0,0.0,-1.0
11486768,11486666,-0.022236604,-0.07255983,-0.0012433948,0.21729492,0.0,0.0,0.0,-1.0
11489995,11489892,0.027262926,-0.09126151,0.07852354,0.21729492,0.0,0.0,0.0,-1.0
11493957,11493855,-0.017249152,-0.07270262,0.04766276,0.21729492,0.0,0.0,0.0,-1.0
11497960,11497856,-0.0065293163,-0.04352697,0.0977305,0.21729492,0.0,0.0,0.0,-1.0
11500431,11500319,0.011849852,-0.07799,0.13166854,0.21881747,0.0,0.0,0.0,-1.0
11504373,11504255,0.0050309096,-0.11726639,0.118392065,0.21881747,0.0,0.0,0.0,-1.0
11507580,11507465,0.0040894393,-0.08022803,0.19003801,0.21881747,0.0,0.0,0.0,-1.0
11511582,11511479,-0.00680642,0.004226407,0.21969816,0.21881747,0.0,0.0,0.0,-1.0
11514839,11514732,0.009703932,-0.05613702,0.14770272,0.21881747,0.0,0.0,0.0,-1.0
11518041,11517891,0.034886144,-0.06946919,0.17377697,0.21881747,0.0,0.0,0.0,-1.0
11521981,11521858,-0.0019335251,-0.023197073,0.16293195,0.2217432,0.0,0.0,0.0,-1.0
11524376,11524255,-0.014104464,-0.009316886,0.053428918,0.2217432,0.0,0.0,0.0,-1.0
11528412,11528294,0.038269278,-0.028225949,0.050759017,0.2217432,0.0,0.0,0.0,-1.0
11531685,11531535,0.023965672,0.021119071,0.065169685,0.2217432,0.0,0.0,0.0,-1.0
11535564,11535455,0.0046854177,0.023953073,-0.025429599,0.2217432,0.0,0.0,0.0,-1.0
11539573,11539460,0.012244959,0.048682295,0.036760848,0.2217432,0.0,0.0,0.0,-1.0
11557167,11557055,0.015238394,0.06555076,0.19878714,0.22520562,0.0,0.0,0.0,-1.0
11559578,11559470,0.0255205,0.08733136,0.24186769,0.22520562,0.0,0.0,0.0,-1.0
11563557,11563455,-0.01486211,0.06495747,0.114170685,0.22520562,0.0,0.0,0.0,-1.0
11567563,11567458,0.016551003,0.0860982,0.119990446,0.22816855,0.0,0.0,0.0,-1.0
11571568,11571456,0.02856606,0.09865762,0.101784445,0.22816855,0.0,0.0,0.0,-1.0
11574028,11573865,0.025566192,0.04699377,0.027640156,0.22816855,0.0,0.0,0.0,-1.0
11578773,11578671,-0.01788076,0.06891124,0.064395934,0.22816855,0.0,0.0,0.0,-1.0
11581160,11581058,-0.01715748,0.10385603,0.10906477,0.22816855,0.0,0.0,0.0,-1.0
11585167,11585055,0.014436366,0.020722829,0.07452617,0.22943157,0.0,0.0,0.0,-1.0
11587557,11587455,0.038663767,-0.013298348,0.069843635,0.22943157,0.0,0.0,0.0,-1.0
11591557,11591455,-0.028563421,0.059209928,0.15210854,0.22943157,0.0,0.0,0.0,-1.0
11595577,11595475,0.0007284228,-0.009263744,0.14745551,0.22943157,0.0,0.0,0.0,-1.0
11598751,11598648,0.040591277,-0.046345133,0.17687696,0.22943157,0.0,0.0,0.0,-1.0
11602801,11602692,-0.03864698,0.01247602,0.13207605,0.22943157,0.0,0.0,0.0,-1.0
11605974,11605855,-0.036765806,-0.013594282,0.09496918,0.22943157,0.0,0.0,0.0,-1.0
11609230,11609126,0.024782443,-0.027505718,0.14348783,0.22861297,0.0,0.0,0.0,-1.0
11613225,11613061,-0.00449537,-0.03152258,0.068387106,0.22861297,0.0,0.0,0.0,-1.0
11615559,11615457,-0.02017644,-0.06425622,-0.023865612,0.22861297,0.0,0.0,0.0,-1.0
11619565,11619456,0.0043667783,-0.03914137,0.048779994,0.22861297,0.0,0.0,0.0,-1.0
11623560,11623457,-0.013679653,-0.08303536,-0.01029418,0.226935,0.0,0.0,0.0,-1.0
11626758,11626656,-0.022907376,-0.10467442,-0.0072667375,0.226935,0.0,0.0,0.0,-1.0
11629979,11629864,-0.03196016,-0.054208007,0.08806139,0.226935,0.0,0.0,0.0,-1.0
11634758,11634656,-0.017846305,-0.077858,0.118290365,0.226935,0.0,0.0,0.0,-1.0
11637157,11637055,0.0064192596,-0.0746115,0.14188194,0.226935,0.0,0.0,0.0,-1.0
11641169,11641057,-0.022247583,-0.020045735,0.18487096,0.226935,0.0,0.0,0.0,-1.0
11643558,11643456,-0.050039347,-0.021059668,0.21022445,0.226935,0.0,0.0,0.0,-1.0
11647570,11647455,0.02863039,-0.048513703,0.19906382,0.22534704,0.0,0.0,0.0,-1.0
11651560,11651458,-0.01801695,-0.0027273288,0.09958106,0.22534704,0.0,0.0,0.0,-1.0
11654759,11654656,-0.051143155,-0.0028020767,0.011740912,0.22534704,0.0,0.0,0.0,-1.0
11658794,11658692,0.03099578,-0.004999501,0.037288673,0.22534704,0.0,0.0,0.0,-1.0
11661968,11661857,0.023762206,-0.0029349048,-0.033703946,0.22534704,0.0,0.0,0.0,-1.0
11665157,11665055,-0.016779965,-0.0050935578,-0.021589648,0.22452475,0.0,0.0,0.0,-1.0
11669167,11669055,0.0029964838,0.033826042,0.055574156,0.22452475,0.0,0.0,0.0,-1.0
11671618,11671469,0.002456024,0.05392933,0.04573685,0.22452475,0.0,0.0,0.0,-1.0
11675557,11675455,0.0016009932,-0.018437723,0.06077774,0.22452475,0.0,0.0,0.0,-1.0
11679568,11679466,-0.00743827,0.05011599,0.19000977,0.22452475,0.0,0.0,0.0,-1.0
11682762,11682660,-0.014326869,0.052683823,0.18999952,0.22452475,0.0,0.0,0.0,-1.0
11685966,11685855,0.04023537,-0.012329958,0.18667802,0.22452475,0.0,0.0,0.0,-1.0
11690765,11690656,0.0019323954,0.071451835,0.2013707,0.22523694,0.0,0.0,0.0,-1.0
11693324,11693167,-0.02718051,0.07844804,0.1429575,0.22523694,0.0,0.0,0.0,-1.0
11697180,11697068,0.033411928,0.019200262,0.08633416,0.22523694,0.0,0.0,0.0,-1.0
11700366,11700257,0.032135982,0.035600577,0.071452,0.22523694,0.0,0.0,0.0,-1.0
11702772,11702658,-0.01608193,0.046516925,-0.02826401,0.22523694,0.0,0.0,0.0,-1.0
11706765,11706656,-0.007004104,0.041294962,-0.054577895,0.22523694,0.0,0.0,0.0,-1.0
11710757,11710655,0.05069825,0.016750306,-0.022825198,0.22523694,0.0,0.0,0.0,-1.0
11714801,11714692,-0.025259366,0.07287171,-0.047548905,0.22819954,0.0,0.0,0.0,-1.0
11717966,11717855,-0.03271155,0.10207364,0.059527658,0.22819954,0.0,0.0,0.0,-1.0
11721157,11721055,-0.0063869446,0.09693069,0.1307086,0.22819954,0.0,0.0,0.0,-1.0
11725167,11725055,0.003970744,0.010302754,0.11669377,0.22819954,0.0,0.0,0.0,-1.0
11728365,11728257,-0.022285394,0.1652739,0.116948076,0.23409064,0.0,0.0,0.0,-1.0
11730760,11730656,-0.030525748,0.17198728,0.22765407,0.23409064,0.0,0.0,0.0,-1.0
11734760,11734658,0.023311617,0.07606099,0.10927176,0.23409064,0.0,0.0,0.0,-1.0
11738758,11738656,-0.0009191097,0.08316501,0.06301781,0.23409064,0.0,0.0,0.0,-1.0
11741966,11741855,-0.027104665,0.11280146,0.03608587,0.23409064,0.0,0.0,0.0,-1.0
11746803,11746687,0.026934715,0.015177231,-0.03520657,0.23409064,0.0,0.0,0.0,-1.0
11749157,11749055,0.016339732,0.009208695,-0.03636226,0.23409064,0.0,0.0,0.0,-1.0
11753201,11753082,-0.050917726,0.14156963,-0.06978623,0.24316163,0.0,0.0,0.0,-1.0
11756373,11756257,-0.022138262,0.121191494,-0.044046298,0.24316163,0.0,0.0,0.0,-1.0
11758757,11758655,0.008548346,0.043334752,-0.017312875,0.24316163,0.0,0.0,0.0,-1.0
11765161,11765059,-0.037298873,0.029195957,0.040354915,0.24316163,0.0,0.0,0.0,-1.0
11766773,11766663,-0.017754273,0.014721356,0.089171715,0.24316163,0.0,0.0,0.0,-1.0
11770838,11770728,-0.013644599,-0.006725583,0.14307511,0.24316163,0.0,0.0,0.0,-1.0
11773979,11773855,-0.05417192,0.00079740025,0.05971458,0.2549496,0.0,0.0,0.0,-1.0
11777234,11777117,-0.032492753,-0.024661943,0.04558954,0.2549496,0.0,0.0,0.0,-1.0
11781203,11781090,-0.001488742,-0.01911359,0.0776353,0.2549496,0.0,0.0,0.0,-1.0
11784369,11784257,-0.043778986,-0.01625673,-0.030213509,0.2549496,0.0,0.0,0.0,-1.0
11789166,11789059,0.013303823,-0.13484582,-0.06802119,0.2549496,0.0,0.0,0.0,-1.0
11790836,11790672,0.0176069,-0.098973066,-0.034744695,0.2549496,0.0,0.0,0.0,-1.0
11794768,11794657,-0.04787688,-0.12276314,-0.07018968,0.2549496,0.0,0.0,0.0,-1.0
11798786,11798684,0.013006592,-0.18902235,-0.050749537,0.2549496,0.0,0.0,0.0,-1.0
11802759,11802657,-0.010903729,-0.1614859,-0.0076984623,0.26951623,0.0,0.0,0.0,-1.0
11805168,11805055,-0.06213785,-0.14637817,-0.008087248,0.26951623,0.0,0.0,0.0,-1.0
11809182,11809066,0.014069414,-0.19627881,0.007245875,0.26951623,0.0,0.0,0.0,-1.0
11813166,11813056,0.046847574,-0.19679415,0.08156233,0.26951623,0.0,0.0,0.0,-1.0
11814763,11814657,-0.008995909,-0.16281714,0.084977,0.26951623,0.0,0.0,0.0,-1.0
11818827,11818664,-0.0015215795,-0.17684107,-0.025487388,0.28810322,0.0,0.0,0.0,-1.0
11822795,11822693,0.038237013,-0.17937478,-0.011516262,0.28810322,0.0,0.0,0.0,-1.0
11828366,11828256,-0.019432431,-0.15953153,-0.097830325,0.28810322,0.0,0.0,0.0,-1.0
11829977,11829866,0.009997323,-0.14480613,-0.091164395,0.28810322,0.0,0.0,0.0,-1.0
11833282,11833120,0.043218184,-0.14664109,-0.06748841,0.28810322,0.0,0.0,0.0,-1.0
11837169,11837057,-0.004414116,-0.11736501,-0.13211451,0.31045222,0.0,0.0,0.0,-1.0
11840374,11840272,0.0064259632,-0.102620736,-0.14822283,0.31045222,0.0,0.0,0.0,-1.0
11843603,11843490,0.010306234,-0.11719623,-0.12669939,0.31045222,0.0,0.0,0.0,-1.0
11847628,11847511,0.0009254721,-0.1087088,-0.10257645,0.31045222,0.0,0.0,0.0,-1.0
11852368,11852256,0.0060492866,-0.035681155,-0.052723512,0.31045222,0.0,0.0,0.0,-1.0
11854815,11854696,-0.017496219,-0.011159014,0.023303144,0.31045222,0.0,0.0,0.0,-1.0
11857974,11857855,0.013567433,-0.014777338,0.007029664,0.33410922,0.0,0.0,0.0,-1.0
11861237,11861132,0.0342629,-0.02009187,-0.025433201,0.33410922,0.0,0.0,0.0,-1.0
11865171,11865055,-0.03141683,0.051680524,0.00034101153,0.33410922,0.0,0.0,0.0,-1.0
11868371,11868262,0.0081678815,0.013167784,-0.039658327,0.33410922,0.0,0.0,0.0,-1.0
11871656,11871499,0.026760418,-0.038461022,-0.1122803,0.33410922,0.0,0.0,0.0,-1.0
11876364,11876256,-0.03500319,0.051807646,-0.10730318,0.33410922,0.0,0.0,0.0,-1.0
11878026,11877906,0.0030920235,0.022534288,-0.1007016,0.33410922,0.0,0.0,0.0,-1.0
11881977,11881866,0.021644322,-0.0059308573,-0.10014986,0.36299413,0.0,0.0,0.0,-1.0
11885966,11885855,-0.03615717,0.040138215,-0.07588555,0.36299413,0.0,0.0,0.0,-1.0
11889161,11889055,0.013510444,0.01038793,-0.013122305,0.36299413,0.0,0.0,0.0,-1.0
11893184,11893067,-0.0049382714,-0.021612905,-0.004343333,0.36299413,0.0,0.0,0.0,-1.0
11896419,11896263,-0.03576622,0.0037332824,0.003457864,0.36299413,0.0,0.0,0.0,-1.0
11899558,11899455,0.0008222342,-0.018889267,-0.0022975642,0.36299413,0.0,0.0,0.0,-1.0
11903559,11903457,-0.013042349,-0.043659076,-0.029309211,0.40778562,0.0,0.0,0.0,-1.0
11906005,11905893,-0.019950928,-0.030212538,-0.024873257,0.40778562,0.0,0.0,0.0,-1.0
11909970,11909858,0.0012172746,-0.039280552,-0.026417032,0.40778562,0.0,0.0,0.0,-1.0
11917161,11917057,-0.025546134,-0.05820675,-0.115941554,0.40778562,0.0,0.0,0.0,-1.0
11921171,11921055,-0.01878662,-0.0600485,-0.095996015,0.40778562,0.0,0.0,0.0,-1.0
11924374,11924261,-0.025263079,-0.07856989,-0.13495299,0.45639965,0.0,0.0,0.0,-1.0
11927557,11927455,-0.011642954,-0.06947224,-0.087709285,0.45639965,0.0,0.0,0.0,-1.0
11932367,11932257,-0.030619184,-0.07223144,-0.023550488,0.45639965,0.0,0.0,0.0,-1.0
11934033,11933871,-0.029586123,-0.08192258,-0.021453023,0.45639965,0.0,0.0,0.0,-1.0
11937966,11937855,0.00077283755,-0.08601056,0.04409488,0.45639965,0.0,0.0,0.0,-1.0
11941977,11941858,-0.01965606,-0.07168438,0.055948224,0.45639965,0.0,0.0,0.0,-1.0
11945222,11945120,-0.016240746,-0.09048703,0.0010355229,0.5178759,0.0,0.0,0.0,-1.0
11949167,11949055,0.009956083,-0.08402591,-0.011845178,0.5178759,0.0,0.0,0.0,-1.0
11952430,11952265,-0.016343268,-0.05784678,-0.037322234,0.5178759,0.0,0.0,0.0,-1.0
11956364,11956256,0.011981777,-0.092398345,-0.078869395,0.5178759,0.0,0.0,0.0,-1.0
11959557,11959455,0.016606249,-0.07942783,-0.099499516,0.5178759,0.0,0.0,0.0,-1.0
11962013,11961902,-0.018093918,-0.03647704,-0.09348671,0.5178759,0.0,0.0,0.0,-1.0
11965966,11965855,0.012837415,-0.08423531,-0.09689031,0.5178759,0.0,0.0,0.0,-1.0
11969966,11969855,0.012633378,-0.056644227,-0.11454104,0.58403546,0.0,0.0,0.0,-1.0
11973195,11973065,-0.03936478,-0.02273015,-0.07130325,0.58403546,0.0,0.0,0.0,-1.0
11977180,11977055,0.042868033,-0.094645046,-0.06914905,0.58403546,0.0,0.0,0.0,-1.0
11980366,11980256,0.024318049,-0.04332817,-0.009314429,0.58403546,0.0,0.0,0.0,-1.0
11983557,11983455,-0.022990879,-0.052084714,-0.048555773,0.58403546,0.0,0.0,0.0,-1.0
11987560,11987456,0.04350547,-0.088932954,-0.046164136,0.58403546,0.0,0.0,0.0,-1.0
11990787,11990669,-0.009313904,-0.033594895,-0.019716254,0.58403546,0.0,0.0,0.0,-1.0
11993213,11993060,-0.038992107,-0.04270394,-0.04928252,0.62937665,0.0,0.0,0.0,-1.0
11997158,11997056,0.04805431,-0.089212485,-0.068908244,0.62937665,0.0,0.0,0.0,-1.0
12001157,12001055,-0.030956121,-0.033455588,-0.07991141,0.62937665,0.0,0.0,0.0,-1.0
12005192,12005077,0.034243673,-0.09744617,-0.11543487,0.62937665,0.0,0.0,0.0,-1.0
12008371,12008263,0.010135813,-0.053894427,-0.088873796,0.6491328,0.0,0.0,0.0,-1.0
12013178,12013056,-0.006911114,-0.086464256,-0.12663104,0.6491328,0.0,0.0,0.0,-1.0
12016373,12016257,0.012649174,-0.08367425,-0.0599265,0.6491328,0.0,0.0,0.0,-1.0
12018757,12018655,-0.024732267,-0.04776463,-0.0748744,0.6491328,0.0,0.0,0.0,-1.0
12021158,12021056,-0.0313861,-0.06888055,-0.05668742,0.6491328,0.0,0.0,0.0,-1.0
12025157,12025055,0.015320365,-0.08545372,-0.008101151,0.6491328,0.0,0.0,0.0,-1.0
12029241,12029135,-0.03945106,-0.053789783,-0.0043126335,0.6491328,0.0,0.0,0.0,-1.0
12033227,12033064,0.032481305,-0.10738882,-0.0019689258,0.6590976,0.0,0.0,0.0,-1.0
12036364,12036256,-0.006063683,-0.044918574,0.045649305,0.6590976,0.0,0.0,0.0,-1.0
12039583,12039455,-0.028193614,-0.087658934,-0.021588547,0.6590976,0.0,0.0,0.0,-1.0
12045158,12045056,-0.0019219018,-0.04056278,0.009874258,0.6590976,0.0,0.0,0.0,-1.0
12046762,12046658,-0.020601498,-0.06253416,-0.040732488,0.6590976,0.0,0.0,0.0,-1.0
12049181,12049079,0.0070272633,-0.10913731,-0.088529184,0.6590976,0.0,0.0,0.0,-1.0
12053161,12053058,0.018982064,-0.042735092,-0.012574999,0.6590976,0.0,0.0,0.0,-1.0
12057157,12057055,0.0024506617,-0.10438381,-0.08534586,0.66739887,0.0,0.0,0.0,-1.0
12061169,12061056,0.017437585,-0.043491956,0.0076259207,0.66739887,0.0,0.0,0.0,-1.0
12064365,12064257,-0.012810704,-0.068234704,-0.014689667,0.66739887,0.0,0.0,0.0,-1.0
12068374,12068256,0.025186628,-0.067631125,0.0030203993,0.66739887,0.0,0.0,0.0,-1.0
12071579,12071461,-0.0100760255,-0.035724364,0.06939613,0.66739887,0.0,0.0,0.0,-1.0
12074757,12074655,0.011564135,-0.09341358,-0.02978601,0.66739887,0.0,0.0,0.0,-1.0
12077161,12077057,0.02590562,-0.054899555,0.05458853,0.66739887,0.0,0.0,0.0,-1.0
12081157,12081055,-0.0056620818,-0.058108687,0.016404882,0.67632353,0.0,0.0,0.0,-1.0
12085158,12085056,0.02140869,-0.06359796,0.03444329,0.67632353,0.0,0.0,0.0,-1.0
12089167,12089055,-0.010388436,-0.05208446,0.0040167775,0.67632353,0.0,0.0,0.0,-1.0
12092364,12092256,0.004855022,-0.07078275,-0.026162911,0.67632353,0.0,0.0,0.0,-1.0
12095566,12095455,-0.010668859,-0.044466645,0.036890276,0.67632353,0.0,0.0,0.0,-1.0
12100373,12100271,0.00051691534,-0.060494818,-0.035587933,0.68546504,0.0,0.0,0.0,-1.0
12102757,12102655,0.0013217767,-0.05588369,0.018136613,0.68546504,0.0,0.0,0.0,-1.0
12105157,12105055,-0.013543751,-0.030323721,0.0133082345,0.68546504,0.0,0.0,0.0,-1.0
12109160,12109057,-0.0039560925,-0.06627439,0.0041472726,0.68546504,0.0,0.0,0.0,-1.0
12113258,12113146,-0.016499976,-0.039503623,0.02600296,0.68546504,0.0,0.0,0.0,-1.0
12117176,12117055,-0.02298279,-0.074540295,0.012385542,0.68546504,0.0,0.0,0.0,-1.0
12120387,12120258,0.0013889455,-0.07145188,0.057170004,0.68546504,0.0,0.0,0.0,-1.0
12125160,12125056,-0.021488756,-0.073851675,0.02355382,0.6928669,0.0,0.0,0.0,-1.0
12127573,12127455,0.007202463,-0.08850942,0.05190395,0.6928669,0.0,0.0,0.0,-1.0
12130764,12130655,-0.0035022488,-0.04035792,0.024230916,0.6928669,0.0,0.0,0.0,-1.0
12136427,12136262,0.012332249,-0.0753916,0.047545373,0.6928669,0.0,0.0,0.0,-1.0
12137173,12137064,0.018964345,-0.05956858,0.04873184,0.6928669,0.0,0.0,0.0,-1.0
12140375,12140256,-0.025658762,-0.058330454,0.0076848706,0.69856507,0.0,0.0,0.0,-1.0
12145206,12145090,0.020011015,-0.055656377,0.03348083,0.69856507,0.0,0.0,0.0,-1.0
12148375,12148261,-0.027816398,-0.05917236,0.009502308,0.69856507,0.0,0.0,0.0,-1.0
12151628,12151460,-0.0014619338,-0.10514524,0.016675517,0.69856507,0.0,0.0,0.0,-1.0
12156371,12156263,-0.026086884,-0.05566901,0.031844445,0.69856507,0.0,0.0,0.0,-1.0
12158784,12158655,-0.028702825,-0.10809447,0.021383304,0.69856507,0.0,0.0,0.0,-1.0
12162770,12162668,0.019224385,-0.051314924,0.06906208,0.7043138,0.0,0.0,0.0,-1.0
12165993,12165890,-0.038242824,-0.08888961,0.028623825,0.7043138,0.0,0.0,0.0,-1.0
12168365,12168257,0.020337332,-0.09048119,0.04626356,0.7043138,0.0,0.0,0.0,-1.0
12172390,12172262,-0.022848422,-0.056348003,0.05862619,0.7043138,0.0,0.0,0.0,-1.0
12176400,12176290,0.018957848,-0.091457926,0.032788977,0.7043138,0.0,0.0,0.0,-1.0
12180413,12180303,-0.03393301,-0.05102469,0.044119086,0.7043138,0.0,0.0,0.0,-1.0
12183622,12183501,-0.02313172,-0.114001594,0.010438037,0.7043138,0.0,0.0,0.0,-1.0
12186803,12186701,0.016625037,-0.03867836,0.038986485,0.71041477,0.0,0.0,0.0,-1.0
12190831,12190674,-0.058429223,-0.09895897,0.022814414,0.71041477,0.0,0.0,0.0,-1.0
12193969,12193862,0.013126958,-0.06033086,0.039134346,0.71041477,0.0,0.0,0.0,-1.0
12197297,12197182,-0.06171386,-0.06880119,0.056308605,0.71041477,0.0,0.0,0.0,-1.0
12200396,12200280,-0.0052534267,-0.09832875,0.04957753,0.71041477,0.0,0.0,0.0,-1.0
12204374,12204266,-0.030345678,-0.032924943,0.0832101,0.71041477,0.0,0.0,0.0,-1.0
12207607,12207490,-0.0311425,-0.10003573,0.06865982,0.71041477,0.0,0.0,0.0,-1.0
12212368,12212256,-0.012794254,-0.020230161,0.08790436,0.71493846,0.0,0.0,0.0,-1.0
12214825,12214673,-0.04790227,-0.07796078,0.07708871,0.71493846,0.0,0.0,0.0,-1.0
12218043,12217911,0.024177281,-0.047728978,0.056042295,0.71493846,0.0,0.0,0.0,-1.0
12221961,12221858,-0.026599767,-0.06181387,0.064442754,0.71493846,0.0,0.0,0.0,-1.0
12224377,12224257,0.008147466,-0.067133814,0.043240532,0.71493846,0.0,0.0,0.0,-1.0
12228403,12228291,0.0037574582,-0.024289861,0.041278005,0.71813154,0.0,0.0,0.0,-1.0
12232363,12232255,0.020191515,-0.062079854,0.0473236,0.71813154,0.0,0.0,0.0,-1.0
12236364,12236256,0.009328753,-0.035858646,0.038780715,0.71813154,0.0,0.0,0.0,-1.0
12239568,12239457,-0.0040647057,-0.06880627,0.06359297,0.71813154,0.0,0.0,0.0,-1.0
12242764,12242655,0.023158558,-0.03692821,0.051909875,0.71813154,0.0,0.0,0.0,-1.0
12245976,12245874,-0.0062339106,-0.06608631,0.060732286,0.71813154,0.0,0.0,0.0,-1.0
12249957,12249855,0.022054298,-0.03908819,0.075960025,0.720123,0.0,0.0,0.0,-1.0
12253987,12253862,-0.0023656273,-0.06822506,0.06840585,0.720123,0.0,0.0,0.0,-1.0
12256377,12256268,0.016037557,-0.056733914,0.102196164,0.720123,0.0,0.0,0.0,-1.0
12260364,12260256,-0.0059092236,-0.061152734,0.056874815,0.720123,0.0,0.0,0.0,-1.0
12263573,12263461,0.018696824,-0.062275708,0.080437005,0.720123,0.0,0.0,0.0,-1.0
12268364,12268256,-0.015914513,-0.06536622,0.03405387,0.720123,0.0,0.0,0.0,-1.0
12270751,12270649,0.022049615,-0.075291954,0.040681344,0.720123,0.0,0.0,0.0,-1.0
12274011,12273864,0.004904974,-0.028219068,0.07901649,0.7124253,0.0,0.0,0.0,-1.0
12277964,12277855,-0.0046623894,-0.082890555,0.03892067,0.7124253,0.0,0.0,0.0,-1.0
12280398,12280290,0.04425303,-0.037993364,0.069279134,0.7124253,0.0,0.0,0.0,-1.0
12284385,12284276,-0.047537986,-0.07281712,0.03587461,0.7124253,0.0,0.0,0.0,-1.0
12288367,12288259,0.038993407,-0.033820547,0.0741612,0.7124253,0.0,0.0,0.0,-1.0
12292368,12292259,-0.046031304,-0.08121118,0.06905534,0.6816914,0.0,0.0,0.0,-1.0
12295640,12295464,0.042389795,-0.061263695,0.073233664,0.6816914,0.0,0.0,0.0,-1.0
12298757,12298655,-0.017207392,-0.024109948,0.12508047,0.6816914,0.0,0.0,0.0,-1.0
12301957,12301855,-0.034847025,-0.11124197,0.07398527,0.6816914,0.0,0.0,0.0,-1.0
12305957,12305855,0.031464834,-0.010288209,0.11468068,0.6816914,0.0,0.0,0.0,-1.0
12309160,12309056,-0.04545854,-0.08355117,0.080645815,0.6816914,0.0,0.0,0.0,-1.0
12313167,12313055,0.0457004,-0.020360729,0.13670138,0.6134479,0.0,0.0,0.0,-1.0
12315568,12315457,-0.030442724,-0.035243835,0.15909383,0.6134479,0.0,0.0,0.0,-1.0
12319566,12319455,0.03723535,-0.064798735,0.08944521,0.6134479,0.0,0.0,0.0,-1.0
12323566,12323455,-0.02218373,-0.033855733,0.14888261,0.6134479,0.0,0.0,0.0,-1.0
12326761,12326658,-0.006328157,-0.07387344,0.092501685,0.6134479,0.0,0.0,0.0,-1.0
12330013,12329866,0.021631503,-0.0157841,0.18739927,0.499528,0.0,0.0,0.0,-1.0
12333970,12333855,-0.01268806,-0.05784253,0.22644241,0.499528,0.0,0.0,0.0,-1.0
12337157,12337055,0.018797668,-0.044492662,0.18669878,0.499528,0.0,0.0,0.0,-1.0
12341169,12341055,-0.008679116,-0.037068687,0.23843724,0.499528,0.0,0.0,0.0,-1.0
12343568,12343457,-0.0003494377,-0.038284045,0.17317805,0.499528,0.0,0.0,0.0,-1.0
12347586,12347473,0.0032650437,-0.031031856,0.14198998,0.499528,0.0,0.0,0.0,-1.0
12351585,12351474,-0.016744733,-0.015426335,0.25303218,0.35808095,0.0,0.0,0.0,-1.0
12354757,12354655,0.0055173947,-0.051918127,0.15556403,0.35808095,0.0,0.0,0.0,-1.0
12357968,12357867,0.012452478,-0.0036561186,0.22245422,0.35808095,0.0,0.0,0.0,-1.0
12361964,12361855,-0.0428376,-0.036596242,0.2066265,0.35808095,0.0,0.0,0.0,-1.0
12365238,12365126,0.023079744,-0.03929422,0.23162542,0.35808095,0.0,0.0,0.0,-1.0
12369178,12369055,-0.054237723,-0.0019269623,0.25315177,0.35808095,0.0,0.0,0.0,-1.0
12371569,12371457,-0.030030215,-0.048996594,0.141902,0.35808095,0.0,0.0,0.0,-1.0
12375637,12375463,0.008684389,0.001193854,0.283949,0.29550195,0.0,0.0,0.0,-1.0
12379566,12379455,-0.045486968,-0.016629994,0.24274358,0.29550195,0.0,0.0,0.0,-1.0
12382757,12382655,0.039446328,-0.029517617,0.2189639,0.29550195,0.0,0.0,0.0,-1.0
12385957,12385855,-0.03203115,-0.00707787,0.25332445,0.29550195,0.0,0.0,0.0,-1.0
12389957,12389855,-0.040229697,-0.0016416609,0.22183353,0.29550195,0.0,0.0,0.0,-1.0
12393232,12393085,0.021915475,-0.013662107,0.26455632,0.29550195,0.0,0.0,0.0,-1.0
12397169,12397055,-0.04247882,-0.0048708045,0.26791453,0.24275728,0.0,0.0,0.0,-1.0
12399566,12399455,-0.027813219,0.01981574,0.2006726,0.24275728,0.0,0.0,0.0,-1.0
12403566,12403455,0.038081896,-0.017013416,0.17926009,0.24275728,0.0,0.0,0.0,-1.0
12407580,12407468,-0.055675946,0.03851287,0.17620876,0.24275728,0.0,0.0,0.0,-1.0
12410764,12410655,-0.015869983,0.012490368,0.18113077,0.24275728,0.0,0.0,0.0,-1.0
12414862,12414706,0.0156382,-0.011319399,0.18382713,0.19637841,0.0,0.0,0.0,-1.0
12418020,12417864,-0.0467231,0.02241993,0.1979121,0.19637841,0.0,0.0,0.0,-1.0
12421158,12421055,-0.0156388,0.010476064,0.22084033,0.19637841,0.0,0.0,0.0,-1.0
12425167,12425055,0.008829008,0.011911599,0.21416548,0.19637841,0.0,0.0,0.0,-1.0
12427569,12427457,-0.016145216,-0.0025401635,0.18033434,0.19637841,0.0,0.0,0.0,-1.0
12431566,12431455,-0.0151148755,0.044284232,0.17354265,0.19637841,0.0,0.0,0.0,-1.0
12437959,12437857,0.011133102,-0.025290683,0.14743254,0.15995362,0.0,0.0,0.0,-1.0
12438761,12438658,-0.008892403,-0.009478012,0.140603,0.15995362,0.0,0.0,0.0,-1.0
12442785,12442670,-0.02365476,0.055322286,0.14349487,0.15995362,0.0,0.0,0.0,-1.0
12445964,12445855,0.028094552,-0.005388323,0.11987132,0.15995362,0.0,0.0,0.0,-1.0
12449243,12449130,0.005320959,-0.008045032,0.1418733,0.15995362,0.0,0.0,0.0,-1.0
12454763,12454656,0.0018405665,0.03990024,0.15419571,0.15995362,0.0,0.0,0.0,-1.0
12456386,12456258,-0.0035442861,0.02371664,0.15838017,0.15995362,0.0,0.0,0.0,-1.0
12458757,12458655,0.007648755,-0.0077755474,0.073867194,0.13385789,0.0,0.0,0.0,-1.0
12462766,12462656,0.03609398,-0.015356551,0.12517665,0.13385789,0.0,0.0,0.0,-1.0
12466757,12466655,-0.053145323,0.06302056,0.07125808,0.13385789,0.0,0.0,0.0,-1.0
12469967,12469863,-0.0016500972,-0.00640727,0.07152754,0.13385789,0.0,0.0,0.0,-1.0
12473974,12473864,0.06640675,-0.017932054,0.10427244,0.13385789,0.0,0.0,0.0,-1.0
12478770,12478656,-0.05651524,0.027148489,0.06818353,0.13385789,0.0,0.0,0.0,-1.0
12481236,12481064,0.011861368,-0.0028171695,0.0963178,0.13385789,0.0,0.0,0.0,-1.0
12484374,12484258,0.03181307,-0.00038315856,0.062483866,0.11287338,0.0,0.0,0.0,-1.0
