timestamp,q[0],q[1],q[2],q[3],delta_q_reset[0],delta_q_reset[1],delta_q_reset[2],delta_q_reset[3],quat_reset_counter
9856258,0.95217013,0.0047726743,0.00074998144,-0.30553052,0.99995446,-2.5098754e-10,-3.1530495e-10,0.009545051,2
9860260,0.95294595,0.0042624404,0.0008625105,-0.3031092,0.99995446,-2.5098754e-10,-3.1530495e-10,0.009545051,2
9864274,0.9537471,0.004431307,0.00041631327,-0.30057728,0.99995446,-2.5098754e-10,-3.1530495e-10,0.009545051,2
9868258,0.9545486,0.0037446474,0.00063326367,-0.29803124,0.99995446,-2.5098754e-10,-3.1530495e-10,0.009545051,2
9872274,0.9553694,0.0036807733,0.00019659474,-0.2953909,0.99995446,-2.5098754e-10,-3.1530495e-10,0.009545051,2
9876255,0.95619005,0.0035115082,0.00021501223,-0.29272562,0.99995446,-2.5098754e-10,-3.1530495e-10,0.009545051,2
9880257,0.95701873,0.0029910207,0.0001958056,-0.2900107,0.99995446,-2.5098754e-10,-3.1530495e-10,0.009545051,2
9884267,0.95782167,0.0033980687,-0.00045309245,-0.28734285,0.99995446,-2.5098754e-10,-3.1530495e-10,0.009545051,2
9888318,0.95860773,0.002888965,-7.918796e-05,-0.28471553,0.99995446,-2.5098754e-10,-3.1530495e-10,0.009545051,2
9892255,0.9593546,0.0030021605,-0.00044602127,-0.28218755,0.99995446,-2.5098754e-10,-3.1530495e-10,0.009545051,2
9896279,0.9600981,0.0030704562,-0.00055817794,-0.27964625,0.99995446,-2.5098754e-10,-3.1530495e-10,0.009545051,2
9900255,0.96081734,0.0027321454,-0.00047950793,-0.27716848,0.99995446,-2.5098754e-10,-3.1530495e-10,0.009545051,2
9904257,0.9615607,0.003254397,-0.0007702365,-0.27457207,0.99995446,-2.5098754e-10,-3.1530495e-10,0.009545051,2
9908260,0.96231544,0.0030245793,-0.00047606163,-0.27191857,0.99995446,-2.5098754e-10,-3.1530495e-10,0.009545051,2
9912325,0.9630926,0.0033022182,-0.00087710854,-0.26914853,0.99995446,-2.5098754e-10,-3.1530495e-10,0.009545051,2
9916273,0.96386045,0.0036657802,-0.00089704513,-0.266381,0.99995446,-2.5098754e-10,-3.1530495e-10,0.009545051,2
9920260,0.9646453,0.0034964988,-0.00054639135,-0.263528,0.99995446,-2.5098754e-10,-3.1530495e-10,0.009545051,2
9924257,0.9654216,0.004149247,-0.0009751298,-0.26065892,0.99995446,-2.5098754e-10,-3.1530495e-10,0.009545051,2
9928257,0.9661501,0.0042863307,-0.0007237207,-0.2579439,0.99995446,-2.5098754e-10,-3.1530495e-10,0.009545051,2
9932285,0.9668657,0.0044595352,-0.0006413075,-0.25524575,0.99995446,-2.5098754e-10,-3.1530495e-10,0.009545051,2
9936255,0.9675577,0.005104191,-0.0007117492,-0.25259787,0.99995446,-2.5098754e-10,-3.1530495e-10,0.009545051,2
9940325,0.96822023,0.0049852133,-0.0002714104,-0.25004956,0.99995446,-2.5098754e-10,-3.1530495e-10,0.009545051,2
9944257,0.9688831,0.00541694,-0.00036970293,-0.24745944,0.99995446,-2.5098754e-10,-3.1530495e-10,0.009545051,2
9948261,0.96956825,0.005640376,4.8985425e-05,-0.24475645,0.99995446,-2.5098754e-10,-3.1530495e-10,0.009545051,2
9952268,0.97024286,0.0055209775,0.00020126287,-0.24207103,0.99995446,-2.5098754e-10,-3.1530495e-10,0.009545051,2
9956255,0.9709488,0.005970915,0.00022719809,-0.23921287,0.99995446,-2.5098754e-10,-3.1530495e-10,0.009545051,2
9960257,0.97165436,0.0057005994,0.00085807254,-0.2363362,0.99995446,-2.5098754e-10,-3.1530495e-10,0.009545051,2
9964263,0.9723577,0.0060193804,0.0005717386,-0.23341815,0.99995446,-2.5098754e-10,-3.1530495e-10,0.009545051,2
9968275,0.97304827,0.0063083125,0.00065408944,-0.2305143,0.99995446,-2.5098754e-10,-3.1530495e-10,0.009545051,2
9972265,0.973695,0.005918772,0.0010840319,-0.22777593,0.99995446,-2.5098754e-10,-3.1530495e-10,0.009545051,2
9976263,0.9743415,0.00658417,0.0006565839,-0.22497767,0.99995446,-2.5098754e-10,-3.1530495e-10,0.009545051,2
9980257,0.97494805,0.0064525465,0.00079453265,-0.22233756,0.99995446,-2.5098754e-10,-3.1530495e-10,0.009545051,2
9984257,0.9755357,0.0062358757,0.00084020966,-0.2197515,0.99995446,-2.5098754e-10,-3.1530495e-10,0.009545051,2
9988257,0.9761418,0.0067926133,0.0005001153,-0.21702729,0.99995446,-2.5098754e-10,-3.1530495e-10,0.009545051,2
9992341,0.97673947,0.0063589,0.0005150234,-0.21433511,0.99995446,-2.5098754e-10,-3.1530495e-10,0.009545051,2
9996292,0.97734463,0.006439067,0.00036971128,-0.2115558,0.99995446,-2.5098754e-10,-3.1530495e-10,0.009545051,2
10001055,0.97808367,0.0065721236,0.00017175869,-0.2081088,0.99995446,-2.5098754e-10,-3.1530495e-10,0.009545051,2
10005055,0.9786888,0.0063025337,-0.00015870499,-0.2052524,0.99995446,-2.5098754e-10,-3.1530495e-10,0.009545051,2
10009055,0.9793211,0.0064341566,-0.00042488673,-0.20220937,0.99995446,-2.5098754e-10,-3.1530495e-10,0.009545051,2
10013178,0.9799293,0.0060687964,-0.0006380033,-0.199252,0.99995446,-2.5098754e-10,-3.1530495e-10,0.009545051,2
10017855,0.9805971,0.0061027794,-0.0011792425,-0.19593595,0.99995446,-2.5098754e-10,-3.1530495e-10,0.009545051,2
10021855,0.9811524,0.0058619836,-0.0011951234,-0.19314303,0.99995446,-2.5098754e-10,-3.1530495e-10,0.009545051,2
10025858,0.9816651,0.0056462046,-0.001593454,-0.19052392,0.99995446,-2.5098754e-10,-3.1530495e-10,0.009545051,2
10029899,0.9822035,0.0056528794,-0.0019419667,-0.18772484,0.99995446,-2.5098754e-10,-3.1530495e-10,0.009545051,2
10033933,0.98272693,0.005136173,-0.0018852005,-0.18498065,0.99995446,-2.5098754e-10,-3.1530495e-10,0.009545051,2
10037857,0.98323154,0.0052178204,-0.0022059588,-0.18227352,0.99995446,-2.5098754e-10,-3.1530495e-10,0.009545051,2
10041855,0.9837735,0.0051242104,-0.0021912719,-0.17932828,0.99995446,-2.5098754e-10,-3.1530495e-10,0.009545051,2
10045858,0.9842997,0.004764038,-0.0021249885,-0.17642823,0.99995446,-2.5098754e-10,-3.1530495e-10,0.009545051,2
10049884,0.984833,0.004993135,-0.0022940286,-0.17341806,0.99995446,-2.5098754e-10,-3.1530495e-10,0.009545051,2
10053855,0.9853607,0.005007926,-0.0020843411,-0.17039622,0.99995446,-2.5098754e-10,-3.1530495e-10,0.009545051,2
10057855,0.9858573,0.0049045505,-0.0018761404,-0.16750441,0.99995446,-2.5098754e-10,-3.1530495e-10,0.009545051,2
10061866,0.9863436,0.0049758404,-0.0016935152,-0.16461669,0.99995446,-2.5098754e-10,-3.1530495e-10,0.009545051,2
10065857,0.9867952,0.005000196,-0.0016246934,-0.16188796,0.99995446,-2.5098754e-10,-3.1530495e-10,0.009545051,2
10069858,0.9872414,0.005047342,-0.0011691771,-0.15914688,0.99995446,-2.5098754e-10,-3.1530495e-10,0.009545051,2
10073862,0.98768204,0.0051704925,-0.0008482002,-0.15638681,0.99995446,-2.5098754e-10,-3.1530495e-10,0.009545051,2
10077855,0.9881022,0.0051699486,-0.0009617814,-0.15370904,0.99995446,-2.5098754e-10,-3.1530495e-10,0.009545051,2
10081864,0.98853505,0.004943785,-0.00039390664,-0.15090996,0.99995446,-2.5098754e-10,-3.1530495e-10,0.009545051,2
10085910,0.9889752,0.0050608516,-0.00022786835,-0.14799492,0.99995446,-2.5098754e-10,-3.1530495e-10,0.009545051,2
10089874,0.9893982,0.005203832,-0.00031015335,-0.14513515,0.99995446,-2.5098754e-10,-3.1530495e-10,0.009545051,2
10093855,0.98982763,0.0048507964,0.00020434875,-0.14218894,0.99995446,-2.5098754e-10,-3.1530495e-10,0.009545051,2
10097855,0.990237,0.005103947,8.8440225e-05,-0.13930103,0.99995446,-2.5098754e-10,-3.1530495e-10,0.009545051,2
10101857,0.9906208,0.0049329633,-2.4949039e-05,-0.13655125,0.99995446,-2.5098754e-10,-3.1530495e-10,0.009545051,2
10105855,0.99100155,0.0046207854,0.0004131861,-0.13377011,0.99995446,-2.5098754e-10,-3.1530495e-10,0.009545051,2
10109855,0.9913494,0.004955219,1.9635734e-05,-0.1311562,0.99995446,-2.5098754e-10,-3.1530495e-10,0.009545051,2
10113944,0.991687,0.004790541,6.8133566e-05,-0.12858482,0.99995446,-2.5098754e-10,-3.1530495e-10,0.009545051,2
10117855,0.9920085,0.004441801,0.00021027686,-0.12609248,0.99995446,-2.5098754e-10,-3.1530495e-10,0.009545051,2
10121855,0.99233115,0.0048659183,-0.0001972963,-0.123512305,0.99995446,-2.5098754e-10,-3.1530495e-10,0.009545051,2
10125865,0.9926571,0.004555109,1.2486412e-05,-0.1208763,0.99995446,-2.5098754e-10,-3.1530495e-10,0.009545051,2
10129855,0.99298626,0.004455364,-0.00011080694,-0.11814637,0.99995446,-2.5098754e-10,-3.1530495e-10,0.009545051,2
10133887,0.9933116,0.004932801,-0.00047638302,-0.11535801,0.99995446,-2.5098754e-10,-3.1530495e-10,0.009545051,2
10137907,0.9936346,0.0044643153,-5.1649906e-05,-0.11256335,0.99995446,-2.5098754e-10,-3.1530495e-10,0.009545051,2
10141857,0.99393696,0.0048050177,-0.00023420555,-0.10984694,0.99995446,-2.5098754e-10,-3.1530495e-10,0.009545051,2
10145855,0.99421805,0.005055597,-0.00039406953,-0.10725993,0.99995446,-2.5098754e-10,-3.1530495e-10,0.009545051,2
10149858,0.99449193,0.0045549455,4.73486e-05,-0.104714215,0.99995446,-2.5098754e-10,-3.1530495e-10,0.009545051,2
10153864,0.99475265,0.004953753,-5.531881e-05,-0.10218954,0.99995446,-2.5098754e-10,-3.1530495e-10,0.009545051,2
10157855,0.9949914,0.0049181078,8.05393e-06,-0.09983967,0.99995446,-2.5098754e-10,-3.1530495e-10,0.009545051,2
10161864,0.9952244,0.0043831975,0.0003865537,-0.097514786,0.99995446,-2.5098754e-10,-3.1530495e-10,0.009545051,2
10165866,0.9954554,0.0049264575,0.00028014352,-0.09510153,0.99995446,-2.5098754e-10,-3.1530495e-10,0.009545051,2
10169855,0.9956847,0.0046905833,0.00039420516,-0.0926822,0.99995446,-2.5098754e-10,-3.1530495e-10,0.009545051,2
10173864,0.99591213,0.004137119,0.00066058093,-0.09023005,0.99995446,-2.5098754e-10,-3.1530495e-10,0.009545051,2
10177855,0.9961373,0.0046271062,0.0005100875,-0.087687045,0.99995446,-2.5098754e-10,-3.1530495e-10,0.009545051,2
10181855,0.9963577,0.0040914146,0.0008248704,-0.08517054,0.99995446,-2.5098754e-10,-3.1530495e-10,0.009545051,2
10185855,0.99656564,0.003801928,0.001003833,-0.08271349,0.99995446,-2.5098754e-10,-3.1530495e-10,0.009545051,2
10189903,0.9967615,0.004010959,0.00089000637,-0.08030981,0.99995446,-2.5098754e-10,-3.1530495e-10,0.009545051,2
10193864,0.99693924,0.00350732,0.0011634338,-0.078093,0.99995446,-2.5098754e-10,-3.1530495e-10,0.009545051,2
10197889,0.9971083,0.0035797611,0.0011368482,-0.07590093,0.99995446,-2.5098754e-10,-3.1530495e-10,0.009545051,2
10201856,0.9972639,0.0035917182,0.0010979852,-0.07382946,0.99995446,-2.5098754e-10,-3.1530495e-10,0.009545051,2
10205855,0.9974149,0.0028761267,0.0013500263,-0.07178704,0.99995446,-2.5098754e-10,-3.1530495e-10,0.009545051,2
10209859,0.99756247,0.0029117218,0.0011127276,-0.06971044,0.99995446,-2.5098754e-10,-3.1530495e-10,0.009545051,2
10213857,0.9977129,0.0028201411,0.0009936601,-0.06752879,0.99995446,-2.5098754e-10,-3.1530495e-10,0.009545051,2
10217946,0.99786496,0.0021477975,0.0011672694,-0.06526542,0.99995446,-2.5098754e-10,-3.1530495e-10,0.009545051,2
10221855,0.99800694,0.0024281372,0.0007891467,-0.063052915,0.99995446,-2.5098754e-10,-3.1530495e-10,0.009545051,2
10225857,0.998151,0.0022098029,0.0006729151,-0.06073913,0.99995446,-2.5098754e-10,-3.1530495e-10,0.009545051,2
10229855,0.99828154,0.0016515321,0.0007336804,-0.058573112,0.99995446,-2.5098754e-10,-3.1530495e-10,0.009545051,2
10233858,0.9984053,0.0021310053,0.00031891663,-0.056412175,0.99995446,-2.5098754e-10,-3.1530495e-10,0.009545051,2
10237863,0.99852043,0.00181738,0.00030097846,-0.054346833,0.99995446,-2.5098754e-10,-3.1530495e-10,0.009545051,2
10241907,0.99862087,0.0015987658,0.00022807473,-0.052476883,0.99995446,-2.5098754e-10,-3.1530495e-10,0.009545051,2
10245855,0.99871546,0.0021433546,-0.0001994701,-0.050625216,0.99995446,-2.5098754e-10,-3.1530495e-10,0.009545051,2
10249855,0.99880815,0.001726863,1.44823625e-05,-0.048779756,0.99995446,-2.5098754e-10,-3.1530495e-10,0.009545051,2
10253864,0.9988936,0.0018175038,-0.00016175634,-0.046992898,0.99995446,-2.5098754e-10,-3.1530495e-10,0.009545051,2
10257855,0.99898094,0.0021244085,-0.000536592,-0.04508231,0.99995446,-2.5098754e-10,-3.1530495e-10,0.009545051,2
10261858,0.999069,0.0016605183,-0.00030914284,-0.043107677,0.99995446,-2.5098754e-10,-3.1530495e-10,0.009545051,2
10265857,0.99914914,0.0019811036,-0.0006177198,-0.0411935,0.99995446,-2.5098754e-10,-3.1530495e-10,0.009545051,2
10269879,0.99922985,0.0019889644,-0.0008183468,-0.039182276,0.99995446,-2.5098754e-10,-3.1530495e-10,0.009545051,2
10273855,0.9993017,0.0016413234,-0.00074394466,-0.037324153,0.99995446,-2.5098754e-10,-3.1530495e-10,0.009545051,2
10277857,0.9993643,0.002094052,-0.001184618,-0.03556837,0.99995446,-2.5098754e-10,-3.1530495e-10,0.009545051,2
10281890,0.9994254,0.0019091937,-0.0011454712,-0.033821594,0.99995446,-2.5098754e-10,-3.1530495e-10,0.009545051,2
10285855,0.9994751,0.0016390056,-0.001382332,-0.032326095,0.99995446,-2.5098754e-10,-3.1530495e-10,0.009545051,2
10289855,0.99951977,0.0018414574,-0.001965145,-0.030872693,0.99995446,-2.5098754e-10,-3.1530495e-10,0.009545051,2
10293907,0.9995683,0.0014424889,-0.0018341454,-0.02928823,0.99995446,-2.5098754e-10,-3.1530495e-10,0.009545051,2
10297861,0.9996108,0.0013831629,-0.0022823003,-0.027773494,0.99995446,-2.5098754e-10,-3.1530495e-10,0.009545051,2
10301866,0.99965286,0.0011479241,-0.002693798,-0.02618643,0.99995446,-2.5098754e-10,-3.1530495e-10,0.009545051,2
10305855,0.999696,0.0006432543,-0.0026550156,-0.024505721,0.99995446,-2.5098754e-10,-3.1530495e-10,0.009545051,2
10309857,0.99973345,0.0006370923,-0.0031594834,-0.022865366,0.99995446,-2.5098754e-10,-3.1530495e-10,0.009545051,2
10313857,0.99976873,0.00028394946,-0.00320806,-0.02126563,0.99995446,-2.5098754e-10,-3.1530495e-10,0.009545051,2
10317855,0.9998003,0.00015111807,-0.003359598,-0.019701252,0.99995446,-2.5098754e-10,-3.1530495e-10,0.009545051,2
10321903,0.9998266,-1.4043271e-05,-0.0037902808,-0.018236224,0.99995446,-2.5098754e-10,-3.1530495e-10,0.009545051,2
10325855,0.9998508,-0.00036201754,-0.003623281,-0.01689016,0.99995446,-2.5098754e-10,-3.1530495e-10,0.009545051,2
10329855,0.99987143,-0.00032528528,-0.0037499636,-0.015590665,0.99995446,-2.5098754e-10,-3.1530495e-10,0.009545051,2
10333866,0.99988806,-0.00057463837,-0.004007003,-0.014409649,0.99995446,-2.5098754e-10,-3.1530495e-10,0.009545051,2
10337863,0.9999058,-0.0008445484,-0.0036690622,-0.013199447,0.99995446,-2.5098754e-10,-3.1530495e-10,0.009545051,2
10341855,0.99992144,-0.0007154025,-0.0037581322,-0.011940244,0.99995446,-2.5098754e-10,-3.1530495e-10,0.009545051,2
10345912,0.99993587,-0.001011246,-0.0037091381,-0.010659301,0.99995446,-2.5098754e-10,-3.1530495e-10,0.009545051,2
10349873,0.99994946,-0.0010286699,-0.0034785355,-0.009382703,0.99995446,-2.5098754e-10,-3.1530495e-10,0.009545051,2
10353857,0.9999611,-0.00091437617,-0.0036573191,-0.007985586,0.99995446,-2.5098754e-10,-3.1530495e-10,0.009545051,2
10357855,0.99997103,-0.0011862917,-0.0034313416,-0.0066906908,0.99995446,-2.5098754e-10,-3.1530495e-10,0.009545051,2
10361855,0.99997866,-0.0008816045,-0.0034808393,-0.005476464,0.99995446,-2.5098754e-10,-3.1530495e-10,0.009545051,2
10365889,0.99998397,-0.00075670937,-0.003661694,-0.0042657196,0.99995446,-2.5098754e-10,-3.1530495e-10,0.009545051,2
10369855,0.99998826,-0.000849973,-0.003496712,-0.0032641785,0.99995446,-2.5098754e-10,-3.1530495e-10,0.009545051,2
10373866,0.99999034,-0.00033512816,-0.0037346,-0.0023214149,0.99995446,-2.5098754e-10,-3.1530495e-10,0.009545051,2
10377855,0.9999918,-0.00034379147,-0.0037949975,-0.0014145498,0.99995446,-2.5098754e-10,-3.1530495e-10,0.009545051,2
10381863,0.99999213,-0.00033250023,-0.0039025603,-0.00065562193,0.99995446,-2.5098754e-10,-3.1530495e-10,0.009545051,2
10385866,0.99999064,4.5330264e-05,-0.004332629,0.00014837262,0.99995446,-2.5098754e-10,-3.1530495e-10,0.009545051,2
10389855,0.99998987,-5.901459e-05,-0.0043947413,0.0010032429,0.99995446,-2.5098754e-10,-3.1530495e-10,0.009545051,2
10393855,0.99998635,0.00017602858,-0.0049036075,0.0017975349,0.99995446,-2.5098754e-10,-3.1530495e-10,0.009545051,2
10397903,0.9999815,0.00029667083,-0.0054728715,0.0026297686,0.99995446,-2.5098754e-10,-3.1530495e-10,0.009545051,2
10401855,0.9999782,8.220897e-05,-0.0056296415,0.00345869,0.99995446,-2.5098754e-10,-3.1530495e-10,0.009545051,2
10405865,0.99997073,0.00032053672,-0.006387028,0.004199886,0.99995446,-2.5098754e-10,-3.1530495e-10,0.009545051,2
10409868,0.9999648,0.00021797407,-0.006901371,0.004785875,0.99995446,-2.5098754e-10,-3.1530495e-10,0.009545051,2
10413863,0.9999591,0.00019531329,-0.0073252926,0.0053063375,0.99995446,-2.5098754e-10,-3.1530495e-10,0.009545051,2
10417861,0.99995,0.00033216013,-0.0081558265,0.005772894,0.99995446,-2.5098754e-10,-3.1530495e-10,0.009545051,2
10421855,0.99994516,0.00014196547,-0.008588414,0.005990807,0.99995446,-2.5098754e-10,-3.1530495e-10,0.009545051,2
10425874,0.9999375,4.614658e-05,-0.009250685,0.0062885145,0.99995446,-2.5098754e-10,-3.1530495e-10,0.009545051,2
10429855,0.99992853,2.0502175e-05,-0.010011006,0.0065439423,0.99995446,-2.5098754e-10,-3.1530495e-10,0.009545051,2
10433865,0.9999222,-6.913754e-05,-0.0105216475,0.006711116,0.99995446,-2.5098754e-10,-3.1530495e-10,0.009545051,2
10437855,0.99991196,-5.1203268e-05,-0.011239637,0.0070626643,0.99995446,-2.5098754e-10,-3.1530495e-10,0.009545051,2
10441855,0.9999028,-0.0002054318,-0.011881313,0.0073075267,0.99995446,-2.5098754e-10,-3.1530495e-10,0.009545051,2
10445855,0.9998929,-0.00021798901,-0.012566277,0.0075119934,0.99995446,-2.5098754e-10,-3.1530495e-10,0.009545051,2
10449954,0.9998817,-0.00011030259,-0.013276213,0.00777549,0.99995446,-2.5098754e-10,-3.1530495e-10,0.009545051,2
10453867,0.99987286,-0.00017446071,-0.013900972,0.007817709,0.99995446,-2.5098754e-10,-3.1530495e-10,0.009545051,2
10457855,0.99986124,4.920866e-05,-0.014716755,0.0078011802,0.99995446,-2.5098754e-10,-3.1530495e-10,0.009545051,2
10462655,0.9998553,4.9930986e-05,-0.0152571695,0.007541076,0.99995446,-2.5098754e-10,-3.1530495e-10,0.009545051,2
10466702,0.99984634,6.13791e-05,-0.015916357,0.007348319,0.99995446,-2.5098754e-10,-3.1530495e-10,0.009545051,2
10470703,0.9998381,0.00033221598,-0.016529333,0.0071114236,0.99995446,-2.5098754e-10,-3.1530495e-10,0.009545051,2
10474655,0.99983513,0.00016818022,-0.01681742,0.006853005,0.99995446,-2.5098754e-10,-3.1530495e-10,0.009545051,2
10478655,0.999825,0.00031932993,-0.017449606,0.0067455294,0.99995446,-2.5098754e-10,-3.1530495e-10,0.009545051,2
10482699,0.9998203,0.00042397654,-0.017789176,0.006543353,0.99995446,-2.5098754e-10,-3.1530495e-10,0.009545051,2
10486668,0.9998162,0.00022721276,-0.018060552,0.00644421,0.99995446,-2.5098754e-10,-3.1530495e-10,0.009545051,2
10490658,0.9998069,0.00044385783,-0.018599408,0.006338082,0.99995446,-2.5098754e-10,-3.1530495e-10,0.009545051,2
10494672,0.9998024,0.0004741401,-0.018922215,0.006068421,0.99995446,-2.5098754e-10,-3.1530495e-10,0.009545051,2
10498666,0.9997965,0.00047808705,-0.01931838,0.005800642,0.99995446,-2.5098754e-10,-3.1530495e-10,0.009545051,2
10502655,0.99978966,0.00047735646,-0.019800799,0.00532043,0.99995446,-2.5098754e-10,-3.1530495e-10,0.009545051,2
10506657,0.99978364,0.000405847,-0.020235078,0.004801574,0.99995446,-2.5098754e-10,-3.1530495e-10,0.009545051,2
10510711,0.999776,0.0005545394,-0.020722846,0.0042619235,0.99995446,-2.5098754e-10,-3.1530495e-10,0.009545051,2
10514668,0.999768,0.00028836893,-0.021228086,0.0036422906,0.99995446,-2.5098754e-10,-3.1530495e-10,0.009545051,2
10518664,0.9997538,0.0003589467,-0.021958077,0.0032065054,0.99995446,-2.5098754e-10,-3.1530495e-10,0.009545051,2
10522716,0.9997425,0.00047119998,-0.022527708,0.0027086292,0.99995446,-2.5098754e-10,-3.1530495e-10,0.009545051,2
10526657,0.99973005,9.691673e-05,-0.023124767,0.0022789908,0.99995446,-2.5098754e-10,-3.1530495e-10,0.009545051,2
10530655,0.99971145,0.00047679612,-0.023935175,0.0019899851,0.99995446,-2.5098754e-10,-3.1530495e-10,0.009545051,2
10534657,0.99970037,0.0003943605,-0.024424283,0.0015521187,0.99995446,-2.5098754e-10,-3.1530495e-10,0.009545051,2
10578655,0.99944973,-0.0003051907,-0.03272955,-0.005377653,0.99995446,-2.5098754e-10,-3.1530495e-10,0.009545051,2
10582657,0.9994311,-0.00033778115,-0.033200573,-0.0059349467,0.99995446,-2.5098754e-10,-3.1530495e-10,0.009545051,2
10586655,0.9994019,-0.00073291006,-0.03390951,-0.006752511,0.99995446,-2.5098754e-10,-3.1530495e-10,0.009545051,2
10590683,0.99937207,-0.00089454954,-0.034605682,-0.0075545055,0.99995446,-2.5098754e-10,-3.1530495e-10,0.009545051,2
10594701,0.9993482,-0.0009006374,-0.03509188,-0.008421165,0.99995446,-2.5098754e-10,-3.1530495e-10,0.009545051,2
10598655,0.99931526,-0.001513304,-0.035753503,-0.009405094,0.99995446,-2.5098754e-10,-3.1530495e-10,0.009545051,2
10602666,0.9992826,-0.001639273,-0.036412966,-0.010285719,0.99995446,-2.5098754e-10,-3.1530495e-10,0.009545051,2
10606655,0.9992515,-0.0017634936,-0.037006807,-0.011134625,0.99995446,-2.5098754e-10,-3.1530495e-10,0.009545051,2
10610657,0.9992199,-0.0023709242,-0.037572525,-0.011930632,0.99995446,-2.5098754e-10,-3.1530495e-10,0.009545051,2
10614655,0.999186,-0.002165955,-0.038250603,-0.01263403,0.99995446,-2.5098754e-10,-3.1530495e-10,0.009545051,2
10618662,0.99915206,-0.0023605556,-0.038897082,-0.01329719,0.99995446,-2.5098754e-10,-3.1530495e-10,0.009545051,2
10622699,0.99912614,-0.0030025044,-0.03925163,-0.014049686,0.99995446,-2.5098754e-10,-3.1530495e-10,0.009545051,2
10626712,0.9990848,-0.0024053333,-0.040061593,-0.014799234,0.99995446,-2.5098754e-10,-3.1530495e-10,0.009545051,2
10630670,0.99905294,-0.0025938605,-0.040534407,-0.015603806,0.99995446,-2.5098754e-10,-3.1530495e-10,0.009545051,2
10634724,0.99902165,-0.0031008928,-0.04087821,-0.016593194,0.99995446,-2.5098754e-10,-3.1530495e-10,0.009545051,2
10638655,0.9989735,-0.002473398,-0.041700494,-0.017517038,0.99995446,-2.5098754e-10,-3.1530495e-10,0.009545051,2
10642655,0.998945,-0.0027579116,-0.041949272,-0.018483523,0.99995446,-2.5098754e-10,-3.1530495e-10,0.009545051,2
10646694,0.99890023,-0.0028000558,-0.04252997,-0.019535238,0.99995446,-2.5098754e-10,-3.1530495e-10,0.009545051,2
10650702,0.99884427,-0.0023315856,-0.043436315,-0.020449935,0.99995446,-2.5098754e-10,-3.1530495e-10,0.009545051,2
10654690,0.9988206,-0.0027210347,-0.043556247,-0.021284804,0.99995446,-2.5098754e-10,-3.1530495e-10,0.009545051,2
10658655,0.99876803,-0.0024719294,-0.044349484,-0.022122584,0.99995446,-2.5098754e-10,-3.1530495e-10,0.009545051,2
10662667,0.99870616,-0.0020198452,-0.04538327,-0.022855906,0.99995446,-2.5098754e-10,-3.1530495e-10,0.009545051,2
10666655,0.9986735,-0.0023249188,-0.045677215,-0.02365402,0.99995446,-2.5098754e-10,-3.1530495e-10,0.009545051,2
10670655,0.99860495,-0.0019921598,-0.04674131,-0.024484627,0.99995446,-2.5098754e-10,-3.1530495e-10,0.009545051,2
10674743,0.99853456,-0.00163769,-0.047800723,-0.025320828,0.99995446,-2.5098754e-10,-3.1530495e-10,0.009545051,2
10678754,0.9984703,-0.0018940087,-0.048555836,-0.026381105,0.99995446,-2.5098754e-10,-3.1530495e-10,0.009545051,2
10682658,0.99837995,-0.0013888871,-0.049901105,-0.027303817,0.99995446,-2.5098754e-10,-3.1530495e-10,0.009545051,2
10686661,0.99830353,-0.0012025619,-0.050898876,-0.02824943,0.99995446,-2.5098754e-10,-3.1530495e-10,0.009545051,2
10690655,0.9982138,-0.0015459702,-0.052013453,-0.029351108,0.99995446,-2.5098754e-10,-3.1530495e-10,0.009545051,2
10694657,0.99810624,-0.0011724746,-0.053559978,-0.03023345,0.99995446,-2.5098754e-10,-3.1530495e-10,0.009545051,2
10698655,0.9980309,-0.0012578293,-0.054498583,-0.031026963,0.99995446,-2.5098754e-10,-3.1530495e-10,0.009545051,2
10706694,0.9978106,-0.0014561685,-0.057506334,-0.032633986,0.99995446,-2.5098754e-10,-3.1530495e-10,0.009545051,2
10710664,0.9977258,-0.0016715709,-0.0585012,-0.033438053,0.99995446,-2.5098754e-10,-3.1530495e-10,0.009545051,2
10714662,0.99760616,-0.0020146142,-0.059990533,-0.034339555,0.99995446,-2.5098754e-10,-3.1530495e-10,0.009545051,2
10718701,0.9974909,-0.0020225395,-0.06137133,-0.035235498,0.99995446,-2.5098754e-10,-3.1530495e-10,0.009545051,2
10722655,0.9973815,-0.0025183572,-0.06246173,-0.036366582,0.99995446,-2.5098754e-10,-3.1530495e-10,0.009545051,2
10726661,0.99725306,-0.0026023134,-0.06385804,-0.037439637,0.99995446,-2.5098754e-10,-3.1530495e-10,0.009545051,2
10730707,0.9971426,-0.0028598586,-0.064926445,-0.038510095,0.99995446,-2.5098754e-10,-3.1530495e-10,0.009545051,2
10734698,0.9970124,-0.0035735092,-0.066168316,-0.039691713,0.99995446,-2.5098754e-10,-3.1530495e-10,0.009545051,2
10738668,0.9968966,-0.0034926115,-0.067369744,-0.04057609,0.99995446,-2.5098754e-10,-3.1530495e-10,0.009545051,2
10742661,0.99680847,-0.003855442,-0.06812704,-0.04143325,0.99995446,-2.5098754e-10,-3.1530495e-10,0.009545051,2
10746663,0.9966846,-0.0043411623,-0.0693492,-0.042327747,0.99995446,-2.5098754e-10,-3.1530495e-10,0.009545051,2
10750655,0.9965888,-0.0044085854,-0.07028469,-0.043028962,0.99995446,-2.5098754e-10,-3.1530495e-10,0.009545051,2
10754663,0.9965011,-0.004699466,-0.07097726,-0.04388438,0.99995446,-2.5098754e-10,-3.1530495e-10,0.009545051,2
10758669,0.9963794,-0.00470132,-0.07209459,-0.04481485,0.99995446,-2.5098754e-10,-3.1530495e-10,0.009545051,2
10762699,0.99629724,-0.00475592,-0.072674945,-0.045692027,0.99995446,-2.5098754e-10,-3.1530495e-10,0.009545051,2
10766658,0.9961918,-0.0049970536,-0.07335754,-0.046857897,0.99995446,-2.5098754e-10,-3.1530495e-10,0.009545051,2
10770658,0.99607223,-0.004692717,-0.074307755,-0.047921352,0.99995446,-2.5098754e-10,-3.1530495e-10,0.009545051,2
10774655,0.9960035,-0.0047834916,-0.07455776,-0.048942536,0.99995446,-2.5098754e-10,-3.1530495e-10,0.009545051,2
10778655,0.9958971,-0.0050383545,-0.07524939,-0.050012756,0.99995446,-2.5098754e-10,-3.1530495e-10,0.009545051,2
10782712,0.99581146,-0.0047485614,-0.07586566,-0.050809335,0.99995446,-2.5098754e-10,-3.1530495e-10,0.009545051,2
10786655,0.995763,-0.004867928,-0.0759474,-0.05161689,0.99995446,-2.5098754e-10,-3.1530495e-10,0.009545051,2
10790711,0.9956703,-0.0047676736,-0.07663163,-0.05239865,0.99995446,-2.5098754e-10,-3.1530495e-10,0.009545051,2
10794655,0.99562526,-0.00473105,-0.07682486,-0.052971225,0.99995446,-2.5098754e-10,-3.1530495e-10,0.009545051,2
10798657,0.9955676,-0.0049105575,-0.07693317,-0.05387221,0.99995446,-2.5098754e-10,-3.1530495e-10,0.009545051,2
10802698,0.99548376,-0.0045643365,-0.0774827,-0.054661598,0.99995446,-2.5098754e-10,-3.1530495e-10,0.009545051,2
10806655,0.99544317,-0.0047932356,-0.07734312,-0.055569842,0.99995446,-2.5098754e-10,-3.1530495e-10,0.009545051,2
10810684,0.99536246,-0.0048216744,-0.077585325,-0.0566647,0.99995446,-2.5098754e-10,-3.1530495e-10,0.009545051,2
10814657,0.9952975,-0.0045934934,-0.077769496,-0.057564877,0.99995446,-2.5098754e-10,-3.1530495e-10,0.009545051,2
10818707,0.99523866,-0.0048266533,-0.07765987,-0.058700386,0.99995446,-2.5098754e-10,-3.1530495e-10,0.009545051,2
10822672,0.9951664,-0.0047080526,-0.07787982,-0.059636004,0.99995446,-2.5098754e-10,-3.1530495e-10,0.009545051,2
10826657,0.9951337,-0.004849368,-0.07774585,-0.06034062,0.99995446,-2.5098754e-10,-3.1530495e-10,0.009545051,2
10842655,0.99499613,-0.0050987545,-0.077239856,-0.0631725,0.99995446,-2.5098754e-10,-3.1530495e-10,0.009545051,2
10846699,0.99497277,-0.005005399,-0.0769527,-0.063894205,0.99995446,-2.5098754e-10,-3.1530495e-10,0.009545051,2
10850655,0.9949266,-0.0049267113,-0.07674102,-0.06486737,0.99995446,-2.5098754e-10,-3.1530495e-10,0.009545051,2
10854661,0.9948899,-0.005011119,-0.07634178,-0.065885924,0.99995446,-2.5098754e-10,-3.1530495e-10,0.009545051,2
10858657,0.9948422,-0.004997332,-0.07607142,-0.06691328,0.99995446,-2.5098754e-10,-3.1530495e-10,0.009545051,2
10862665,0.99481314,-0.0049011945,-0.07552819,-0.06795852,0.99995446,-2.5098754e-10,-3.1530495e-10,0.009545051,2
10866655,0.994792,-0.0048815417,-0.075058535,-0.06878511,0.99995446,-2.5098754e-10,-3.1530495e-10,0.009545051,2
10870657,0.9947667,-0.0046743345,-0.07467127,-0.06958099,0.99995446,-2.5098754e-10,-3.1530495e-10,0.009545051,2
10874705,0.9947755,-0.0049127047,-0.07383857,-0.07032417,0.99995446,-2.5098754e-10,-3.1530495e-10,0.009545051,2
10878655,0.9947615,-0.004683034,-0.07348868,-0.07090271,0.99995446,-2.5098754e-10,-3.1530495e-10,0.009545051,2
10882655,0.99476576,-0.0045814863,-0.07272922,-0.071628146,0.99995446,-2.5098754e-10,-3.1530495e-10,0.009545051,2
10886755,0.9947574,-0.0045947377,-0.07207921,-0.072396986,0.99995446,-2.5098754e-10,-3.1530495e-10,0.009545051,2
10890657,0.9947346,-0.004183332,-0.07163366,-0.073172845,0.99995446,-2.5098754e-10,-3.1530495e-10,0.009545051,2
10894670,0.9947333,-0.0043338356,-0.07054156,-0.07423557,0.99995446,-2.5098754e-10,-3.1530495e-10,0.009545051,2
10898664,0.9946929,-0.003834538,-0.07009449,-0.07522086,0.99995446,-2.5098754e-10,-3.1530495e-10,0.009545051,2
10902702,0.99467343,-0.0037048918,-0.06914415,-0.07635591,0.99995446,-2.5098754e-10,-3.1530495e-10,0.009545051,2
10906674,0.9946599,-0.0038948434,-0.06821897,-0.07734818,0.99995446,-2.5098754e-10,-3.1530495e-10,0.009545051,2
10910666,0.9946401,-0.0033241212,-0.06764308,-0.07813122,0.99995446,-2.5098754e-10,-3.1530495e-10,0.009545051,2
10914666,0.9946668,-0.0035986747,-0.06621971,-0.07899387,0.99995446,-2.5098754e-10,-3.1530495e-10,0.009545051,2
10918660,0.9946544,-0.0030687684,-0.0656886,-0.07961327,0.99995446,-2.5098754e-10,-3.1530495e-10,0.009545051,2
10922655,0.9946721,-0.0028565738,-0.06461113,-0.08027877,0.99995446,-2.5098754e-10,-3.1530495e-10,0.009545051,2
10926655,0.99468124,-0.0029460497,-0.063477926,-0.08106299,0.99995446,-2.5098754e-10,-3.1530495e-10,0.009545051,2
10930699,0.9946689,-0.0022466572,-0.06279031,-0.081768446,0.99995446,-2.5098754e-10,-3.1530495e-10,0.009545051,2
10934655,0.99467605,-0.0023904347,-0.061337072,-0.08277432,0.99995446,-2.5098754e-10,-3.1530495e-10,0.009545051,2
10938706,0.9946417,-0.0019691254,-0.060648553,-0.08369994,0.99995446,-2.5098754e-10,-3.1530495e-10,0.009545051,2
10942655,0.9946219,-0.001788814,-0.05949751,-0.084760316,0.99995446,-2.5098754e-10,-3.1530495e-10,0.009545051,2
10946655,0.9946005,-0.0018860805,-0.058295637,-0.08583773,0.99995446,-2.5098754e-10,-3.1530495e-10,0.009545051,2
10950663,0.9945636,-0.0012491243,-0.05764197,-0.08671273,0.99995446,-2.5098754e-10,-3.1530495e-10,0.009545051,2
10954655,0.9945558,-0.0015420598,-0.056158297,-0.087766096,0.99995446,-2.5098754e-10,-3.1530495e-10,0.009545051,2
10958699,0.99453247,-0.0011930041,-0.055450987,-0.088481285,0.99995446,-2.5098754e-10,-3.1530495e-10,0.009545051,2
10962659,0.9945234,-0.0011908385,-0.05430768,-0.08928865,0.99995446,-2.5098754e-10,-3.1530495e-10,0.009545051,2
10966668,0.9945146,-0.0014473752,-0.053167515,-0.09006683,0.99995446,-2.5098754e-10,-3.1530495e-10,0.009545051,2
10970727,0.99449956,-0.0009719406,-0.052405156,-0.090682715,0.99995446,-2.5098754e-10,-3.1530495e-10,0.009545051,2
10974655,0.9944815,-0.0013696996,-0.051059637,-0.09163857,0.99995446,-2.5098754e-10,-3.1530495e-10,0.009545051,2
10978657,0.9944531,-0.0011333342,-0.050284766,-0.09237583,0.99995446,-2.5098754e-10,-3.1530495e-10,0.009545051,2
10982670,0.99440676,-0.0012455169,-0.049168594,-0.093467005,0.99995446,-2.5098754e-10,-3.1530495e-10,0.009545051,2
10986699,0.99436545,-0.0014470308,-0.04808077,-0.094464034,0.99995446,-2.5098754e-10,-3.1530495e-10,0.009545051,2
10990715,0.99431753,-0.0012269022,-0.047143947,-0.0954392,0.99995446,-2.5098754e-10,-3.1530495e-10,0.009545051,2
10994655,0.9942678,-0.0015622266,-0.045996573,-0.09650629,0.99995446,-2.5098754e-10,-3.1530495e-10,0.009545051,2
10998655,0.9942396,-0.0014395221,-0.045057382,-0.097239025,0.99995446,-2.5098754e-10,-3.1530495e-10,0.009545051,2
11002657,0.9941963,-0.0016348988,-0.043982264,-0.09816584,0.99995446,-2.5098754e-10,-3.1530495e-10,0.009545051,2
11006657,0.99417794,-0.0016656637,-0.042999696,-0.09878483,0.99995446,-2.5098754e-10,-3.1530495e-10,0.009545051,2
11010659,0.9941561,-0.001526037,-0.041985758,-0.0994412,0.99995446,-2.5098754e-10,-3.1530495e-10,0.009545051,2
11014705,0.9941233,-0.0015670618,-0.040984597,-0.1001837,0.99995446,-2.5098754e-10,-3.1530495e-10,0.009545051,2
11018666,0.99410164,-0.0013282252,-0.039975908,-0.10080738,0.99995446,-2.5098754e-10,-3.1530495e-10,0.009545051,2
11022655,0.9940425,-0.0013270135,-0.038975235,-0.10177795,0.99995446,-2.5098754e-10,-3.1530495e-10,0.009545051,2
11026655,0.994001,-0.0010278152,-0.03792908,-0.10257863,0.99995446,-2.5098754e-10,-3.1530495e-10,0.009545051,2
11030655,0.99393344,-0.00088056107,-0.03675859,-0.10365503,0.99995446,-2.5098754e-10,-3.1530495e-10,0.009545051,2
11034665,0.9938697,-0.0006614147,-0.03576425,-0.104611784,0.99995446,-2.5098754e-10,-3.1530495e-10,0.009545051,2
11038655,0.993823,-0.0005334545,-0.03457461,-0.10545188,0.99995446,-2.5098754e-10,-3.1530495e-10,0.009545051,2
11042756,0.99376214,-0.0004426381,-0.033449132,-0.10638593,0.99995446,-2.5098754e-10,-3.1530495e-10,0.009545051,2
11046655,0.99374175,-0.00023548111,-0.03227318,-0.10693857,0.99995446,-2.5098754e-10,-3.1530495e-10,0.009545051,2
11050657,0.9936966,-0.00016595912,-0.031017309,-0.10772734,0.99995446,-2.5098754e-10,-3.1530495e-10,0.009545051,2
11054689,0.9936686,8.729779e-05,-0.029857118,-0.10831115,0.99995446,-2.5098754e-10,-3.1530495e-10,0.009545051,2
11058655,0.99363256,-2.4807683e-05,-0.028482655,-0.10900985,0.99995446,-2.5098754e-10,-3.1530495e-10,0.009545051,2
11062655,0.99358034,0.00031276778,-0.027485248,-0.10973946,0.99995446,-2.5098754e-10,-3.1530495e-10,0.009545051,2
11066657,0.99352825,0.00033645862,-0.02605158,-0.11055727,0.99995446,-2.5098754e-10,-3.1530495e-10,0.009545051,2
11070684,0.99344313,0.0004579511,-0.024933938,-0.111574955,0.99995446,-2.5098754e-10,-3.1530495e-10,0.009545051,2
11074670,0.9933722,0.00062644767,-0.023771616,-0.11245487,0.99995446,-2.5098754e-10,-3.1530495e-10,0.009545051,2
11079455,0.99325967,0.00036374768,-0.022278454,-0.11374941,0.99995446,-2.5098754e-10,-3.1530495e-10,0.009545051,2
11083469,0.9931866,0.00074202754,-0.021420283,-0.114547364,0.99995446,-2.5098754e-10,-3.1530495e-10,0.009545051,2
11087455,0.993119,0.00019471876,-0.02005572,-0.11537989,0.99995446,-2.5098754e-10,-3.1530495e-10,0.009545051,2
11091486,0.9930532,0.00049045245,-0.01941056,-0.116053745,0.99995446,-2.5098754e-10,-3.1530495e-10,0.009545051,2
11096255,0.99297,0.00017783616,-0.01796883,-0.1169948,0.99995446,-2.5098754e-10,-3.1530495e-10,0.009545051,2
11100257,0.99291486,0.00034542207,-0.0173557,-0.11755363,0.99995446,-2.5098754e-10,-3.1530495e-10,0.009545051,2
11104257,0.992851,0.00053645874,-0.016473101,-0.11821714,0.99995446,-2.5098754e-10,-3.1530495e-10,0.009545051,2
11108274,0.9927602,-2.181283e-05,-0.015461811,-0.119114175,0.99995446,-2.5098754e-10,-3.1530495e-10,0.009545051,2
11112272,0.9926769,0.0006086326,-0.014937163,-0.11987167,0.99995446,-2.5098754e-10,-3.1530495e-10,0.009545051,2
11116264,0.99256706,0.0001444464,-0.013848803,-0.12090882,0.99995446,-2.5098754e-10,-3.1530495e-10,0.009545051,2
11120257,0.99248004,0.00034507256,-0.013277445,-0.12168431,0.99995446,-2.5098754e-10,-3.1530495e-10,0.009545051,2
11124257,0.9923781,0.0003520596,-0.012454347,-0.1225993,0.99995446,-2.5098754e-10,-3.1530495e-10,0.009545051,2
11128257,0.99228823,3.9077432e-07,-0.011720282,-0.12339704,0.99995446,-2.5098754e-10,-3.1530495e-10,0.009545051,2
11132269,0.99221504,0.00051899854,-0.011069099,-0.12404225,0.99995446,-2.5098754e-10,-3.1530495e-10,0.009545051,2
11136314,0.99212193,0.00013534202,-0.010224523,-0.12485862,0.99995446,-2.5098754e-10,-3.1530495e-10,0.009545051,2
11140257,0.9920717,0.0005461221,-0.0095936125,-0.12530535,0.99995446,-2.5098754e-10,-3.1530495e-10,0.009545051,2
11144258,0.99198186,0.00047284598,-0.008894225,-0.12606643,0.99995446,-2.5098754e-10,-3.1530495e-10,0.009545051,2
11148255,0.9919109,0.00044380804,-0.008248495,-0.1266673,0.99995446,-2.5098754e-10,-3.1530495e-10,0.009545051,2
11152276,0.9918097,0.00092847616,-0.007447873,-0.12750353,0.99995446,-2.5098754e-10,-3.1530495e-10,0.009545051,2
11156261,0.9916959,0.0007677024,-0.006934823,-0.12841602,0.99995446,-2.5098754e-10,-3.1530495e-10,0.009545051,2
11160257,0.9915897,0.0011462672,-0.006216673,-0.1292666,0.99995446,-2.5098754e-10,-3.1530495e-10,0.009545051,2
11164273,0.9914638,0.0010695256,-0.0056501096,-0.13025573,0.99995446,-2.5098754e-10,-3.1530495e-10,0.009545051,2
11168255,0.99136966,0.0012004998,-0.0050410177,-0.13099375,0.99995446,-2.5098754e-10,-3.1530495e-10,0.009545051,2
11172328,0.9912489,0.0013186111,-0.0043643476,-0.13192786,0.99995446,-2.5098754e-10,-3.1530495e-10,0.009545051,2
11176257,0.9911616,0.0012783153,-0.0039138296,-0.13259631,0.99995446,-2.5098754e-10,-3.1530495e-10,0.009545051,2
11180261,0.99108183,0.0013519207,-0.003205848,-0.13320914,0.99995446,-2.5098754e-10,-3.1530495e-10,0.009545051,2
11184257,0.9910028,0.0013086376,-0.002906262,-0.13380311,0.99995446,-2.5098754e-10,-3.1530495e-10,0.009545051,2
11188309,0.9909377,0.0013856597,-0.0021991609,-0.134297,0.99995446,-2.5098754e-10,-3.1530495e-10,0.009545051,2
11192306,0.99084145,0.0014026016,-0.0017885503,-0.13501185,0.99995446,-2.5098754e-10,-3.1530495e-10,0.009545051,2
11196257,0.9907653,0.0014535695,-0.0014498151,-0.13557293,0.99995446,-2.5098754e-10,-3.1530495e-10,0.009545051,2
11200260,0.9906458,0.0011988218,-0.00072182034,-0.13645138,0.99995446,-2.5098754e-10,-3.1530495e-10,0.009545051,2
11204255,0.99055654,0.0013157112,-0.0007062357,-0.13709685,0.99995446,-2.5098754e-10,-3.1530495e-10,0.009545051,2
11208257,0.99044985,0.001290675,-4.7015234e-05,-0.13786764,0.99995446,-2.5098754e-10,-3.1530495e-10,0.009545051,2
11212255,0.99035597,0.0010968881,0.00012444127,-0.13854241,0.99995446,-2.5098754e-10,-3.1530495e-10,0.009545051,2
11216273,0.99029315,0.0011965382,0.00033087857,-0.13898927,0.99995446,-2.5098754e-10,-3.1530495e-10,0.009545051,2
11220255,0.99021405,0.0008102932,0.000901638,-0.13955152,0.99995446,-2.5098754e-10,-3.1530495e-10,0.009545051,2
11224267,0.9901858,0.0008493568,0.0008809785,-0.13975258,0.99995446,-2.5098754e-10,-3.1530495e-10,0.009545051,2
11228255,0.99012125,0.0008160586,0.0012471363,-0.14020583,0.99995446,-2.5098754e-10,-3.1530495e-10,0.009545051,2
11232265,0.9900868,0.0004985672,0.001354493,-0.14044982,0.99995446,-2.5098754e-10,-3.1530495e-10,0.009545051,2
11236255,0.99005157,0.00065246254,0.0015437234,-0.14069515,0.99995446,-2.5098754e-10,-3.1530495e-10,0.009545051,2
11240312,0.9899852,0.0006208093,0.001663267,-0.14116032,0.99995446,-2.5098754e-10,-3.1530495e-10,0.009545051,2
11244255,0.9899514,0.00044684566,0.0018036532,-0.14139633,0.99995446,-2.5098754e-10,-3.1530495e-10,0.009545051,2
11248264,0.98987657,0.0004440923,0.001840509,-0.14191891,0.99995446,-2.5098754e-10,-3.1530495e-10,0.009545051,2
11252263,0.98983985,0.0004468426,0.001866255,-0.14217436,0.99995446,-2.5098754e-10,-3.1530495e-10,0.009545051,2
11256292,0.9897892,0.00019065035,0.0019642506,-0.14252569,0.99995446,-2.5098754e-10,-3.1530495e-10,0.009545051,2
11260258,0.9897562,0.0003420822,0.0017198985,-0.14275688,0.99995446,-2.5098754e-10,-3.1530495e-10,0.009545051,2
11264255,0.98973763,1.6511478e-05,0.0018406893,-0.14288475,0.99995446,-2.5098754e-10,-3.1530495e-10,0.009545051,2
11268267,0.98972565,0.00016127924,0.0017027991,-0.1429698,0.99995446,-2.5098754e-10,-3.1530495e-10,0.009545051,2
11272278,0.98974013,0.00023224091,0.0014792556,-0.14287192,0.99995446,-2.5098754e-10,-3.1530495e-10,0.009545051,2
11276269,0.98972434,-0.00026450597,0.0015198104,-0.14298025,0.99995446,-2.5098754e-10,-3.1530495e-10,0.009545051,2
11280257,0.98974043,0.00013708467,0.0012706936,-0.1428716,0.99995446,-2.5098754e-10,-3.1530495e-10,0.009545051,2
11284258,0.98972815,-0.0002339206,0.0010947819,-0.14295831,0.99995446,-2.5098754e-10,-3.1530495e-10,0.009545051,2
11288255,0.9897361,-0.00037939116,0.00090560777,-0.14290437,0.99995446,-2.5098754e-10,-3.1530495e-10,0.009545051,2
11292316,0.9897274,-0.00026495662,0.00069052936,-0.14296608,0.99995446,-2.5098754e-10,-3.1530495e-10,0.009545051,2
11308258,0.9897828,-0.0008620654,-0.00016993696,-0.14258085,0.99995446,-2.5098754e-10,-3.1530495e-10,0.009545051,2
11312257,0.9897987,-0.0013385332,7.119084e-05,-0.14246638,0.99995446,-2.5098754e-10,-3.1530495e-10,0.009545051,2
11316268,0.98984516,-0.0013064579,-0.0006833872,-0.14214262,0.99995446,-2.5098754e-10,-3.1530495e-10,0.009545051,2
11320277,0.9898972,-0.0014865125,-0.00050318823,-0.14177883,0.99995446,-2.5098754e-10,-3.1530495e-10,0.009545051,2
11324255,0.9899281,-0.0016827225,-0.0005729759,-0.14155978,0.99995446,-2.5098754e-10,-3.1530495e-10,0.009545051,2
11328257,0.98998815,-0.0016611856,-0.0010464583,-0.14113684,0.99995446,-2.5098754e-10,-3.1530495e-10,0.009545051,2
11332261,0.9900151,-0.0019577602,-0.00088587194,-0.1409457,0.99995446,-2.5098754e-10,-3.1530495e-10,0.009545051,2
11336255,0.9900674,-0.002032207,-0.0010194711,-0.14057502,0.99995446,-2.5098754e-10,-3.1530495e-10,0.009545051,2
11340302,0.99010813,-0.0021919117,-0.0013157006,-0.14028308,0.99995446,-2.5098754e-10,-3.1530495e-10,0.009545051,2
11344316,0.9901761,-0.002275377,-0.0013521079,-0.13980095,0.99995446,-2.5098754e-10,-3.1530495e-10,0.009545051,2
11348262,0.99024874,-0.0024378952,-0.0013619962,-0.13928312,0.99995446,-2.5098754e-10,-3.1530495e-10,0.009545051,2
11352276,0.99032384,-0.0023987144,-0.0018068684,-0.13874297,0.99995446,-2.5098754e-10,-3.1530495e-10,0.009545051,2
11356255,0.99043256,-0.0023930722,-0.0017135463,-0.13796616,0.99995446,-2.5098754e-10,-3.1530495e-10,0.009545051,2
11360279,0.99049217,-0.0026760187,-0.001782889,-0.13753158,0.99995446,-2.5098754e-10,-3.1530495e-10,0.009545051,2
11364258,0.9905976,-0.0023701198,-0.0023122763,-0.1367682,0.99995446,-2.5098754e-10,-3.1530495e-10,0.009545051,2
11368257,0.99067456,-0.0026178902,-0.0021659022,-0.13620712,0.99995446,-2.5098754e-10,-3.1530495e-10,0.009545051,2
11372282,0.99074787,-0.0025235636,-0.0025693877,-0.13566765,0.99995446,-2.5098754e-10,-3.1530495e-10,0.009545051,2
11376258,0.9908368,-0.0023645086,-0.002842729,-0.13501418,0.99995446,-2.5098754e-10,-3.1530495e-10,0.009545051,2
11380257,0.9908998,-0.0024862136,-0.003114063,-0.13454252,0.99995446,-2.5098754e-10,-3.1530495e-10,0.009545051,2
11384257,0.9909821,-0.0022861997,-0.003538855,-0.13392793,0.99995446,-2.5098754e-10,-3.1530495e-10,0.009545051,2
11388259,0.9910583,-0.0025086526,-0.0038390395,-0.13335148,0.99995446,-2.5098754e-10,-3.1530495e-10,0.009545051,2
11392257,0.99116015,-0.0023659144,-0.004407644,-0.1325771,0.99995446,-2.5098754e-10,-3.1530495e-10,0.009545051,2
11396309,0.99126273,-0.0023777864,-0.004755005,-0.13179567,0.99995446,-2.5098754e-10,-3.1530495e-10,0.009545051,2
11400307,0.9913654,-0.0024850892,-0.005419691,-0.13099268,0.99995446,-2.5098754e-10,-3.1530495e-10,0.009545051,2
11404257,0.9914984,-0.0022941031,-0.005925277,-0.12996374,0.99995446,-2.5098754e-10,-3.1530495e-10,0.009545051,2
11408257,0.9915837,-0.0025796709,-0.0064196195,-0.1292829,0.99995446,-2.5098754e-10,-3.1530495e-10,0.009545051,2
11412263,0.991698,-0.0024404093,-0.007257595,-0.12836094,0.99995446,-2.5098754e-10,-3.1530495e-10,0.009545051,2
11416259,0.99180084,-0.0025094652,-0.0076260082,-0.12754066,0.99995446,-2.5098754e-10,-3.1530495e-10,0.009545051,2
11420257,0.9918833,-0.0024800417,-0.008524917,-0.12684181,0.99995446,-2.5098754e-10,-3.1530495e-10,0.009545051,2
11424324,0.99198383,-0.00250436,-0.009081886,-0.12601365,0.99995446,-2.5098754e-10,-3.1530495e-10,0.009545051,2
11428264,0.9920691,-0.002659342,-0.009594757,-0.12529911,0.99995446,-2.5098754e-10,-3.1530495e-10,0.009545051,2
11432276,0.9921702,-0.0025004747,-0.010508337,-0.12442485,0.99995446,-2.5098754e-10,-3.1530495e-10,0.009545051,2
11436257,0.9922693,-0.0027785948,-0.010968727,-0.12358686,0.99995446,-2.5098754e-10,-3.1530495e-10,0.009545051,2
11440257,0.9923864,-0.0028066337,-0.011640229,-0.12258001,0.99995446,-2.5098754e-10,-3.1530495e-10,0.009545051,2
11444274,0.992515,-0.0026179662,-0.012319319,-0.12147227,0.99995446,-2.5098754e-10,-3.1530495e-10,0.009545051,2
11448317,0.99262226,-0.0028778526,-0.013025647,-0.12051225,0.99995446,-2.5098754e-10,-3.1530495e-10,0.009545051,2
11452276,0.99275815,-0.0028231707,-0.013570214,-0.11932771,0.99995446,-2.5098754e-10,-3.1530495e-10,0.009545051,2
11456258,0.99286056,-0.0028381078,-0.014190565,-0.11840029,0.99995446,-2.5098754e-10,-3.1530495e-10,0.009545051,2
11460255,0.9929583,-0.0027286464,-0.0151118,-0.11746517,0.99995446,-2.5098754e-10,-3.1530495e-10,0.009545051,2
11464260,0.9930716,-0.0027290317,-0.015388443,-0.11646685,0.99995446,-2.5098754e-10,-3.1530495e-10,0.009545051,2
11468255,0.99315304,-0.002679537,-0.01620641,-0.11566027,0.99995446,-2.5098754e-10,-3.1530495e-10,0.009545051,2
11472267,0.9932531,-0.0025351548,-0.01700188,-0.11468537,0.99995446,-2.5098754e-10,-3.1530495e-10,0.009545051,2
11476273,0.99334973,-0.0028325068,-0.017369535,-0.11378326,0.99995446,-2.5098754e-10,-3.1530495e-10,0.009545051,2
11480258,0.9934549,-0.0025847016,-0.018292932,-0.11272111,0.99995446,-2.5098754e-10,-3.1530495e-10,0.009545051,2
11484257,0.9935754,-0.0024271954,-0.018953202,-0.11154777,0.99995446,-2.5098754e-10,-3.1530495e-10,0.009545051,2
11488257,0.99368423,-0.0026912577,-0.01957912,-0.11045903,0.99995446,-2.5098754e-10,-3.1530495e-10,0.009545051,2
11492263,0.9938095,-0.00249662,-0.02043151,-0.10917408,0.99995446,-2.5098754e-10,-3.1530495e-10,0.009545051,2
11496261,0.99390894,-0.0025762396,-0.021355903,-0.10808503,0.99995446,-2.5098754e-10,-3.1530495e-10,0.009545051,2
11500319,0.9940219,-0.002588022,-0.022241568,-0.106860906,0.99995446,-2.5098754e-10,-3.1530495e-10,0.009545051,2
11504255,0.99412715,-0.0025349208,-0.022997424,-0.10571587,0.99995446,-2.5098754e-10,-3.1530495e-10,0.009545051,2
11508302,0.99420124,-0.0025771356,-0.024407359,-0.10469766,0.99995446,-2.5098754e-10,-3.1530495e-10,0.009545051,2
11512272,0.99430287,-0.0026271956,-0.025421513,-0.10348318,0.99995446,-2.5098754e-10,-3.1530495e-10,0.009545051,2
11516258,0.9943748,-0.0029087984,-0.026520196,-0.10250382,0.99995446,-2.5098754e-10,-3.1530495e-10,0.009545051,2
11520259,0.994452,-0.00279828,-0.028185751,-0.10130691,0.99995446,-2.5098754e-10,-3.1530495e-10,0.009545051,2
11524255,0.99455273,-0.002899652,-0.029380186,-0.0999662,0.99995446,-2.5098754e-10,-3.1530495e-10,0.009545051,2
11528294,0.9946223,-0.0031641137,-0.031013574,-0.09876595,0.99995446,-2.5098754e-10,-3.1530495e-10,0.009545051,2
11533057,0.9947252,-0.0032316472,-0.032998044,-0.09706964,0.99995446,-2.5098754e-10,-3.1530495e-10,0.009545051,2
11537869,0.99480313,-0.0034389023,-0.03512578,-0.09550521,0.99995446,-2.5098754e-10,-3.1530495e-10,0.009545051,2
11553863,0.99499583,-0.0038488165,-0.04304715,-0.09008647,0.99995446,-2.5098754e-10,-3.1530495e-10,0.009545051,2
11557857,0.9950046,-0.0041516097,-0.045207445,-0.08890937,0.99995446,-2.5098754e-10,-3.1530495e-10,0.009545051,2
11561866,0.99504125,-0.004106346,-0.047217835,-0.087444186,0.99995446,-2.5098754e-10,-3.1530495e-10,0.009545051,2
11565858,0.9950468,-0.004357061,-0.049377773,-0.08616696,0.99995446,-2.5098754e-10,-3.1530495e-10,0.009545051,2
11569866,0.99505335,-0.004418216,-0.05162967,-0.08475687,0.99995446,-2.5098754e-10,-3.1530495e-10,0.009545051,2
11573865,0.99510336,-0.0044379937,-0.05328762,-0.083127104,0.99995446,-2.5098754e-10,-3.1530495e-10,0.009545051,2
11577855,0.99509454,-0.0043810722,-0.055555034,-0.08173985,0.99995446,-2.5098754e-10,-3.1530495e-10,0.009545051,2
11581858,0.99511534,-0.0044237156,-0.05749193,-0.08012902,0.99995446,-2.5098754e-10,-3.1530495e-10,0.009545051,2
11585855,0.9951453,-0.004674942,-0.05902069,-0.078616776,0.99995446,-2.5098754e-10,-3.1530495e-10,0.009545051,2
11589855,0.995136,-0.004366959,-0.06113398,-0.07712245,0.99995446,-2.5098754e-10,-3.1530495e-10,0.009545051,2
11593938,0.99517137,-0.0043108887,-0.06256283,-0.07550686,0.99995446,-2.5098754e-10,-3.1530495e-10,0.009545051,2
11597855,0.99518967,-0.0044086487,-0.063948534,-0.07408652,0.99995446,-2.5098754e-10,-3.1530495e-10,0.009545051,2
11601855,0.9952023,-0.003994165,-0.06561476,-0.07246554,0.99995446,-2.5098754e-10,-3.1530495e-10,0.009545051,2
11605855,0.9952328,-0.0040750727,-0.066744395,-0.070994385,0.99995446,-2.5098754e-10,-3.1530495e-10,0.009545051,2
11609855,0.9952744,-0.003949745,-0.06787665,-0.069324456,0.99995446,-2.5098754e-10,-3.1530495e-10,0.009545051,2
11613858,0.995328,-0.0036142298,-0.06894749,-0.06749421,0.99995446,-2.5098754e-10,-3.1530495e-10,0.009545051,2
11617855,0.99536675,-0.003529781,-0.069982015,-0.065842666,0.99995446,-2.5098754e-10,-3.1530495e-10,0.009545051,2
11621866,0.9954362,-0.00329478,-0.07079105,-0.06391155,0.99995446,-2.5098754e-10,-3.1530495e-10,0.009545051,2
11625898,0.9954938,-0.0030713119,-0.07155761,-0.062145296,0.99995446,-2.5098754e-10,-3.1530495e-10,0.009545051,2
11629864,0.9955365,-0.002705625,-0.072484374,-0.06038143,0.99995446,-2.5098754e-10,-3.1530495e-10,0.009545051,2
11633855,0.9956121,-0.002475956,-0.07292536,-0.058586042,0.99995446,-2.5098754e-10,-3.1530495e-10,0.009545051,2
11637855,0.9956501,-0.002148903,-0.073708035,-0.056952972,0.99995446,-2.5098754e-10,-3.1530495e-10,0.009545051,2
11641857,0.9956928,-0.0016205563,-0.07445972,-0.055218346,0.99995446,-2.5098754e-10,-3.1530495e-10,0.009545051,2
11645908,0.9957382,-0.0016614618,-0.075002536,-0.053641424,0.99995446,-2.5098754e-10,-3.1530495e-10,0.009545051,2
11649855,0.9957695,-0.0012042394,-0.07584546,-0.051858995,0.99995446,-2.5098754e-10,-3.1530495e-10,0.009545051,2
11653862,0.9958191,-0.0007553104,-0.07645387,-0.04998689,0.99995446,-2.5098754e-10,-3.1530495e-10,0.009545051,2
11657855,0.99584764,-0.0007700244,-0.07721088,-0.048223145,0.99995446,-2.5098754e-10,-3.1530495e-10,0.009545051,2
11661857,0.99589926,-0.00034324414,-0.0778754,-0.046045076,0.99995446,-2.5098754e-10,-3.1530495e-10,0.009545051,2
11665855,0.9959207,-0.00025568678,-0.07866182,-0.044207767,0.99995446,-2.5098754e-10,-3.1530495e-10,0.009545051,2
11669855,0.9959251,-3.9088398e-05,-0.07968633,-0.04222818,0.99995446,-2.5098754e-10,-3.1530495e-10,0.009545051,2
11673866,0.99597543,0.00020726044,-0.08009763,-0.040214777,0.99995446,-2.5098754e-10,-3.1530495e-10,0.009545051,2
11677855,0.9959591,0.00048343794,-0.08115681,-0.038455453,0.99995446,-2.5098754e-10,-3.1530495e-10,0.009545051,2
11681861,0.995968,0.0007546154,-0.08192717,-0.03654024,0.99995446,-2.5098754e-10,-3.1530495e-10,0.009545051,2
11685855,0.995987,0.0005641542,-0.08242982,-0.03485559,0.99995446,-2.5098754e-10,-3.1530495e-10,0.009545051,2
11689855,0.99595755,0.0010002509,-0.08350947,-0.03307145,0.99995446,-2.5098754e-10,-3.1530495e-10,0.009545051,2
11693863,0.9959737,0.0011582416,-0.08404619,-0.031167153,0.99995446,-2.5098754e-10,-3.1530495e-10,0.009545051,2
11697890,0.99598074,0.0010287779,-0.08461789,-0.029345682,0.99995446,-2.5098754e-10,-3.1530495e-10,0.009545051,2
11701855,0.99596995,0.0014475661,-0.08542452,-0.027285561,0.99995446,-2.5098754e-10,-3.1530495e-10,0.009545051,2
11705855,0.99597156,0.0014235982,-0.08600394,-0.025339901,0.99995446,-2.5098754e-10,-3.1530495e-10,0.009545051,2
11709898,0.9959785,0.0013912318,-0.08650038,-0.023298586,0.99995446,-2.5098754e-10,-3.1530495e-10,0.009545051,2
11713855,0.9959898,0.0018512141,-0.086907126,-0.02117085,0.99995446,-2.5098754e-10,-3.1530495e-10,0.009545051,2
11717855,0.995972,0.0019480371,-0.08753682,-0.019325374,0.99995446,-2.5098754e-10,-3.1530495e-10,0.009545051,2
11721855,0.99600154,0.0020216533,-0.087614186,-0.017341414,0.99995446,-2.5098754e-10,-3.1530495e-10,0.009545051,2
11725877,0.9960054,0.0023229837,-0.08789685,-0.01555686,0.99995446,-2.5098754e-10,-3.1530495e-10,0.009545051,2
11729897,0.99599814,0.0025987301,-0.08826384,-0.013799447,0.99995446,-2.5098754e-10,-3.1530495e-10,0.009545051,2
11733855,0.99605834,0.0025837207,-0.08785732,-0.011922138,0.99995446,-2.5098754e-10,-3.1530495e-10,0.009545051,2
11737855,0.99607223,0.002926924,-0.08791512,-0.0101221185,0.99995446,-2.5098754e-10,-3.1530495e-10,0.009545051,2
11741855,0.99611044,0.003096684,-0.08767668,-0.008206386,0.99995446,-2.5098754e-10,-3.1530495e-10,0.009545051,2
11745860,0.99618065,0.0030147538,-0.08703547,-0.0063256645,0.99995446,-2.5098754e-10,-3.1530495e-10,0.009545051,2
11749889,0.9962262,0.003458517,-0.08661625,-0.0043760585,0.99995446,-2.5098754e-10,-3.1530495e-10,0.009545051,2
11753855,0.9963145,0.003707104,-0.085661896,-0.0023840428,0.99995446,-2.5098754e-10,-3.1530495e-10,0.009545051,2
11757855,0.9964079,0.00364561,-0.08460302,-0.00056055246,0.99995446,-2.5098754e-10,-3.1530495e-10,0.009545051,2
11761855,0.9964911,0.0040056454,-0.08359325,0.0013258224,0.99995446,-2.5098754e-10,-3.1530495e-10,0.009545051,2
11765857,0.99384874,0.010004198,-0.08156095,0.0742469,0.9974428,-1.5333654e-10,-6.541773e-09,0.07147022,3
11769855,0.9938515,0.010154867,-0.07993059,0.075943194,0.9974428,-1.5333654e-10,-6.541773e-09,0.07147022,3
11773855,0.99386805,0.010318578,-0.07800922,0.07768204,0.9974428,-1.5333654e-10,-6.541773e-09,0.07147022,3
11777870,0.99390745,0.010166946,-0.07596422,0.07920908,0.9974428,-1.5333654e-10,-6.541773e-09,0.07147022,3
11781855,0.99393547,0.0104365535,-0.07369165,0.08095006,0.9974428,-1.5333654e-10,-6.541773e-09,0.07147022,3
11785858,0.99399424,0.010243886,-0.07099632,0.08264446,0.9974428,-1.5333654e-10,-6.541773e-09,0.07147022,3
11789860,0.994043,0.010055847,-0.06843625,0.08422614,0.9974428,-1.5333654e-10,-6.541773e-09,0.07147022,3
11793899,0.9940877,0.010280632,-0.06539177,0.086069815,0.9974428,-1.5333654e-10,-6.541773e-09,0.07147022,3
11797855,0.9941587,0.009856597,-0.06221506,0.08763988,0.9974428,-1.5333654e-10,-6.541773e-09,0.07147022,3
11801901,0.99420965,0.009862966,-0.05916125,0.08916235,0.9974428,-1.5333654e-10,-6.541773e-09,0.07147022,3
11805858,0.994265,0.009675697,-0.055782087,0.09072922,0.9974428,-1.5333654e-10,-6.541773e-09,0.07147022,3
11809860,0.994328,0.009175647,-0.052369777,0.092114866,0.9974428,-1.5333654e-10,-6.541773e-09,0.07147022,3
11813882,0.9943674,0.009203564,-0.049075186,0.093490794,0.9974428,-1.5333654e-10,-6.541773e-09,0.07147022,3
11817864,0.9944134,0.008598303,-0.045617573,0.09480017,0.9974428,-1.5333654e-10,-6.541773e-09,0.07147022,3
11821855,0.99444366,0.008192647,-0.042349327,0.096028045,0.9974428,-1.5333654e-10,-6.541773e-09,0.07147022,3
11825855,0.9944422,0.008164248,-0.03918424,0.097378485,0.9974428,-1.5333654e-10,-6.541773e-09,0.07147022,3
11829866,0.994452,0.007453685,-0.035941068,0.09858003,0.9974428,-1.5333654e-10,-6.541773e-09,0.07147022,3
11833945,0.9944458,0.007068669,-0.03289727,0.09972612,0.9974428,-1.5333654e-10,-6.541773e-09,0.07147022,3
11837855,0.99441016,0.006751211,-0.030189099,0.10095399,0.9974428,-1.5333654e-10,-6.541773e-09,0.07147022,3
11841855,0.9943819,0.006277117,-0.027581817,0.10200231,0.9974428,-1.5333654e-10,-6.541773e-09,0.07147022,3
11845861,0.9943473,0.005911916,-0.025069606,0.103005506,0.9974428,-1.5333654e-10,-6.541773e-09,0.07147022,3
11849866,0.9943013,0.005488819,-0.022848152,0.10398466,0.9974428,-1.5333654e-10,-6.541773e-09,0.07147022,3
11853902,0.9942647,0.005342346,-0.020868767,0.10475475,0.9974428,-1.5333654e-10,-6.541773e-09,0.07147022,3
11857855,0.9942194,0.0047727693,-0.019054912,0.10555533,0.9974428,-1.5333654e-10,-6.541773e-09,0.07147022,3
11861855,0.9941741,0.004578342,-0.017621456,0.10623728,0.9974428,-1.5333654e-10,-6.541773e-09,0.07147022,3
11865855,0.99412817,0.0043556322,-0.016104463,0.106915474,0.9974428,-1.5333654e-10,-6.541773e-09,0.07147022,3
11869855,0.99407667,0.0038516924,-0.014817945,0.10759776,0.9974428,-1.5333654e-10,-6.541773e-09,0.07147022,3
11873855,0.99401975,0.0039315154,-0.013961578,0.10823401,0.9974428,-1.5333654e-10,-6.541773e-09,0.07147022,3
11877906,0.99397147,0.0033789764,-0.012802781,0.10883705,0.9974428,-1.5333654e-10,-6.541773e-09,0.07147022,3
11881866,0.99391407,0.003384341,-0.011904372,0.10946158,0.9974428,-1.5333654e-10,-6.541773e-09,0.07147022,3
11885855,0.9938685,0.0032669143,-0.011248989,0.109946474,0.9974428,-1.5333654e-10,-6.541773e-09,0.07147022,3
11889856,0.993832,0.0028507889,-0.010443039,0.110366605,0.9974428,-1.5333654e-10,-6.541773e-09,0.07147022,3
11893857,0.9937918,0.0029544835,-0.009763785,0.11078802,0.9974428,-1.5333654e-10,-6.541773e-09,0.07147022,3
11897897,0.99377257,0.002733961,-0.009039533,0.11102664,0.9974428,-1.5333654e-10,-6.541773e-09,0.07147022,3
11901855,0.99374074,0.002727909,-0.008270966,0.11137097,0.9974428,-1.5333654e-10,-6.541773e-09,0.07147022,3
11905893,0.9937173,0.0026109663,-0.007711935,0.111623466,0.9974428,-1.5333654e-10,-6.541773e-09,0.07147022,3
11909858,0.9936904,0.0024321384,-0.006973878,0.11191534,0.9974428,-1.5333654e-10,-6.541773e-09,0.07147022,3
11913855,0.99365056,0.00249547,-0.006182022,0.11231297,0.9974428,-1.5333654e-10,-6.541773e-09,0.07147022,3
11917857,0.9936249,0.0024356763,-0.005482475,0.11257667,0.9974428,-1.5333654e-10,-6.541773e-09,0.07147022,3
11921858,0.9935851,0.0024617931,-0.0046963245,0.112962745,0.9974428,-1.5333654e-10,-6.541773e-09,0.07147022,3
11925855,0.9935607,0.002349692,-0.0038845562,0.11321078,0.9974428,-1.5333654e-10,-6.541773e-09,0.07147022,3
11929855,0.9935365,0.0023797338,-0.0030640257,0.11344667,0.9974428,-1.5333654e-10,-6.541773e-09,0.07147022,3
11933871,0.9935158,0.002358993,-0.0021599014,0.11365019,0.9974428,-1.5333654e-10,-6.541773e-09,0.07147022,3
11937855,0.9935116,0.0022550886,-0.0014135067,0.1137001,0.9974428,-1.5333654e-10,-6.541773e-09,0.07147022,3
11941858,0.99350446,0.0023504938,-0.0005947789,0.11376719,0.9974428,-1.5333654e-10,-6.541773e-09,0.07147022,3
11945855,0.9935041,0.0021758976,0.00033035263,0.1137759,0.9974428,-1.5333654e-10,-6.541773e-09,0.07147022,3
11949855,0.99349874,0.002201424,0.0010362086,0.113817014,0.9974428,-1.5333654e-10,-6.541773e-09,0.07147022,3
11953863,0.99349207,0.0020527893,0.0019051491,0.11386679,0.9974428,-1.5333654e-10,-6.541773e-09,0.07147022,3
11957889,0.99348295,0.0018057837,0.0026007853,0.11393689,0.9974428,-1.5333654e-10,-6.541773e-09,0.07147022,3
11961902,0.99348146,0.0019367791,0.0031441122,0.11393473,0.9974428,-1.5333654e-10,-6.541773e-09,0.07147022,3
11965855,0.9934713,0.0015383352,0.0040766676,0.113999374,0.9974428,-1.5333654e-10,-6.541773e-09,0.07147022,3
11969855,0.99347883,0.0016932638,0.004473134,0.1139164,0.9974428,-1.5333654e-10,-6.541773e-09,0.07147022,3
11973855,0.99347717,0.0014555267,0.005268294,0.113900356,0.9974428,-1.5333654e-10,-6.541773e-09,0.07147022,3
11977855,0.9934957,0.0010795083,0.005675599,0.113723695,0.9974428,-1.5333654e-10,-6.541773e-09,0.07147022,3
11981870,0.99351215,0.0012951937,0.006099179,0.113555275,0.9974428,-1.5333654e-10,-6.541773e-09,0.07147022,3
11985861,0.99353456,0.00069172337,0.0067892834,0.11332525,0.9974428,-1.5333654e-10,-6.541773e-09,0.07147022,3
11990669,0.9935752,0.001086443,0.007046546,0.11294949,0.9974428,-1.5333654e-10,-6.541773e-09,0.07147022,3
11994699,0.9935991,0.0004759639,0.007761871,0.11269635,0.9974428,-1.5333654e-10,-6.541773e-09,0.07147022,3
11998681,0.99363875,0.00065475865,0.007864367,0.11233806,0.9974428,-1.5333654e-10,-6.541773e-09,0.07147022,3
12002655,0.9936584,0.00029624824,0.008552323,0.11211539,0.9974428,-1.5333654e-10,-6.541773e-09,0.07147022,3
12006668,0.9937063,0.00021911711,0.008760647,0.11167397,0.9974428,-1.5333654e-10,-6.541773e-09,0.07147022,3
12011460,0.9937392,4.9062874e-05,0.009404928,0.11132804,0.9974428,-1.5333654e-10,-6.541773e-09,0.07147022,3
12015483,0.99379575,-3.232798e-05,0.009701691,0.110796474,0.9974428,-1.5333654e-10,-6.541773e-09,0.07147022,3
12019469,0.9938332,9.110151e-05,0.010129044,0.1104224,0.9974428,-1.5333654e-10,-6.541773e-09,0.07147022,3
12023455,0.99389154,-0.00021980343,0.010664041,0.109844804,0.9974428,-1.5333654e-10,-6.541773e-09,0.07147022,3
12027476,0.9939517,0.00014083956,0.010844119,0.109281465,0.9974428,-1.5333654e-10,-6.541773e-09,0.07147022,3
12031455,0.9940094,-0.00030296043,0.011575387,0.10867989,0.9974428,-1.5333654e-10,-6.541773e-09,0.07147022,3
12035455,0.9940918,2.0620591e-05,0.011567416,0.10792396,0.9974428,-1.5333654e-10,-6.541773e-09,0.07147022,3
12039455,0.9941425,-0.00029021653,0.012373783,0.10736668,0.9974428,-1.5333654e-10,-6.541773e-09,0.07147022,3
12043455,0.99423623,-0.00023706642,0.012234982,0.10651137,0.9974428,-1.5333654e-10,-6.541773e-09,0.07147022,3
12047455,0.9942792,-0.00035412563,0.012996027,0.10601849,0.9974428,-1.5333654e-10,-6.541773e-09,0.07147022,3
12051513,0.99437785,-0.0005172792,0.012826114,0.10510945,0.9974428,-1.5333654e-10,-6.541773e-09,0.07147022,3
12055479,0.9944216,-0.000533359,0.013477564,0.104612805,0.9974428,-1.5333654e-10,-6.541773e-09,0.07147022,3
12059457,0.9945211,-0.0007520181,0.013319859,0.10368158,0.9974428,-1.5333654e-10,-6.541773e-09,0.07147022,3
12063455,0.9945742,-0.00070644583,0.013843813,0.10310315,0.9974428,-1.5333654e-10,-6.541773e-09,0.07147022,3
12067455,0.9946762,-0.0009517299,0.013797658,0.10211765,0.9974428,-1.5333654e-10,-6.541773e-09,0.07147022,3
