timestamp,gyro_rad[0],gyro_rad[1],gyro_rad[2],gyro_integral_dt,accelerometer_timestamp_relative,accelerometer_m_s2[0],accelerometer_m_s2[1],accelerometer_m_s2[2],accelerometer_integral_dt
78341254,-0.019158633,0.0030082166,-0.0017632613,3998,0,0.12200336,-0.53652835,-9.386484,3998
78345256,0.030414583,0.015308723,-0.00813364,4002,0,-0.10039474,-0.47681308,-10.021573,4002
78349256,-0.0094060935,0.003601692,-0.008752468,4000,0,-0.03734668,-0.5026214,-9.808996,4000
78353275,-0.019770961,0.029951893,-0.0073318905,4019,0,-0.31239918,-0.289006,-10.152382,4019
78357262,0.013144502,0.024109593,0.0071606305,3987,0,-0.35073495,-0.74729717,-9.705311,3987
78361256,-0.012869049,-0.011382424,0.015402379,3994,0,-0.0128900455,-1.121896,-9.49717,3994
78365256,-0.024077002,0.025697028,0.012885827,4000,0,-0.084058896,-0.43792722,-9.706642,4000
78369308,0.0071305926,0.0034932669,0.0069927126,4052,0,0.004329128,-0.5969347,-9.950508,4052
78373256,-0.02644126,-0.004793657,0.00027358843,3948,0,0.20689794,-0.5508705,-9.796513,3948
78377260,-0.00833277,0.020190213,-0.0046590744,4004,0,-0.1980742,-0.49430403,-9.993035,4004
78381279,-0.0059807026,0.008539257,0.0028963715,4019,0,-0.23034897,-0.6680128,-10.02488,4019
78386103,-0.022608161,0.0047944793,0.0099648945,4824,0,0.06759191,-1.0114309,-9.527364,4824
78390054,0.007333999,0.0018935405,0.0027378025,3951,0,-0.029982397,-0.5583952,-9.54458,3951
78394054,-0.023505291,0.0063254805,-0.0045468435,4000,0,-0.019411623,-0.504618,-9.967097,4000
78398068,-0.019453738,-0.0060108486,-0.013951904,4014,0,0.18727559,-0.14477767,-9.771816,4014
78402054,0.00010085424,-0.0041991835,-0.017177038,3986,0,-0.36142525,-0.47129047,-10.246968,3986
78406054,-0.02607723,0.01807734,-0.0047772746,4000,0,-0.23457246,-0.62005013,-9.453082,4000
78410054,-0.006989522,-0.026234852,0.0023327249,4000,0,-0.061867416,-0.6798155,-9.56541,4000
78414054,-0.01110506,-0.0008508295,0.0046497416,4000,0,-0.23187721,-0.7598834,-9.9170475,4000
78418067,-0.00664628,0.00017576232,6.8808615e-05,4013,0,0.2820075,-0.6656609,-9.524105,4013
78422054,-0.0022789235,-0.03035658,-0.011952131,3987,0,0.21029204,-0.27847022,-9.884681,3987
78426075,0.004782959,0.0023255306,-0.0050418563,4021,0,-0.28755894,-0.20354673,-10.105863,4021
78430054,-0.0009283605,-0.0036594793,0.0045890566,3979,0,-0.03890263,-0.5462274,-9.722154,3979
78434054,0.0038087526,-0.022732172,0.013149131,4000,0,-0.12987958,-0.6160005,-9.780792,4000
78438073,-0.004549102,0.00032174672,0.018290661,4019,0,-0.47639957,-0.8334882,-9.790922,4019
78442054,-0.0021557582,-0.009397242,0.0059292745,3981,0,0.31032562,-0.40805843,-9.290065,3981
78446054,0.032627966,-0.037376102,-0.0035535854,4000,0,0.17380285,-0.46226287,-10.058661,4000
78450057,-0.014594449,-0.0033835063,-0.0046155946,4003,0,-0.523939,-0.47599033,-10.415929,4003
78454054,0.027983865,0.0042162067,-0.0011031593,3997,0,0.09222309,-0.016013356,-9.388167,3997
78458054,0.03641522,-0.034558732,0.008226998,4000,0,-0.1296031,-1.3455368,-9.63056,4000
78462054,-0.021166122,0.0025288118,0.009150242,4000,0,-0.5479654,-0.5877898,-10.187221,4000
78466054,0.039481126,0.015133816,0.0033020205,4000,0,0.46807984,-0.5430732,-9.073936,4000
78470106,0.026166566,-0.042107645,-0.012868652,4052,0,0.07029841,-0.7030986,-9.9185915,4052
78474054,0.0015370187,0.011166496,-0.013936865,3948,0,-0.38609666,-0.03682482,-10.1542635,3948
78478079,0.021768373,0.0117310155,-0.007491919,4025,0,0.20002069,-0.4494431,-9.480159,4025
78482054,0.028276598,-0.01958532,0.000463366,3975,0,-0.6623868,-0.93013626,-10.371117,3975
78486054,-0.0031337405,0.019349277,0.01030238,4000,0,-0.27309677,-0.8801011,-9.500121,4000
78490054,0.01668879,0.0028057224,0.003609084,4000,0,0.24497534,-0.7299192,-9.295343,4000
78494054,0.028049527,-0.010016961,-0.010151726,4000,0,-0.20484468,-0.45048296,-10.511649,4000
78498054,-0.015598133,0.010049019,-0.00875624,4000,0,0.07600508,-0.26070994,-9.8413925,4000
78502057,0.027035322,0.0104828775,-0.008094979,4003,0,-0.059844706,-0.44708782,-9.73071,4003
78506054,-0.00054671546,0.010491507,0.007864256,3997,0,-0.36315745,-0.83273715,-9.995926,3997
78510054,-0.009583875,0.009670528,0.014196765,4000,0,-0.052418802,-0.929298,-9.684652,4000
78514054,0.0148882475,0.016465982,0.01044554,4000,0,-0.10807298,-0.8478546,-9.621978,4000
78518062,-0.021843093,0.015252332,-0.0016624462,4008,0,-0.0072195474,-0.5953586,-9.777092,4008
78522054,0.009677783,-0.0032008458,-0.008210129,3992,0,0.1286482,-0.39861012,-9.651373,3992
78526056,-0.0068843877,0.02099412,-0.0061890795,4002,0,-0.19851841,-0.5958534,-9.806616,4002
78530075,-0.024827791,0.0062932996,0.0037501992,4019,0,-0.14459807,-0.5099336,-10.0039625,4019
78534054,-0.0073750443,-0.0006626643,0.014168674,3979,0,-0.17730951,-1.0260062,-9.812414,3979
78538054,-0.030822558,0.024654815,0.008238804,4000,0,-0.14743325,-0.75943434,-9.190305,4000
78542054,-0.023972439,-0.0015437071,-0.001975811,4000,0,0.2541899,-0.6121685,-9.751528,4000
78546054,-0.018359177,-0.0027270347,-0.011603712,4000,0,0.09776837,-0.55340165,-10.328172,4000
78550061,-0.023859326,0.00203653,-0.009323926,4007,0,-0.17666425,-0.13957173,-9.762667,4007
78554106,-0.027765531,-0.005068112,-0.0011793204,4045,0,-0.12499009,-0.5958062,-9.869741,4045
78558854,-0.026295481,-0.0014002562,0.012219951,4748,0,-0.15985574,-0.7393348,-9.862051,4748
78562854,-0.019988187,0.007578996,0.00837583,4000,0,-0.33168575,-0.71010256,-9.687996,4000
78566856,-0.014789073,0.004605425,-0.006017938,4002,0,0.31704214,-0.34570146,-9.648418,4002
78570903,-0.008411106,-0.0150017245,-0.011948173,4047,0,0.09493871,-0.39421788,-9.944793,4047
78574857,-0.014887424,0.020155134,-0.006780311,3954,0,-0.37306353,-0.3836885,-10.011939,3954
78578887,-0.001580758,-0.0043619545,0.0012122988,4030,0,-0.00619648,-0.28193176,-9.609486,4030
78582854,0.012231621,-0.0064875167,0.014483161,3967,0,-0.44092232,-1.0072486,-9.947838,3967
78586856,-0.016453061,0.030729393,0.010266098,4002,0,-0.07060402,-0.65472925,-9.4024725,4002
78590854,0.012369395,-0.018376874,-0.0024807262,3998,0,0.1320184,-0.1707924,-9.928912,3998
78594861,0.028165784,0.009934162,-0.009898941,4007,0,-0.07125005,-0.6738632,-9.957676,4007
78598863,-0.0060710483,0.008891174,-0.010221642,4002,0,0.2123955,-0.24818392,-9.614901,4002
78602875,0.026376445,-0.012028508,0.0006983371,4012,0,-0.43148664,-0.31172568,-10.584852,4012
78606882,0.02691767,0.030824346,0.0126234405,4007,0,0.0067123505,-1.2937672,-9.192963,4007
78610854,-0.021380417,-0.002092477,0.008531437,3972,0,-0.010960111,-0.5172833,-9.407141,3972
78614854,0.029985055,0.011295425,-0.002910137,4000,0,-0.27805087,-0.45076323,-10.40261,4000
78618860,0.011945501,0.010664987,-0.013517309,4006,0,0.48450264,-0.882257,-9.169391,4006
78622854,-0.015112766,-0.015056851,-0.011883913,3994,0,-0.30500576,-0.0995033,-10.096332,3994
78626857,0.03653416,0.017291052,0.0022052436,4003,0,-0.36466566,-0.6893367,-10.130031,4003
78630854,0.015196772,-0.008128963,0.0137225455,3997,0,0.17954406,-1.3637488,-9.416039,3997
78634885,-0.03954448,0.004216574,0.012546149,4031,0,-0.3579661,-0.32343838,-9.870977,4031
78638854,0.031026045,0.016542338,0.0015698773,3969,0,0.122470215,-0.70535636,-9.77755,3969
78642854,-0.0068573,-0.015415754,-0.014088782,4000,0,0.22621079,-1.0073985,-9.943486,4000
78646863,-0.044175796,0.009167475,-0.008257205,4009,0,-0.27890226,0.06282391,-10.138385,4009
78650854,0.03527816,0.0022702496,0.001831235,3991,0,-0.29095918,-0.9112687,-9.67007,3991
78654919,-0.019654723,-0.008780053,0.014447395,4065,0,-0.25870955,-0.88983256,-9.79723,4065
78658854,-0.031882223,0.026072763,0.013185918,3935,0,-0.20158327,-0.47189778,-9.692328,3935
78662882,0.012526751,-0.0036648095,-0.0019545064,4028,0,0.1449401,-0.9301546,-9.501054,4028
78666863,-0.03421565,-0.008799563,-0.01258721,3981,0,-0.059664078,-0.3832603,-9.969321,3981
78670854,-0.0150419185,0.0110356985,-0.0113200545,3991,0,-0.024277078,-0.2000353,-9.428028,3991
78674854,-0.0154926935,-0.022155846,0.0028224727,4000,0,-0.34979838,-0.7094682,-10.287202,4000
78678857,-0.017393652,0.013050604,0.013748845,4003,0,-0.24707025,-0.689941,-9.943933,4003
78682854,-0.04035615,0.018545186,0.015668564,3997,0,0.34092233,-0.744908,-8.779802,3997
78686854,-0.030369258,-0.014809941,-0.0010631254,4000,0,-0.32194346,-0.81900525,-10.574374,4000
78690883,-0.0076577943,0.022696467,-0.012419692,4029,0,0.13722833,-0.51840067,-9.863845,4029
78694854,-0.04730433,-0.014182491,-0.006161847,3971,0,-0.019209359,-0.35791564,-9.506893,3971
78698860,-0.017883424,-0.008498799,0.007876303,4006,0,-0.72455305,-0.49197966,-10.62824,4006
78702854,-0.003399828,0.017148197,0.015055818,3994,0,0.11524651,-0.785702,-9.280166,3994
78706875,-0.059617132,-0.016722538,0.014074854,4021,0,0.31904748,-0.81263113,-9.490856,4021
78710854,-0.022844514,-0.0018197675,-0.0075406455,3979,0,-0.2367444,-0.66735107,-10.304341,3979
78714854,-0.040624693,0.0028016218,-0.012187633,4000,0,0.13093601,-0.5142628,-9.393913,4000
78718894,-0.05549916,-0.027670266,-0.004665407,4040,0,-0.082706794,-0.17146373,-9.926638,4040
78723654,-0.018523794,0.003663654,0.015302784,4760,0,-0.31194103,-0.5832572,-9.878513,4760
78727675,-0.05094283,0.0042472165,0.015922539,4021,0,0.1706733,-1.1407125,-9.2786875,4021
78731654,-0.044994168,-0.030642953,-0.0015021865,3979,0,0.03612025,-0.5669283,-9.910954,3979
78735663,-0.024915867,0.019722465,-0.012607177,4009,0,-0.20302889,-0.93686473,-10.249603,4009
78739654,-0.05918651,-0.01940997,-0.010836058,3991,0,-0.041874904,0.22764556,-9.229948,3991
78743654,-0.028478887,-0.03567358,0.0045195147,4000,0,-0.5537238,-0.023858847,-10.468882,4000
78747667,-0.026392091,0.032269344,0.011439888,4013,0,0.10998605,-0.8744946,-9.971478,4013
78751657,-0.022867993,-0.02899967,0.0059635546,3990,0,0.3941684,-0.8268287,-9.194594,3990
78755729,-0.06381903,0.0027567705,-0.005671538,4072,0,-0.55472064,-0.752644,-10.284716,4072
78759654,-0.024974868,0.0124048665,-0.0076017966,3925,0,0.19111283,-0.13422239,-9.268505,3925
78763654,0.0031321933,-0.05057962,-0.0063565588,4000,0,-0.30757698,-0.39246804,-9.869365,4000
78767654,-0.0708695,0.018512614,0.002694715,4000,0,-0.21308276,0.04648203,-10.456788,4000
78771654,0.051586077,-0.00828465,0.0035230017,4000,0,0.45850593,-1.1767766,-9.294772,4000
78775668,-0.049016196,-0.008000854,1.903763e-05,4014,0,-0.090781994,-1.1836067,-9.464518,4014
78779679,-0.020240208,0.013041159,-0.00015827364,4011,0,-0.34899777,0.14324017,-10.077363,4011
78783654,0.014253219,-0.024111863,-0.0011496006,3975,0,-0.24458842,-0.22529584,-9.75701,3975
78787654,-0.040639766,0.0018249088,-0.0012999591,4000,0,-0.21665215,-0.19620194,-9.62241,4000
78791654,0.030770548,-0.011414391,-0.0029527503,4000,0,0.07788459,-0.36432663,-10.182909,4000
78795654,-0.017658003,0.016655013,0.0040001995,4000,0,-0.44467896,-1.1862313,-10.201084,4000
78799656,-0.010939989,0.009200139,0.0019834307,4002,0,0.34613106,-0.74038446,-9.234381,4002
78803657,0.021893036,-0.021951657,0.004363876,4001,0,-0.21784885,0.01542307,-9.69879,4001
78807654,-0.0054873195,0.0252133,-0.0018345239,3997,0,-0.4436772,-0.7083867,-10.141318,3997
78811656,0.036568284,-0.022328703,-0.009058648,4002,0,0.08760875,-0.21331398,-9.874776,4002
78815662,-0.009620513,0.013667458,0.0009851628,4006,0,-0.5239062,-0.8679833,-10.519933,4006
78819654,0.0032871536,0.055288807,0.002210572,3992,0,0.35029405,-0.3932855,-8.7681465,3992
78823654,0.03869189,-0.034307886,0.0041575683,4000,0,0.53017205,-0.9068325,-9.657716,4000
78827654,-0.048460945,0.030424796,0.00093073625,4000,0,-0.5045104,-0.219594,-10.310835,4000
78831674,0.06856886,0.0011371196,-0.005432767,4020,0,-0.30497265,-0.7596331,-9.688493,4020
78835656,-0.05425035,-0.017207198,-0.0049076504,3982,0,-0.5206966,-0.77146804,-10.583866,3982
78839702,-0.010894466,0.07921835,0.0010074247,4046,0,0.13278216,-0.10277351,-8.776856,4046
78843664,0.019422833,-0.01907425,-0.0027919891,3962,0,0.614664,-1.3926493,-9.398627,3962
78847654,-0.038655963,0.011360995,-0.002126875,3990,0,0.31869778,-0.27120987,-10.308203,3990
78851654,0.027110815,0.02876614,-0.0029924014,4000,0,-0.3814156,-1.0481386,-9.658586,4000
78855660,-0.07477349,-0.017543357,0.011471295,4006,0,-0.7337224,-0.1764851,-10.230277,4006
78859709,0.039404362,0.0340252,0.0004124746,4049,0,-0.14064601,-0.40876448,-9.48379,4049
78863654,-0.07695429,0.012227735,-0.005248671,3945,0,0.3865645,-0.872453,-9.500075,3945
78867662,-0.0014509965,-0.0032572916,-0.0123841325,4008,0,0.2538729,0.121608995,-10.242139,4008
78871656,0.010411454,-0.0057682507,-0.00011452398,3994,0,-0.12585764,-1.5158029,-9.878526,3994
78875654,-0.093756065,-0.00054643024,0.013737327,3998,0,-0.39815947,0.067108124,-9.655533,3998
78879654,0.06512435,-0.015376982,0.013431497,4000,0,-0.20255564,-0.9269194,-9.919045,4000
78883675,-0.08097494,0.019130459,-0.0072011943,4021,0,0.23732689,-0.7724443,-9.499632,4021
78888454,-0.0011951443,-0.0075054667,-0.016278734,4779,0,0.3266106,-0.31500456,-9.657185,4779
78892463,-0.041853383,-0.016146054,-0.003973368,4009,0,-0.58629096,-0.12830904,-10.435436,4009
78896463,0.014516468,0.0070097526,0.011148605,4000,0,0.29752222,-0.5418,-9.017887,4000
78900454,-0.0697972,-0.029811878,0.019230071,3991,0,-0.38186973,-1.2126294,-10.461167,3991
78904481,0.022041636,0.043570545,-0.0066554346,4027,0,-0.3614417,-0.30554554,-9.471562,4027
78908454,-0.06536139,-0.021881707,-0.014646777,3973,0,0.45685595,-1.628567,-9.4835205,3973
78912456,-0.06609226,-0.006824017,-0.001944967,4002,0,-0.5324348,1.377065,-10.254365,4002
78916456,0.07378405,0.0069141933,0.010600333,4000,0,-0.106595695,-1.2823071,-9.615229,4000
78920458,-0.11603388,-0.035549242,0.014858243,4002,0,0.22495587,-0.5178889,-10.190966,4002
78924454,0.045866825,0.04758131,0.001592536,3996,0,-0.6922055,-1.3899921,-10.203465,3996
78928457,-0.091300145,0.017762287,-0.009282578,4003,0,0.19403708,-0.63353485,-9.372642,4003
78932461,0.0055009564,-0.007986699,-0.007207219,4004,0,0.12199519,0.28769386,-9.885864,4004
78936456,-0.034979507,0.021581236,-0.007306296,3995,0,-0.3234171,-0.25685918,-9.894071,3995
78940492,0.008194515,-0.01527082,0.0052280207,4036,0,0.15451622,-0.19090317,-9.876256,4036
78944454,-0.0148292,0.011491518,0.00031084786,3962,0,-0.61628336,-2.090372,-10.353142,3962
78948462,-0.071341306,0.04316209,0.0048855087,4008,0,-0.15528218,0.9517131,-8.695068,4008
78952454,0.05874425,-0.027265994,-0.0076526534,3992,0,0.3227725,-1.301639,-9.5907755,3992
78956473,-0.07948395,0.008064766,-0.007192409,4019,0,-0.3204738,0.47953233,-10.01643,4019
78960475,0.06334645,0.00090333563,-0.0011083576,4002,0,-0.09195131,-0.7774667,-10.388213,4002
78964454,-0.062820695,-0.019232608,0.01358447,3979,0,-0.304703,-1.0032538,-10.205661,3979
78968457,0.039290093,0.048639793,0.012631519,4003,0,0.30724332,-0.026477328,-8.360534,4003
78972454,-0.049980417,-0.03293692,0.0040763244,3997,0,-0.015519825,-1.6390542,-10.240289,3997
78976465,0.007765132,-0.011988709,-0.0088282535,4011,0,-0.24634056,1.040898,-10.113654,4011
78980457,0.009413266,0.0068636932,-0.001000953,3992,0,-0.35295478,-2.2883053,-10.624228,3992
78984456,-0.07084442,-0.025348427,0.008582509,3999,0,-0.1608298,1.3501239,-9.617286,3999
78988454,0.07657299,0.015245763,0.039702293,3998,0,0.53051335,-1.4462736,-8.9064665,3998
78992456,-0.10533117,-0.023339806,0.054577336,4002,0,0.42871103,-0.42343754,-10.124935,4002
78996456,0.032088835,-0.017476935,0.08872491,4000,0,-1.1169933,-0.039785117,-11.172519,4000
79000454,-0.07904875,-0.014827536,0.10407805,3998,0,-0.10128088,-0.9998602,-10.22506,3998
79004454,-0.05479077,-0.0067283353,0.11288008,4000,0,-0.16086042,-0.02320945,-9.501025,4000
79008480,-0.036219396,-0.00042834182,0.093108445,4026,0,0.09765164,-2.1167874,-9.634292,4026
79012454,-0.11577692,0.0045990725,0.07231959,3974,0,-0.016181994,-1.2514819,-9.915398,3974
79016456,-0.14186789,-0.026915176,0.057046,4002,0,-0.6445646,-0.5506703,-10.214574,4002
79020465,-0.0647382,0.02992133,0.017118258,4009,0,-0.34756216,-1.3070986,-8.9157505,4009
79024500,-0.16472046,-0.041139532,-0.009880964,4035,0,-0.021514187,-1.0398967,-9.672231,4035
79028454,-0.16494657,0.0475112,-0.0067284615,3954,0,-1.0114769,-0.43815416,-11.231791,3954
79032457,-0.12357494,0.041775774,-0.047242478,4003,0,0.51549923,-1.5977962,-8.605965,4003
79036453,-0.21927002,-0.011599105,-0.07440896,3996,0,-0.6158097,0.116937846,-9.641359,3996
79040454,-0.13457687,0.08314425,-0.07582471,4001,0,-0.30413315,-1.1137962,-10.392596,4001
79044470,-0.22059454,-0.01106771,-0.054508153,4016,0,0.09640381,0.10408551,-10.457278,4016
79048454,-0.1334569,0.096556626,-0.049681447,3984,0,-0.011389439,-1.2209498,-9.446616,3984
79052454,-0.21060641,0.08431324,-0.06340836,4000,0,-0.19613913,-1.2261882,-7.7559476,4000
79056462,-0.19724102,-0.01950668,-0.042068675,4008,0,-0.18336067,2.0063653,-11.575264,4008
79061255,-0.14007758,0.110064745,-0.012654752,4793,0,0.81247073,-0.7943975,-9.582658,4793
79065256,-0.16947146,-0.0043418063,0.011326046,4001,0,-0.34779957,-0.60370207,-9.115815,4001
79069256,-0.16473253,0.08001929,0.023113247,4000,0,-1.5118699,0.5760585,-10.937157,4000
79073311,-0.08601398,0.058978062,0.013547044,4055,0,2.590876,-0.13708471,-8.169679,4055
79077254,-0.14063545,-0.036922514,0.038423516,3943,0,-1.7057943,-0.4407903,-11.877822,3943
79081285,-0.11399386,0.11554719,0.055512596,4031,0,-0.0105455415,0.5885799,-8.677006,4031
79085254,-0.097505346,-0.08173904,0.041552614,3969,0,0.7985457,-0.5590484,-8.427933,3969
79089258,-0.040129207,0.028726725,0.041661583,4004,0,-1.4949527,0.3265844,-12.944636,4004
79093256,-0.12747933,0.082275696,0.04830018,3998,0,1.6507736,-0.8048044,-8.053743,3998
79097267,-0.036130223,-0.090671524,0.017248517,4011,0,-0.14396904,-0.25765395,-9.954719,4011
79101256,-0.040430125,0.093469605,-0.010439201,3989,0,-0.34697452,0.44379193,-9.014819,3989
79105259,-0.034039497,-0.06779267,0.009584821,4003,0,1.0196575,-0.5909758,-10.106104,4003
79109259,-0.030915942,-0.0119089605,0.003725042,4000,0,-1.114908,-0.08839508,-11.456542,4000
79113258,-0.024830507,0.0881369,-0.028263714,3999,0,0.4753566,-0.84088725,-7.0492635,3999
79117276,-0.051964734,-0.10156399,-0.02668598,4018,0,0.46576148,0.32896286,-9.602625,4018
79121256,-0.009716186,0.043064017,-0.015722284,3980,0,-0.29531965,-0.1895937,-11.646375,3980
79125302,0.01250197,-0.03146906,-0.034874916,4046,0,0.2858542,-1.2336676,-8.144153,4046
79129259,-0.08879915,-0.05500899,-0.00858026,3957,0,-0.58054227,0.19611138,-10.302293,3957
79133278,0.04810264,0.023369431,-0.010778754,4019,0,0.7504981,-0.07462875,-9.9887495,4019
79137258,-0.023497146,-0.026606921,0.0019756954,3980,0,0.08969384,-1.8075576,-10.146987,3980
79141256,-0.059888814,0.001575753,-0.01376832,3998,0,-0.7175915,0.192128,-10.063229,3998
79145264,0.0023062462,0.0038891532,0.001445084,4008,0,0.73091465,0.608295,-8.274068,4008
79149265,0.010106069,-0.06782125,0.01773209,4001,0,-0.19097644,-0.78035897,-11.303475,4001
79153256,-0.09673067,0.05062835,0.043858267,3991,0,-0.78072023,-0.69805986,-10.033215,3991
79157262,-0.027738282,-0.001775767,0.02820863,4006,0,0.60476506,-0.60424113,-9.412623,4006
79161260,-0.024010558,-0.0068351105,0.00815576,3998,0,0.35496488,-0.19376713,-9.1634865,3998
79165256,-0.048713133,0.038727462,0.038849525,3996,0,-0.5386501,-0.992278,-10.316817,3996
79169254,-0.038234275,-0.045405477,0.014797758,3998,0,-0.012605589,0.0070894165,-10.404005,3998
79173258,-0.04240643,0.020428592,0.011377637,4004,0,-0.42165938,-0.19312927,-10.034699,4004
79177254,-0.034538772,0.03311468,0.017880596,3996,0,0.0983426,-0.3625122,-9.298293,3996
79181256,-0.073546104,-0.005851445,0.019250218,4002,0,0.2146187,-1.2534621,-9.764468,4002
79185287,-0.003176007,0.015450253,-0.03283527,4031,0,-0.34180823,-0.005273957,-9.834411,4031
79189256,-0.0925058,0.05900226,-0.006699114,3969,0,1.0060854,0.83377117,-8.774007,3969
79194054,-0.027058298,-0.05109667,0.007941688,4798,0,-0.5566526,-0.9260316,-10.689519,4798
79198063,0.03168432,0.05477713,-0.021909619,4009,0,-0.68220764,-0.42517075,-9.040811,4009
79202054,-0.1119467,0.006326,0.0019539203,3991,0,1.3600107,0.59384274,-9.289172,3991
79206086,0.07702631,-0.047685232,-0.009744366,4032,0,-0.53809386,-0.7330553,-11.420136,4032
79218057,0.08910262,-0.0040636864,-0.0011944234,4000,0,-0.54235077,0.43911365,-11.187083,4000
79222063,-0.09649805,0.05899885,0.01105241,4006,0,-0.25604263,-2.4545655,-8.531482,4006
79226103,-0.025911111,-0.092873156,-0.00012487211,4040,0,0.24085605,0.048593584,-9.7911825,4040
79230057,0.03632372,0.031480335,-0.014145444,3954,0,0.64699817,0.24845932,-9.294109,3954
79234054,-0.09037109,-0.042658657,0.013074284,3997,0,-0.51554215,-1.8577689,-9.66164,3997
79238064,-0.03624798,-0.053520966,-0.0005668827,4010,0,-0.024356946,1.2658385,-10.61299,4010
79242057,0.011489211,0.017127512,0.0038692951,3993,0,0.34421942,-0.9287895,-9.189921,3993
79246070,-0.081468634,-0.03161099,0.029154653,4013,0,-0.7443165,-1.2478155,-10.304578,4013
79250054,-0.057317816,-0.0039968565,-0.0009096634,3984,0,0.40582946,0.032433204,-9.448113,3984
79254054,-0.039081812,-0.026671028,-0.013308387,4000,0,-0.4338906,-0.7857773,-9.8704405,4000
79258070,-0.07631668,-0.033017233,0.014354802,4016,0,-0.17304496,0.12712277,-10.323849,4016
79262054,-0.10662723,-0.041388422,0.005917408,3984,0,-0.19697516,0.11193206,-9.678387,3984
79266062,-0.054027684,-0.018990938,-0.0026212963,4008,0,-1.3458298,-1.214743,-10.590922,4008
79270054,-0.08672229,0.017309893,0.02318528,3992,0,1.0837455,0.32469618,-9.010755,3992
79274054,-0.051933955,-0.06242834,-0.003365866,4000,0,-0.58952385,-1.3861145,-10.1069765,4000
79278060,-0.07348141,0.05181371,-0.026033984,4006,0,-1.0424364,0.4516927,-10.141815,4006
79282057,-0.03556401,-0.039146952,0.0033687914,3997,0,1.551951,0.8879396,-9.029471,3997
79286054,-0.029312123,-0.04994918,0.0061616777,3997,0,-1.7786484,-0.75111437,-11.146549,3997
79290063,-0.06441006,0.106037736,-0.0023225131,4009,0,-0.565903,0.1645938,-8.522082,4009
79294054,-0.019519977,-0.09887031,0.0051025376,3991,0,1.9536694,0.081815325,-9.138827,3991
79298054,0.024726009,-0.010523302,-0.0023134225,4000,0,-2.0450583,-1.0695355,-11.618604,4000
79302054,-0.08071455,0.08010398,-0.01627048,4000,0,1.0760654,0.61066806,-7.3228736,4000
79306054,-0.018189523,-0.15367623,0.0011766446,4000,0,1.3507432,1.0830517,-10.230848,4000
79310117,0.09219152,0.05416889,0.0073815435,4063,0,-2.4195702,-2.1419215,-12.1166115,4063
79314054,-0.09447793,0.067580305,0.0014536697,3937,0,1.3705593,0.52729225,-7.3232937,3937
79318061,0.042868137,-0.095207244,-0.0051829345,4007,0,0.345198,0.5608621,-10.647545,4007
79322054,0.10400637,0.11212276,-0.0047623566,3993,0,-1.8671335,-2.5182345,-10.404346,3993
79326054,-0.07439197,0.0024731834,-0.00962309,4000,0,1.1704572,1.4394536,-8.513753,4000
79330054,0.0627563,-0.03732117,-0.0053847707,4000,0,-0.5300733,0.3968754,-11.304259,4000
79334057,0.135099,0.069466576,0.015242199,4003,0,-1.0113404,-1.8908498,-9.620685,4003
79338054,-0.070781365,0.010180076,0.0096510565,3997,0,0.89307195,1.2025367,-9.069896,3997
79342059,0.102928005,-0.0030748164,-0.012102005,4005,0,-0.50126326,-0.70244104,-10.525923,4005
79346054,0.07236148,0.037446517,-0.0020585584,3995,0,0.24292192,-0.6264071,-9.448066,3995
79350054,-0.071258284,0.011653231,0.009954878,4000,0,0.54374576,-0.16293962,-9.241345,4000
79354055,0.119946934,-0.05123671,0.0008624646,4001,0,-1.1076084,-0.9378185,-10.394631,4001
79358062,0.0025803556,0.044855446,0.023179632,4007,0,0.38341781,0.16991682,-10.1769905,4007
79362083,-0.04753219,0.038782757,0.02583551,4021,0,0.46480325,-1.1388832,-9.366609,4021
79366054,0.08101699,-0.053512074,-0.0060264748,3971,0,-0.8219934,-1.0808771,-9.832707,3971
79370054,-0.06062625,0.06428438,-0.0005204229,4000,0,0.8328584,0.49631086,-10.054461,4000
79374054,0.018188175,-0.0047631115,0.0038221201,4000,0,0.3570189,-1.2698408,-9.198954,4000
79378854,-0.027645467,-0.017392473,-0.00348609,4800,0,-1.4287366,-0.759644,-10.651981,4800
79382886,-0.07619371,0.10206751,-0.003613989,4032,0,1.4498641,1.1061072,-9.202321,4032
79386869,0.00926368,-0.020708244,0.0011600576,3983,0,-0.3713158,-2.3954256,-9.176775,3983
79390885,-0.1101885,0.031956602,-0.023652395,4016,0,-1.1481743,-0.17975053,-10.518329,4016
79394854,-0.07014231,0.059256148,-0.023162594,3969,0,1.9092082,1.5209824,-8.593898,3969
79398862,0.016466921,-0.07321353,0.006402543,4008,0,-1.1257325,-2.5960414,-10.838484,4008
79402854,-0.12979196,0.03653088,0.0032284274,3992,0,-0.61388355,0.90895665,-10.31934,3992
79406857,-0.042886224,0.053725075,0.0029348389,4003,0,1.7305157,0.7006974,-8.393145,4003
79410902,0.05042747,-0.071533896,0.019403946,4045,0,-0.76029676,-2.404821,-10.756937,4045
79414854,-0.13810018,0.060680725,-0.0030674243,3952,0,0.34949872,1.3138901,-10.201503,3952
79418882,0.038141843,0.027702382,-0.011213709,4028,0,1.197204,0.50341606,-8.624353,4028
79422854,0.0472808,-0.07363489,0.026688496,3972,0,-0.89287186,-1.414161,-10.650435,3972
79426856,-0.06623487,0.07170557,0.019061595,4002,0,-0.23854686,1.1301136,-9.885892,4002
79430854,0.05992083,0.024804605,0.0032374216,3998,0,0.3094734,-0.62052864,-8.637371,3998
79434883,0.05298125,-0.08245832,0.017472113,4029,0,-0.8139289,-0.84030575,-11.093247,4029
79438862,-0.048349626,0.06399379,-0.0074070143,3979,0,-0.0718464,0.20766331,-9.16411,3979
79442854,0.085218325,-0.06836575,-0.018736884,3992,0,0.15447438,-1.0391126,-8.299853,3992
79446882,0.018451279,-0.118375316,0.014946568,4028,0,-0.13176298,0.59170306,-11.726279,4028
79450857,-0.017919075,0.06206666,0.009037209,3975,0,0.11009392,-0.8504311,-9.46162,3975
79454854,0.032510135,-0.056577474,-0.0040476695,3997,0,0.6271088,-0.858814,-8.251079,3997
79458857,-0.020696377,-0.0764469,0.001060779,4003,0,0.49021372,0.45900667,-11.319362,4003
79462854,-0.0004093284,0.05498468,-0.013539156,3997,0,-0.2190593,-1.957275,-9.439156,3997
79466854,-0.008921408,-0.07322392,-0.018863425,4000,0,-0.1907845,-0.081111275,-8.827258,4000
79470854,-0.06342892,-0.064811625,0.010634625,4000,0,0.16392164,0.84031373,-10.804193,4000
79474901,0.021740232,0.04540089,0.013298864,4047,0,-1.4253882,-2.3380089,-9.65007,4047
79478854,-0.05210431,-0.053012896,0.0038399014,3953,0,0.6400305,-0.077310994,-8.940279,3953
79482854,-0.09484763,-0.071931034,0.0018170426,4000,0,0.36947286,1.0102234,-10.817373,4000
79486874,0.077619426,0.034650046,0.008817448,4020,0,-1.0628117,-2.134276,-10.21843,4020
79490856,-0.15238424,-0.0744811,0.009187878,3982,0,1.30697,0.7229066,-8.946162,3982
79494906,-0.06741666,-0.06654855,0.021822996,4050,0,-0.6029034,0.92031056,-11.972856,4050
79498856,0.07287906,0.1103056,0.025447574,3950,0,-1.3353622,-2.8366387,-9.83156,3950
79502882,-0.18224558,-0.06106128,0.012087074,4026,0,1.705833,0.28238538,-7.8969116,4026
79506878,0.006230245,-0.04452224,-0.0033874053,3996,0,-1.557779,0.5256284,-11.939233,3996
79510857,0.045389604,0.14070067,0.009225608,3979,0,-0.42752865,-2.0011327,-9.269632,3979
79514889,-0.18545732,-0.10767242,0.008395382,4032,0,1.4508775,1.2386093,-8.445563,4032
79518854,0.08210709,0.006555634,-0.0049282806,3965,0,-2.26531,0.12901966,-12.030426,3965
79522854,-0.0062758555,0.17038809,0.017220529,4000,0,0.5889422,-1.5890278,-8.029775,4000
79526854,-0.15091617,-0.13683201,0.005444434,4000,0,1.0340528,0.47400737,-9.082356,4000
79530882,0.09934372,0.088020496,-0.025307436,4028,0,-2.680767,-0.019755956,-12.15217,4028
79534854,-0.030134032,0.11366813,0.011397331,3972,0,2.2055247,-0.87990487,-6.3334546,3972
79538883,-0.115719475,-0.19581865,0.008330936,4029,0,-0.4011104,0.7561604,-11.356089,4029
79542854,0.09270724,0.1607128,-0.006005731,3971,0,-2.4862547,-1.1474147,-11.765427,3971
79547654,-0.06837235,-0.0036746429,0.0208784,4800,0,2.3321857,-1.180775,-7.250786,4800
79551654,0.020991817,-0.076084055,-0.008924032,4000,0,-1.962887,1.356468,-12.793722,4000
79555657,-0.017916488,0.26285946,-0.015542022,4003,0,0.008800767,-0.678908,-9.362958,4003
79559679,0.0071677514,-0.12275877,0.012087667,4022,0,1.5853114,-0.6825975,-8.593441,4022
79563654,0.04524583,0.025915867,-0.0076229214,3975,0,-2.6458058,0.094815366,-12.275583,3975
79567654,-0.049760904,0.19294237,0.00068934064,4000,0,0.9899932,-0.32533604,-8.105255,4000
79571654,0.03733229,-0.12907289,0.004762129,4000,0,1.0627534,-0.8758561,-9.360849,4000
79575654,0.026717467,0.06254539,-0.023774248,4000,0,-2.0221148,-0.04064943,-11.552084,4000
79579654,-0.10498034,0.15140884,-0.010974864,4000,0,1.7598056,0.235194,-7.7946095,4000
79583657,0.10733778,-0.16472784,0.0046364465,4003,0,0.5255392,-1.0290805,-9.471473,4003
79587654,-0.03494504,0.086068854,0.005376876,3997,0,-1.713845,-0.5292012,-11.916249,3997
79591654,-0.10517832,0.12626234,0.0052279886,4000,0,2.1949592,-0.21283674,-8.05424,4000
79595706,0.15313433,-0.16731958,0.02162183,4052,0,-0.28351638,-1.2258099,-10.091871,4052
79599660,-0.14827448,0.1599802,0.002616942,3954,0,-0.86819494,-0.07649204,-11.186363,3954
79603654,-0.041242532,0.03563354,-0.0004859938,3994,0,1.8296593,0.4713041,-7.1381383,3994
79607695,0.11219497,-0.15943018,0.03381285,4041,0,-2.2712982,-1.4823126,-12.426215,4041
79611667,-0.16552797,0.18155272,0.0151356,3972,0,-0.15236667,0.15458512,-9.950366,3972
79615710,-0.011325781,-0.06366677,0.005342511,4043,0,1.6771395,0.4601038,-7.2958126,4043
79619656,0.062846616,-0.08400115,0.026443604,3946,0,-1.9008843,-2.0469112,-12.473788,3946
79623654,-0.17189501,0.11772384,-0.0033963663,3998,0,1.4465649,0.9030475,-8.892821,3998
79627654,0.01649117,-0.1065714,0.007033546,4000,0,0.65221673,0.22606492,-9.209514,4000
79631654,0.009610347,-0.03742616,0.033084664,4000,0,-1.467275,-1.783894,-11.561395,4000
79635666,-0.12346874,0.06370698,-0.0010453683,4012,0,0.9165021,0.92608154,-8.899906,4012
79639663,0.014148767,-0.046089675,0.011284911,3997,0,0.2106792,-0.6384338,-9.595324,3997
79643663,-0.0046951487,-0.037929986,0.02457544,4000,0,-0.7775012,-1.7107705,-10.334128,4000
79647660,-0.06586641,0.05647113,-0.0101105785,3997,0,0.15040307,1.4077537,-9.084712,3997
79651654,0.0016253212,-0.053540997,0.01919137,3994,0,0.79043823,-0.29278535,-8.909262,3994
79655654,-0.006442954,-0.09336772,0.037391096,4000,0,-1.2391205,-1.611002,-11.831294,4000
79659654,-0.00095708657,0.10938796,0.002201053,4000,0,0.008273375,0.5261187,-9.13621,4000
79663714,-0.048199426,-0.13008998,0.031038344,4060,0,2.22715,0.36439767,-7.800586,4060
79667654,0.029325068,-0.06605687,0.030896936,3940,0,-2.489376,-0.62036645,-13.0480385,3940
79671654,-0.0051462017,0.13941756,0.012512828,4000,0,0.97444147,-0.4390451,-7.325577,4000
79675662,-0.051258676,-0.22863357,0.03859477,4008,0,1.2889159,1.1220943,-9.953328,4008
79679702,0.09140919,0.06318286,0.038450412,4040,0,-3.1794796,-1.6082362,-13.345017,4040
79683654,-0.078802906,0.09101233,0.011116676,3952,0,3.0498183,-0.9957746,-5.1573796,3952
79687664,-0.00039831776,-0.23415057,0.036415704,4010,0,0.08228835,1.7603949,-11.241302,4010
79691654,0.08875997,0.16778228,0.020111093,3990,0,-2.530324,-2.1558926,-11.613734,3990
79695654,-0.15469235,-0.0306238,0.017872833,4000,0,2.4512696,0.40318456,-5.6599674,4000
79700456,0.12848665,-0.08656191,0.037255444,4802,0,-2.793854,0.12616262,-13.575942,4802
79704454,-0.08398248,0.2246023,0.01975485,3998,0,0.83787864,-2.059387,-7.430984,3998
79708462,-0.1256803,-0.17067274,0.009499541,4008,0,1.2846321,1.6210071,-8.169229,4008
79712454,0.24232665,0.056909174,0.032436106,3992,0,-2.4868748,-1.5311188,-13.125306,3992
79716475,-0.17802799,0.12895717,0.021296902,4021,0,1.7617189,-0.49699667,-7.06999,4021
79720465,-0.007700973,-0.123564005,0.013488019,3990,0,-0.61095756,2.1968539,-10.897063,3990
79724454,0.17722718,0.15862924,0.041462857,3989,0,-1.9302752,-3.2033355,-11.471122,3989
79728454,-0.18154626,0.036594022,0.011866082,4000,0,1.4669856,0.29849616,-7.749758,4000
79732454,0.09260735,0.003761814,0.02379123,4000,0,-0.8059627,1.9378154,-11.479723,4000
79736502,-0.0022151365,0.12531017,0.055452716,4048,0,-0.19042516,-3.281794,-9.799191,4048
79740456,-0.12217252,-0.0008917659,0.019947056,3954,0,-0.21151078,1.3286995,-9.03546,3954
79744454,0.104746416,0.07375093,0.038072396,3998,0,-0.46940973,0.28534088,-11.713686,3998
79748454,-0.104444996,0.07481322,0.051436678,4000,0,0.17131817,-3.1643834,-9.823715,4000
79752454,-0.028877458,0.0414481,0.01576757,4000,0,-0.24731009,1.2674834,-8.888808,4000
79756458,0.031357046,0.062599786,0.06326515,4004,0,1.0014346,0.18120603,-10.052466,4004
79760463,-0.13027145,0.034565385,0.065446615,4005,0,-0.73065215,-1.0949609,-10.669207,4005
79764457,-0.017200943,0.06531173,0.054850604,3994,0,-0.40718624,0.6819403,-9.507136,3994
79768454,-0.055499576,0.009610573,0.08888058,3997,0,0.87364775,-0.6383408,-10.298882,3997
79772457,-0.11912432,0.04097439,0.074627556,4003,0,-0.88700426,-0.7452143,-9.4700365,4003
79776456,-0.0573889,0.02043467,0.07401609,3999,0,0.5679368,0.672634,-9.419804,3999
79780502,-0.047032036,0.012835387,0.112797946,4046,0,0.45989686,-0.5960491,-10.892183,4046
79784456,-0.08612742,0.01757451,0.107175715,3954,0,-0.84597373,0.32702586,-8.679538,3954
79788473,-0.11128438,-0.030271819,0.11614295,4017,0,0.25907588,0.436195,-9.835463,4017
79792454,0.00786338,0.007908323,0.13272625,3981,0,-0.28988567,-1.0322465,-10.1717615,3981
79796465,-0.08335492,-0.05735142,0.13164042,4011,0,-0.21875054,0.09166799,-9.384083,4011
79800473,-0.121278815,-0.002029207,0.14157237,4008,0,0.74986523,1.5454713,-10.007869,4008
79804454,0.09330211,-0.031037385,0.17159529,3981,0,-0.14126337,-1.4095097,-8.246162,3981
79808454,-0.10744723,-0.12583224,0.16096249,4000,0,-0.63476384,-0.14960895,-10.446408,4000
79812457,-0.0059909816,0.024041492,0.17063156,4003,0,0.12774915,1.8635268,-10.621762,4003
79816456,0.04715877,-0.079656206,0.18508452,3999,0,-0.020551082,-2.2057116,-8.410889,3999
79820454,-0.123646185,-0.10913304,0.1649145,3998,0,-0.16926485,0.7951508,-10.312035,3998
79824454,0.17323613,0.016097028,0.19366454,4000,0,0.42066798,0.5452438,-9.123256,4000
79828456,-0.05235805,-0.14650705,0.2044224,4002,0,0.26430038,-1.650733,-9.908056,4002
79832454,-0.049388483,-0.04209694,0.18362238,3998,0,-1.1473625,1.5687023,-11.706435,3998
79836463,0.19538544,0.02604724,0.21465126,4009,0,0.20867485,-2.2011957,-8.089229,4009
79840476,-0.15495163,-0.17315961,0.19217305,4013,0,0.16623634,-0.34749922,-10.008371,4013
79844457,0.07535708,0.011131538,0.18412372,3981,0,-1.0489585,1.96569,-11.790172,3981
79849256,-0.0031007547,-0.019251846,0.21386522,4799,0,1.1011627,-2.1970417,-8.2505665,4799
79853254,-0.09197366,-0.13985187,0.18435568,3998,0,-1.3923409,1.4554352,-11.704703,3998
79857256,0.17854746,0.12054342,0.21650693,4002,0,-0.47910985,-0.27600121,-9.999509,4002
79861284,-0.16522492,-0.06303505,0.18099889,4028,0,1.5457896,-2.4502003,-8.526793,4028
79865256,0.0038263893,-0.04568346,0.1787923,3972,0,-1.6792517,1.6786731,-11.419762,3972
79869256,0.09953287,0.087839,0.2020952,4000,0,0.34511116,-2.886345,-8.984621,4000
79873254,-0.17455955,-0.051421378,0.18402533,3998,0,0.33238277,0.71629953,-8.948995,3998
79877256,0.02267662,-0.008167709,0.20747793,4002,0,-1.211811,1.4097364,-12.309191,4002
79881313,0.017133888,0.11672642,0.20508221,4057,0,-0.3994893,-4.077246,-9.121645,4057
79885261,-0.09779706,-0.05511786,0.17994086,3948,0,0.3798101,0.6163497,-8.032362,3948
79889259,0.01100699,-0.026139053,0.21005952,3998,0,-0.5942189,1.252377,-12.200548,3998
79893256,-0.05342249,0.15214118,0.19805996,3997,0,-0.2395995,-1.8560345,-8.99314,3997
79897256,-0.08882063,-0.082491815,0.21181308,4000,0,0.9277185,1.1148965,-9.079758,4000
79901259,0.09069682,0.031826902,0.22744122,4003,0,-2.2989233,-1.0903838,-12.519703,4003
79905258,-0.10019107,0.19484523,0.2012746,3999,0,0.50824696,-1.2782935,-7.220409,3999
79909256,-0.12890795,-0.15951636,0.21404861,3998,0,0.91831607,1.3769693,-10.232635,3998
79913283,0.11420437,0.10304809,0.22085664,4027,0,-2.9163363,-1.8421997,-12.742244,4027
79917254,-0.15835817,0.15430215,0.22225545,3971,0,2.2330072,-0.08144904,-5.483307,3971
79921256,-0.0866883,-0.17990205,0.24829783,4002,0,0.02599987,1.6839904,-12.0186205,4002
79925256,0.06402038,0.22764653,0.23576023,4000,0,-3.1015506,-2.1691518,-11.757844,4000
79929260,-0.23847188,0.05182488,0.22067718,4004,0,3.1448355,-0.70543146,-6.046049,4004
79933256,0.005830591,-0.12726656,0.23672517,3996,0,-1.9531751,2.0494986,-13.007256,3996
79937268,0.0058056684,0.24874373,0.23286892,4012,0,-0.43770015,-1.89878,-9.047022,4012
79941254,-0.28724098,-0.044522043,0.24238214,3986,0,2.9075606,1.0565624,-7.6876407,3986
79945256,0.16822806,-0.057083134,0.28478914,4002,0,-3.5331757,0.47550535,-13.68339,4002
79949261,-0.13328244,0.22482507,0.25042167,4005,0,1.066422,-2.0807042,-8.074754,4005
79953262,-0.1646458,-0.093111,0.25825122,4001,0,2.1082816,2.3827105,-8.051973,4001
79957264,0.16975266,-0.042308353,0.28383,4002,0,-2.8437152,-1.1228938,-12.459082,4002
79961257,-0.1689986,0.16141559,0.2572838,3993,0,1.970131,-0.6624886,-7.8943605,3993
79965330,0.068594456,-0.14293292,0.30413538,4073,0,0.5750214,2.467455,-8.9687805,4073
79969256,0.114177436,-0.0027106311,0.29921293,3926,0,-2.3843188,-1.6082029,-11.935925,3926
79973254,-0.12158332,0.13657297,0.27796894,3998,0,1.9006401,0.34255514,-8.271976,3998
79977259,0.22390182,-0.20918341,0.31374308,4005,0,0.069245696,0.27065632,-9.043653,4005
79981257,0.023994341,-0.011515699,0.2943436,3998,0,-1.5114164,-1.2040435,-11.723248,3998
79985267,0.02832828,0.081189334,0.3113448,4010,0,1.7961824,1.6114484,-7.355209,4010
79989262,0.13372561,-0.22224705,0.33718514,3995,0,-0.6024702,-1.0034746,-9.725863,3995
79993256,-0.028258776,0.07464204,0.30003604,3994,0,-2.0376163,-0.4710665,-12.545973,3994
79997265,0.029105166,0.05012539,0.3347564,4009,0,2.5549033,0.1418068,-6.666678,4009
80001259,0.0044951513,-0.24142736,0.31893277,3994,0,-1.2498953,-1.1363814,-10.787543,3994
80005257,-0.062121753,0.15193757,0.32220653,3998,0,-1.1480321,1.11384,-12.084187,3998
80009260,-0.008506744,-0.02019137,0.35398474,4003,0,2.1651323,-1.6488556,-6.857687,4003
80013256,-0.053712584,-0.13106062,0.32452184,3996,0,-2.5045214,0.19508798,-12.218457,3996
80017278,-0.05325804,0.21053904,0.3458914,4022,0,0.7899707,0.035876628,-10.05981,4022
80021258,-0.046395276,-0.097316004,0.32658416,3980,0,0.924483,-1.5150548,-7.2075453,3980
80025260,-0.037306767,-0.028077139,0.34150192,4002,0,-2.4863746,0.6423029,-13.338337,4002
80029254,0.034025397,0.13994278,0.35873914,3994,0,1.1833936,-0.91778266,-9.249524,3994
80034054,-0.004824306,-0.07209512,0.35055894,4800,0,-0.556465,0.110047795,-8.979245,4800
80038098,0.034354903,0.05490178,0.36407155,4044,0,-0.8464201,1.4136202,-12.953791,4044
80042057,0.047676988,0.118205115,0.34403694,3959,0,0.6183957,-2.770178,-7.575589,3959
80046054,0.03450675,-0.1292119,0.34442148,3997,0,0.5407985,0.98124576,-9.308537,3997
80050054,0.13796806,0.02797358,0.38335112,4000,0,-1.0906457,0.17005777,-12.272002,4000
80054054,0.065011516,0.11595372,0.3658,4000,0,0.71746445,-1.0230877,-6.9618645,4000
80058054,0.007818402,-0.16492634,0.3971693,4000,0,0.8499783,1.4692167,-10.481326,4000
80062057,0.19015335,0.09622761,0.4116246,4003,0,-2.4027476,-1.8962252,-11.881796,4003
80066106,-0.048670623,0.032251023,0.3935864,4049,0,2.7178552,-0.109913126,-5.2202897,4049
80070054,-0.005477382,-0.20715664,0.4324671,3948,0,-0.7818689,1.2576332,-12.97154,3948
80074054,0.12397331,0.18732744,0.4303421,4000,0,-1.7332497,-1.9254116,-10.082326,4000
80078064,-0.19617157,-0.10998286,0.438248,4010,0,3.4834552,0.35659218,-5.8957787,4010
80082054,0.12140812,-0.14571598,0.46393347,3990,0,-3.548014,0.7732055,-14.16572,3990
80086054,-0.039947644,0.18865089,0.44532397,4000,0,1.9145867,-2.2808387,-7.3739095,4000
80090075,-0.20201047,-0.251787,0.45286128,4021,0,1.9964843,1.4019665,-8.939657,4021
80094054,0.21493629,-0.022839537,0.47962165,3979,0,-3.6989653,-0.604866,-12.964556,3979
80098060,-0.15124711,0.059619002,0.46543556,4006,0,3.4684136,-1.6868078,-6.2066255,4006
80102054,0.06341109,-0.27415904,0.5043424,3994,0,-1.1976905,2.244949,-11.522555,3994
80106054,0.1972654,0.04014245,0.49083897,4000,0,-1.6983203,-1.7620261,-11.261144,4000
80110054,-0.11819945,-0.041935727,0.48585606,4000,0,2.6573012,0.26089528,-7.1170216,4000
80114057,0.25012738,-0.2198933,0.51622856,4003,0,-2.217435,0.63805807,-11.281507,4003
80118071,0.09171449,0.047593802,0.50011504,4014,0,0.22035223,-1.5232172,-10.913988,4014
80122054,0.058067843,-0.07971441,0.5392745,3983,0,1.4524454,0.92151856,-8.079387,3983
80126054,0.22073348,-0.20374063,0.5323059,4000,0,-1.5380402,-0.36946344,-11.047288,4000
80130054,0.009945254,0.09370956,0.5250769,4000,0,0.30174994,-0.503244,-10.214239,4000
80134054,0.107230954,-0.1503725,0.55284274,4000,0,1.2544258,-0.8574409,-7.5653625,4000
80138054,0.051748924,-0.2101017,0.5393548,4000,0,-1.3689963,-0.99934703,-12.995697,4000
80142075,0.029769426,0.15465967,0.5707422,4021,0,0.34126174,0.00038846128,-8.566211,4021
80146054,-0.048787415,-0.2702133,0.5801659,3979,0,1.3876185,-0.80547273,-7.374543,3979
80150100,-0.048056312,-0.10027796,0.5690077,4046,0,-3.4961739,1.1030385,-14.581645,4046
80154054,-0.038813207,0.10514385,0.5941893,3954,0,2.1956868,-2.4985454,-6.2290487,3954
80158063,-0.19163375,-0.3932201,0.5757216,4009,0,0.34385443,0.29644933,-9.590449,4009
80162054,0.019105328,0.040399104,0.60388714,3991,0,-2.7251656,0.15010013,-13.0288515,3991
80166057,-0.15611354,-0.065240994,0.5930186,4003,0,3.0666645,-2.0540628,-5.2213683,4003
80170086,-0.13458571,-0.36171126,0.6086882,4029,0,-1.9571294,2.0258188,-13.242231,4029
80174054,0.048623312,0.067693025,0.6091775,3968,0,-1.1090089,-1.6162983,-9.310773,3968
80178054,-0.23867717,-0.20216943,0.5879754,4000,0,1.8895875,-0.70301455,-7.1481004,4000
80182088,0.046321455,-0.21715026,0.6202435,4034,0,-2.2949758,1.2062465,-13.076785,4034
80186054,-0.005215907,-0.030213643,0.5955142,3966,0,0.8928511,-2.95775,-7.8458467,3966
80190054,-0.13486944,-0.24400304,0.6144454,4000,0,0.15365568,2.0929012,-10.468252,4000
80194087,0.17426658,-0.13093045,0.6311974,4033,0,-1.7054577,-1.2703363,-10.813815,4033
80198060,-0.08449658,-0.096604206,0.5930207,3973,0,0.40097222,-0.67329586,-9.151873,3973
80202054,0.039096497,-0.16971746,0.6443598,3994,0,0.19832867,1.0664423,-10.809536,3994
80206054,0.093983695,-0.1258706,0.61300135,4000,0,-0.5113491,-1.9541379,-8.241822,4000
80210056,-0.10424699,-0.088775784,0.6518371,4002,0,-0.0030381754,1.181185,-10.477659,4002
80214054,0.078842886,-0.15754947,0.6802757,3998,0,-0.2958262,-1.2962565,-10.356654,3998
80218854,-0.07770102,-0.090935536,0.67978513,4800,0,-0.980877,-0.37746266,-10.561999,4800
80222854,-0.08251994,-0.092249244,0.7215818,4000,0,1.0687866,-0.28385982,-9.358548,4000
80226854,-0.031246753,-0.16261934,0.6979509,4000,0,-1.19058,0.035689864,-9.331508,4000
80230888,-0.15196693,-0.027001673,0.75383204,4034,0,0.62299347,0.618025,-11.618509,4034
80234854,-0.10482111,-0.14445874,0.76061326,3966,0,-0.11955021,-1.0915989,-8.796064,3966
80238861,-0.11369988,-0.101946235,0.7786741,4007,0,-1.6367294,0.67518085,-10.6222725,4007
80242854,-0.114534855,-0.04010478,0.803373,3993,0,0.4620576,-2.3385162,-10.175102,3993
80246854,-0.09593281,-0.21338157,0.7841821,4000,0,-1.1519922,1.3538997,-9.328734,4000
80250908,-0.11941446,-0.01372009,0.83229893,4054,0,-0.6359932,0.78242654,-11.904093,4054
80254854,-0.09265033,-0.085619345,0.8298555,3946,0,0.9312151,-0.90857226,-6.962379,3946
80258883,-0.09202919,-0.25087103,0.8612249,4029,0,-1.193976,1.6812813,-11.777103,4029
80262854,0.031944145,0.06285491,0.85920733,3971,0,-1.0312387,-3.1751988,-11.23971,3971
80266886,-0.09418367,-0.18178593,0.8448211,4032,0,2.1578467,1.1653165,-6.214766,4032
80270854,0.08162275,-0.21694589,0.8600335,3968,0,-2.6172192,0.35496506,-13.525312,3968
80274854,0.038132843,0.10609353,0.80255705,4000,0,0.7249766,-1.0763834,-7.086909,4000
80278860,-0.02224192,-0.3387322,0.82698965,4006,0,0.7045208,1.8753095,-9.612214,4006
80282874,0.23325668,0.0011044975,0.79190785,4014,0,-3.6904366,-2.6270478,-13.676929,4014
80286882,-0.053915966,0.028514821,0.7574786,4008,0,3.5169997,-0.24399357,-4.588974,4008
80290857,0.14331952,-0.30774966,0.78686994,3975,0,-1.840947,1.6266029,-12.7783575,3975
80294854,0.1652088,0.23372911,0.7359571,3997,0,-1.432499,-2.2996342,-9.04701,3997
80298862,-0.10615909,-0.11902294,0.7356491,4008,0,1.8421006,1.0800753,-7.359828,4008
80302854,0.20048232,0.018921452,0.7070925,3992,0,-3.891226,-1.9156467,-14.538119,3992
80306854,-0.02481297,0.19504897,0.64882714,4000,0,1.7716022,-1.3647491,-5.306014,4000
80310854,-0.10160506,-0.08358996,0.6720362,4000,0,-0.43048263,1.5141131,-11.466914,4000
80314885,0.103930615,0.26569825,0.6185467,4031,0,-2.0872838,-1.6169276,-9.761917,4031
80318868,-0.2169607,0.14449845,0.5813894,3983,0,1.165418,-1.8725743,-8.471015,3983
80322854,-0.06766543,0.17413759,0.537593,3986,0,-1.1905903,1.1921875,-10.642928,3986
80326854,4.4883087e-05,0.25911987,0.52226806,4000,0,-0.49744922,-1.8114817,-8.212935,4000
80330854,-0.32174277,0.22278425,0.501901,4000,0,0.25209466,-0.38459095,-10.406007,4000
80334908,0.060012057,0.28840587,0.49406663,4054,0,-1.5273213,0.096536584,-10.254872,4054
80338854,-0.16749105,0.29958534,0.44298846,3946,0,0.8322625,-1.7028533,-7.948586,3946
80342885,-0.25081968,0.20448294,0.44651777,4031,0,-0.19596311,2.8959975,-9.254398,4031
80346854,0.11194186,0.29551837,0.45022795,3969,0,-2.3198125,-2.3656116,-11.007704,3969
80350854,-0.23262544,0.29232398,0.40960374,4000,0,0.9884127,-1.1319511,-8.479598,4000
80354860,-0.00904824,0.19340932,0.39311588,4006,0,-0.34217918,3.1466327,-10.717997,4006
80358854,0.043438636,0.2872517,0.40817547,3994,0,-0.8553228,-1.7091589,-8.129636,3994
80362854,-0.2017186,0.1496319,0.38162944,4000,0,0.18830037,0.06260463,-9.435046,4000
80366854,0.18535842,0.21540658,0.38753334,4000,0,-0.9678886,1.7777799,-11.137934,4000
80370885,-0.012858971,0.1640657,0.3592085,4031,0,0.62725246,-1.95825,-8.311653,4031
80374854,-0.15319245,0.08093329,0.3647382,3969,0,-0.4075935,2.8548706,-9.810371,3969
80378856,0.24080022,0.18282989,0.37600404,4002,0,-1.3791481,-1.3458549,-10.147788,4002
80382854,-0.08998965,0.079190455,0.33839375,3998,0,1.2852741,-0.80782163,-9.043201,3998
80386854,-0.041058503,0.05348584,0.3393737,4000,0,-0.08087735,2.8308787,-10.782408,4000
80390854,0.22112444,0.11731916,0.37113452,4000,0,-1.0653969,-3.1042638,-9.118318,4000
80394857,-0.18209109,0.02701784,0.33504397,4003,0,0.11703037,0.35213915,-10.226673,4003
80399662,0.15550679,0.09947798,0.3192259,4805,0,0.22840649,0.66683,-11.2345915,4805
80403654,-0.054118764,0.033280242,0.32770455,3992,0,-0.505167,-1.6607691,-8.738562,3992
80407654,-0.12360777,0.07402052,0.30148265,4000,0,-1.0027152,1.5398605,-11.301864,4000
80411654,0.24833837,0.09720015,0.3115941,4000,0,-0.16089597,-0.75576806,-10.362498,4000
80415667,-0.17403255,0.036335647,0.2924216,4013,0,-0.03356973,-0.6511204,-10.6776495,4013
80419657,-0.016223941,0.0850764,0.29388195,3990,0,-0.78230727,2.38696,-10.224084,3990
80423666,0.12736613,0.1044573,0.31355974,4009,0,-0.3608194,-2.102435,-9.427987,4009
80427654,-0.116997376,0.03076097,0.24770747,3988,0,0.013364836,0.4691157,-11.2132635,3988
80431654,0.012733939,0.10178663,0.26974025,4000,0,-0.11811324,2.2758005,-10.472201,4000
80435733,0.049143367,0.061182953,0.27976143,4079,0,-0.43873706,-3.3985758,-8.797613,4079
80439656,-0.084688015,0.058523085,0.22954954,3923,0,-0.033203647,1.7311238,-10.23337,3923
80443678,0.06970813,0.09620237,0.2382448,4022,0,0.611693,0.8034072,-10.701109,4022
80447654,0.0016063988,0.00581202,0.24914336,3976,0,-0.99397457,-1.6021649,-9.995768,3976
80451658,-0.0759986,0.112433694,0.21634407,4004,0,-0.4936454,1.2222836,-9.46172,4004
80455659,0.2210927,0.055621605,0.22135112,4001,0,0.19348793,-0.86356664,-10.212708,4001
80459654,-0.07103717,0.020074388,0.21563447,3995,0,-0.58482724,-0.18911119,-10.389415,3995
80463654,0.0278842,0.08979712,0.2112166,4000,0,-0.77796143,0.544447,-9.583808,4000
80467657,0.21478394,0.02972811,0.22459626,4003,0,0.63929385,-0.38301688,-8.896661,4003
80471654,-0.051241536,0.049394906,0.18524732,3997,0,-0.47051805,-0.83671635,-10.485943,3997
80475654,0.11245403,0.06323872,0.19869252,4000,0,-0.60649,1.2086513,-9.556526,4000
80479654,0.111902766,0.0121753,0.22007686,4000,0,-0.7115767,-1.1806074,-10.050035,4000
80483654,0.06642252,0.08347711,0.16230361,4000,0,-0.5410714,-0.41493335,-9.244827,4000
80487654,0.061138075,0.047471706,0.18839458,4000,0,0.6129026,1.1403308,-8.743101,4000
80491654,0.15481889,-0.014557565,0.21278441,4000,0,-1.4844716,-1.7876548,-10.629915,4000
80495674,0.030845605,0.0963222,0.17639834,4020,0,-0.0054622795,0.77841854,-8.788378,4020
80499661,0.06720124,0.012878702,0.17954592,3987,0,0.6702393,-0.51079285,-10.053821,3987
80503654,0.10226406,0.010697798,0.19745389,3993,0,-0.7249186,-0.6664831,-9.768075,3993
80507654,-0.015775193,0.10250749,0.18083267,4000,0,-0.4903075,-0.29195184,-8.801034,4000
80511656,0.09240104,-0.0009861961,0.17932785,4002,0,0.042061895,0.7458279,-10.182938,4002
80515663,0.021323856,0.068002015,0.17159061,4007,0,-1.1708664,-1.4208753,-10.879096,4007
80519708,0.0029334293,0.09599108,0.16426258,4045,0,0.19314055,0.18725744,-7.552721,4045
80523654,-0.044314213,0.025755059,0.1789434,3946,0,0.503248,1.940967,-10.180672,3946
80527654,0.13731258,0.09402983,0.1485012,4000,0,-1.9799833,-3.4124615,-10.905291,4000
80531654,-0.10592913,0.0518193,0.14285894,4000,0,1.254438,1.1014473,-8.245007,4000
80535654,-0.046169527,0.04159103,0.1664763,4000,0,0.36760938,1.6701466,-10.153313,4000
80540457,0.06878606,0.07789103,0.13443738,4803,0,-0.75163776,-2.012075,-9.14837,4803
80544456,-0.18809487,-0.034884527,0.14145516,3999,0,0.8480236,0.9068348,-9.861221,3999
80548456,0.13994929,0.019596597,0.15251543,4000,0,-0.6987521,0.7090431,-9.80903,4000
80552454,-0.051867146,0.055293716,0.13623405,3998,0,-0.012671053,-1.0219289,-8.199425,3998
80556485,-0.1489026,-0.08264687,0.12794371,4031,0,0.36313012,0.5191872,-11.076087,4031
80560454,0.26037884,0.010998657,0.1336035,3969,0,-0.10022111,0.70983356,-9.065263,3969
80564454,-0.09552356,-0.023340799,0.14837804,4000,0,0.38304192,-1.3637011,-7.814152,4000
80568477,0.019055756,-0.08204762,0.11827683,4023,0,-0.2626085,1.8129097,-12.022274,4023
80572454,0.26557854,0.0030497643,0.13699378,3977,0,0.32241172,-0.8841026,-9.015483,3977
80576462,-0.094098136,-0.109408945,0.13541667,4008,0,0.30011544,0.3108845,-8.075775,4008
80580460,0.14349698,-0.052188896,0.112354495,3998,0,-0.43482888,1.7065165,-11.59987,3998
80584454,0.25923976,-0.025367262,0.13373135,3994,0,-0.2694184,-2.9652114,-10.383612,3994
80588454,-0.077060014,-0.074840404,0.11489268,4000,0,0.81192434,1.2583183,-8.88702,4000
80592457,0.18684408,-0.0090130055,0.10906478,4003,0,-0.12293916,1.4030463,-9.649873,4003
80596489,0.22050329,-0.019785218,0.12462422,4032,0,-0.7639534,-3.6988797,-11.089676,4032
80600456,-0.14506109,-0.016636195,0.09842286,3967,0,1.0135816,2.0383086,-10.133513,3967
80604454,0.2079107,0.0054209125,0.1011418,3998,0,-0.12600961,1.3604388,-8.642078,3998
80608457,0.0973065,-0.00976188,0.116676345,4003,0,-0.8375816,-3.7858775,-10.389603,4003
80612454,-0.15916976,0.03775671,0.079104446,3997,0,0.57978183,1.1025071,-11.116443,3997
80616456,0.12536965,0.033665147,0.08714101,4002,0,-0.14048178,1.4522897,-9.022209,4002
80620563,-0.037085656,0.007062045,0.100629136,4107,0,-0.8230974,-2.7860017,-10.484049,4107
80624454,-0.12822069,0.07035087,0.05562276,3891,0,0.16679011,0.53299195,-10.113374,3891
80628454,0.060364053,0.06332259,0.06160075,4000,0,1.0262601,1.0615144,-9.286992,4000
80632454,-0.055949625,0.004612263,0.08778659,4000,0,-0.6989045,-1.319213,-10.303276,4000
80636460,-0.04751473,0.11401999,0.04606308,4006,0,0.49848387,-0.70740014,-9.89542,4006
80640467,0.017670557,0.075838946,0.052770544,4007,0,1.0734545,-0.059884064,-9.218911,4007
80644466,0.024990868,0.018001663,0.08239469,3999,0,-0.7799912,0.36099628,-10.547076,3999
80648454,0.017406913,0.116064176,0.04935561,3988,0,-0.27037162,-0.43166542,-9.887712,3988
80652454,0.016136974,0.08204635,0.049973056,4000,0,1.1952924,-0.1455918,-9.7392,4000
80656456,0.06525968,0.05456271,0.0695196,4002,0,0.3439016,0.7076542,-9.973939,4002
80660454,0.15510695,0.063741796,0.055814024,3998,0,-0.94722354,-1.5076752,-9.576966,3998
80664454,-0.01136993,0.05394942,0.05255424,4000,0,1.4172288,1.0215589,-10.837191,4000
80668454,0.106945276,0.0742888,0.04903333,4000,0,0.7653143,-0.07949711,-9.931565,4000
80672483,0.20235875,-0.0046178447,0.046434835,4029,0,-0.6787781,-1.2159444,-8.346505,4029
80676454,-0.06320715,-0.0055567194,0.05152982,3971,0,1.2106993,1.5275286,-10.533751,3971
80680454,0.19695495,0.031553134,0.043291833,4000,0,0.3715133,-1.9448788,-10.539719,4000
80684454,0.15689339,-0.071964845,0.025293896,4000,0,-0.5946674,-0.6780005,-9.646845,4000
80688463,-0.09322596,-0.045870304,0.04081558,4009,0,1.0260152,1.0486889,-9.426588,4009
80692459,0.20394568,-0.026077913,0.032393347,3996,0,0.41703743,-1.4521576,-9.425865,3996
80696468,0.037791893,-0.09043767,0.021148378,4009,0,-0.029823458,-1.726721,-10.136261,4009
80700456,-0.14321285,-0.1157608,0.03304276,3988,0,-0.110791974,1.4089947,-10.409618,3988
80704502,0.12134516,-0.05310044,0.022180375,4046,0,-0.06092854,-1.0798981,-9.696213,4046
80708454,-0.09854923,-0.1168208,0.0099453395,3952,0,0.5829955,-2.4479477,-8.781302,3952
80712456,-0.196354,-0.13107142,0.0129329795,4002,0,-0.3006019,1.5033993,-10.906589,4002
80716462,0.02024335,-0.09044726,0.017201968,4006,0,0.080779046,-0.85031915,-10.041271,4006
80720454,-0.17734511,-0.11932028,0.009116725,3992,0,0.72164434,-2.2561262,-9.652239,3992
80724500,-0.18770179,-0.13363265,-0.020522267,4046,0,0.061289743,1.0198729,-9.449321,4046
80729258,-0.08579327,-0.09541965,0.0064916634,4758,0,-0.4480127,-1.3484501,-10.110414,4758
80733254,-0.18385692,-0.13660999,-0.024358988,3996,0,-0.07349615,-0.20740715,-10.7988825,3996
80737254,-0.10389142,-0.075602345,-0.041422322,4000,0,0.30401012,0.9093923,-8.765551,4000
80741246,-0.11494695,-0.10528946,-0.008049012,3992,0,-0.7429372,-1.4929373,-10.090104,3992
80745279,-0.11991397,-0.088858,-0.043144185,4033,0,0.033035632,0.39748496,-10.674633,4033
80749274,-0.058326323,-0.04571553,-0.060884017,3995,0,0.68497026,-0.61372894,-8.874865,3995
80753258,-0.063069366,-0.08407931,-0.023018312,3984,0,-0.6375936,-0.7064434,-10.096105,3984
80757254,-0.09258203,-0.024566691,-0.043686107,3996,0,0.08538493,1.1065564,-10.159074,3996
80761259,-0.044357207,-0.060017485,-0.07356036,4005,0,0.34671706,-1.1853366,-9.999306,4005
80765258,-0.084082134,-0.072099164,-0.030274985,3999,0,0.14498465,0.42914194,-9.306874,3999
80769260,-0.054003906,-0.029897477,-0.041771073,4002,0,-0.35003918,-0.3956711,-9.970295,4002
80773256,-0.04038251,-0.0957715,-0.07449224,3996,0,0.29832163,-0.8353031,-9.939707,3996
80777278,-0.10342527,-0.09378241,-0.03050497,4022,0,0.7140869,1.3499253,-9.595885,4022
80781254,0.0046468256,-0.0630877,-0.052882202,3976,0,-0.6354432,-1.2941966,-10.052036,3976
80785258,-0.0522516,-0.14255117,-0.08798812,4004,0,0.1295897,-0.63918155,-9.763594,4004
80789256,-0.084628195,-0.1465641,-0.045483354,3998,0,1.2269058,1.2060645,-9.360084,3998
80793256,0.06277345,-0.14111802,-0.06778572,4000,0,-1.0421159,-1.5101488,-9.955932,4000
80797321,-0.030849913,-0.1841857,-0.09261423,4065,0,-0.3626938,-0.90738827,-9.881256,4065
80801256,-0.05490885,-0.19733877,-0.067631915,3935,0,1.1388588,2.4704328,-9.54874,3935
80805315,0.0786973,-0.16482143,-0.07168039,4059,0,-0.076543026,-1.6691946,-9.413009,4059
80809259,-0.05783125,-0.18913382,-0.10782711,3944,0,-0.70510894,-1.6164955,-10.83091,3944
80813254,0.0062833624,-0.17512342,-0.07751072,3995,0,0.18863234,1.7469622,-10.276334,3995
80817256,0.124728054,-0.18028939,-0.08307381,4002,0,-0.36516878,-1.2609153,-8.951095,4002
80821262,-0.14571631,-0.15267237,-0.10687328,4006,0,0.086146586,-0.8103567,-10.271007,4006
80825283,0.025260894,-0.14187235,-0.08935417,4021,0,0.18965149,1.2081554,-11.254184,4021
80829257,0.17247887,-0.16660784,-0.105506964,3974,0,-0.96040547,-1.753065,-8.796731,3974
80833256,-0.16175097,-0.12116485,-0.1072163,3999,0,0.049461707,-0.14219637,-10.083507,3999
80837254,0.096828304,-0.10556796,-0.1063952,3998,0,0.5050356,0.48735917,-11.019815,3998
80841257,0.12084057,-0.15229532,-0.116022155,4003,0,-0.9250561,-1.1245761,-8.975115,4003
80845268,-0.18433946,-0.08258467,-0.11647442,4011,0,0.11019335,0.16129881,-10.75633,4011
80849277,0.14236194,-0.09618476,-0.12724742,4009,0,0.7552105,0.13200386,-10.117065,4009
80853254,0.11360607,-0.13452421,-0.122305974,3977,0,-0.8472194,-1.09182,-9.22818,3977
80857254,-0.17150387,-0.07397211,-0.12540151,4000,0,0.48864916,-0.11486752,-10.558409,4000
80861256,0.19330141,-0.073244855,-0.12806717,4002,0,0.38365385,-0.6448775,-10.048154,4002
80865262,0.0939501,-0.12519062,-0.12769969,4006,0,-0.8495912,-0.7367128,-9.432549,4006
80869254,-0.22172835,-0.09870245,-0.12598924,3992,0,0.27611154,0.091365166,-10.804961,3992
80874054,0.1806314,-0.08737961,-0.14007378,4800,0,0.28397906,-1.140307,-10.372827,4800
80878062,-0.036576014,-0.15015475,-0.1419063,4008,0,-0.62266415,-0.18329509,-9.009283,4008
80882054,-0.15859346,-0.10472927,-0.13128833,3992,0,-0.2682174,1.3923645,-12.343167,3992
80886057,0.19495788,-0.11039571,-0.14901546,4003,0,1.0067167,-1.7405322,-8.489137,4003
80890057,-0.13358341,-0.16832261,-0.14008388,4000,0,0.040751778,-1.2367824,-8.637824,4000
80894057,-0.119042166,-0.1404179,-0.13302155,4000,0,0.007645652,0.9899324,-12.007053,4000
80898060,0.088724785,-0.11928836,-0.14435184,4003,0,0.057541363,-1.0613137,-9.272834,4003
80902054,-0.120216295,-0.21588077,-0.16085331,3994,0,-1.1907485,-1.3197255,-9.54415,3994
80906100,-0.060196005,-0.15898919,-0.15451221,4046,0,-0.6642845,1.2674977,-11.592181,4046
80910054,0.058545634,-0.114053845,-0.15859945,3954,0,0.0947562,-1.4232872,-9.919896,3954
80914054,-0.15399812,-0.21310967,-0.17907882,4000,0,-0.37602863,-0.23858938,-10.40788,4000
80918062,-0.03914727,-0.120810546,-0.15069123,4008,0,-0.17791359,0.48664162,-10.364166,4008
80922083,0.0435912,-0.11085183,-0.15159775,4021,0,-0.39743596,-2.4963422,-9.741518,4021
80926056,-0.16553319,-0.18704867,-0.17952931,3973,0,-0.8703261,1.0078831,-11.773245,3973
80930054,-0.0075860103,-0.07059292,-0.157008,3998,0,-0.17840911,0.22507249,-10.118669,3998
80934054,-0.03128548,-0.071161896,-0.16822198,4000,0,-0.19187757,-2.2697735,-9.193841,4000
80938090,-0.15988325,-0.13808094,-0.20156333,4036,0,-0.46963027,0.86490786,-11.243499,4036
80942054,0.047915794,-0.038649872,-0.16625538,3964,0,-0.3225791,-0.5121165,-10.54991,3964
80946057,-0.100473806,-0.069528244,-0.19830984,4003,0,0.41367754,-0.76857036,-9.516325,4003
80950054,-0.14549822,-0.08345317,-0.22319461,3997,0,-0.08573994,1.4881207,-10.733845,3997
80954054,0.11682147,-0.049030315,-0.17974949,4000,0,-0.67011434,-2.187114,-10.101212,4000
80958060,-0.10780492,-0.0819287,-0.20473738,4006,0,0.5120156,0.16354878,-9.796238,4006
80962054,-0.0072038653,-0.06281433,-0.22177759,3994,0,0.23552994,1.335567,-11.093481,3994
80966054,0.12989964,-0.059234403,-0.1782313,4000,0,-0.9258309,-2.3195066,-9.421159,4000
80970054,-0.07371622,-0.089262486,-0.21780488,4000,0,0.049856413,-0.11687553,-10.16755,4000
80974070,0.14339912,-0.06957348,-0.22327562,4016,0,0.21375147,1.263004,-11.079621,4016
80978054,0.06555506,-0.059009098,-0.18370749,3984,0,-0.91552895,-1.8491173,-9.331637,3984
80982054,-0.024118466,-0.09726376,-0.23125523,4000,0,0.1053701,0.31050003,-10.6205,4000
80986054,0.24222308,-0.08056511,-0.21552837,4000,0,0.37976715,0.9101245,-11.242201,4000
80990103,0.018049236,-0.08436935,-0.19121182,4049,0,-0.62207216,-1.7545736,-9.13733,4049
80994054,0.03127974,-0.11452421,-0.24195966,3951,0,1.1260636,0.81755906,-10.247895,3951
80998064,0.28122488,-0.06850276,-0.20746481,4010,0,-0.5281834,-0.96612537,-10.91623,4010
81002054,-0.0042438447,-0.11541035,-0.19973062,3990,0,-0.7629334,-0.9589984,-9.787399,3990
81006054,0.048750676,-0.0913995,-0.2382663,4000,0,1.6610149,1.7730166,-10.820105,4000
81010054,0.28900748,-0.022405876,-0.21685237,4000,0,-0.77689886,-2.7817495,-10.314737,4000
81014054,-0.04386626,-0.12700385,-0.20933741,4000,0,-1.1146299,-0.2223467,-9.327247,4000
81018057,0.13763103,-0.065037556,-0.23477249,4003,0,0.29604676,2.098398,-11.920461,4003
81022054,0.21391861,0.006514409,-0.22499983,3997,0,-0.10229976,-2.6353977,-9.278453,3997
81026083,-0.13795978,-0.10212718,-0.21977235,4029,0,-0.4675137,-0.16210936,-9.308169,4029
81030054,0.23400036,-0.008125188,-0.22816667,3971,0,-1.0152946,0.5726906,-12.685289,3971
