timestamp,q[0],q[1],q[2],q[3],delta_q_reset[0],delta_q_reset[1],delta_q_reset[2],delta_q_reset[3],quat_reset_counter
78341254,0.98104525,0.030546607,0.004416871,0.19130552,1.0,1.9787263e-09,4.5908e-11,-0.0001795194,2
78345256,0.98104644,0.030601958,0.0044572637,0.1912895,1.0,1.9787263e-09,4.5908e-11,-0.0001795194,2
78349256,0.98105043,0.030583605,0.004459494,0.19127193,1.0,1.9787263e-09,4.5908e-11,-0.0001795194,2
78353275,0.9810543,0.030534608,0.004509617,0.1912588,1.0,1.9787263e-09,4.5908e-11,-0.0001795194,2
78357262,0.98105055,0.030553002,0.0045595616,0.19127338,1.0,1.9787263e-09,4.5908e-11,-0.0001795194,2
78361256,0.9810458,0.0305341,0.0045296247,0.19130225,1.0,1.9787263e-09,4.5908e-11,-0.0001795194,2
78365256,0.98104215,0.030478938,0.004568289,0.1913286,1.0,1.9787263e-09,4.5908e-11,-0.0001795194,2
78369308,0.981039,0.030493613,0.0045758043,0.19134189,1.0,1.9787263e-09,4.5908e-11,-0.0001795194,2
78373256,0.9810406,0.030445997,0.0045547844,0.19134167,1.0,1.9787263e-09,4.5908e-11,-0.0001795194,2
78377260,0.9810429,0.030423636,0.0045897975,0.19133314,1.0,1.9787263e-09,4.5908e-11,-0.0001795194,2
78381279,0.9810421,0.03041063,0.0046024146,0.19133866,1.0,1.9787263e-09,4.5908e-11,-0.0001795194,2
78386103,0.98103917,0.030357102,0.0046008024,0.1913621,1.0,1.9787263e-09,4.5908e-11,-0.0001795194,2
78390054,0.9810378,0.030372709,0.0046053114,0.1913667,1.0,1.9787263e-09,4.5908e-11,-0.0001795194,2
78394054,0.98104095,0.030326208,0.004607241,0.19135764,1.0,1.9787263e-09,4.5908e-11,-0.0001795194,2
78398068,0.98104775,0.030292118,0.0045870547,0.19132921,1.0,1.9787263e-09,4.5908e-11,-0.0001795194,2
78402054,0.9810543,0.030295784,0.004578196,0.19129454,1.0,1.9787263e-09,4.5908e-11,-0.0001795194,2
78406054,0.98105776,0.030239744,0.004602212,0.19128576,1.0,1.9787263e-09,4.5908e-11,-0.0001795194,2
78410054,0.9810576,0.03023817,0.004546158,0.19128804,1.0,1.9787263e-09,4.5908e-11,-0.0001795194,2
78414054,0.9810565,0.03021879,0.0045382236,0.19129647,1.0,1.9787263e-09,4.5908e-11,-0.0001795194,2
78418067,0.981057,0.03020768,0.00453428,0.19129594,1.0,1.9787263e-09,4.5908e-11,-0.0001795194,2
78422054,0.98106205,0.030216696,0.004473047,0.19126989,1.0,1.9787263e-09,4.5908e-11,-0.0001795194,2
78426075,0.9810639,0.030227197,0.0044780658,0.1912592,1.0,1.9787263e-09,4.5908e-11,-0.0001795194,2
78430054,0.98106223,0.03022895,0.0044685476,0.1912671,1.0,1.9787263e-09,4.5908e-11,-0.0001795194,2
78434054,0.9810573,0.030247368,0.004422862,0.19129068,1.0,1.9787263e-09,4.5908e-11,-0.0001795194,2
78438073,0.9810506,0.030240538,0.004418912,0.191326,1.0,1.9787263e-09,4.5908e-11,-0.0001795194,2
78442054,0.98104876,0.030242061,0.0043976614,0.19133629,1.0,1.9787263e-09,4.5908e-11,-0.0001795194,2
78446054,0.9810485,0.030322406,0.004335319,0.19132581,1.0,1.9787263e-09,4.5908e-11,-0.0001795194,2
78450057,0.9810513,0.030297063,0.00432166,0.19131574,1.0,1.9787263e-09,4.5908e-11,-0.0001795194,2
78454054,0.9810502,0.030352388,0.0043389252,0.19131269,1.0,1.9787263e-09,4.5908e-11,-0.0001795194,2
78458054,0.98104525,0.030439213,0.004282785,0.19132552,1.0,1.9787263e-09,4.5908e-11,-0.0001795194,2
78462054,0.98104316,0.030398838,0.00427734,0.19134283,1.0,1.9787263e-09,4.5908e-11,-0.0001795194,2
78466054,0.9810395,0.030472584,0.0043201917,0.19134891,1.0,1.9787263e-09,4.5908e-11,-0.0001795194,2
78470106,0.9810433,0.030542798,0.004245702,0.19131953,1.0,1.9787263e-09,4.5908e-11,-0.0001795194,2
78474054,0.9810485,0.03054344,0.004267017,0.19129226,1.0,1.9787263e-09,4.5908e-11,-0.0001795194,2
78478079,0.9810501,0.030584024,0.004297265,0.19127712,1.0,1.9787263e-09,4.5908e-11,-0.0001795194,2
78482054,0.98104846,0.030648794,0.004268047,0.19127572,1.0,1.9787263e-09,4.5908e-11,-0.0001795194,2
78486054,0.98104465,0.030637471,0.004302444,0.19129618,1.0,1.9787263e-09,4.5908e-11,-0.0001795194,2
78490054,0.9810424,0.030671315,0.004312375,0.19130231,1.0,1.9787263e-09,4.5908e-11,-0.0001795194,2
78494054,0.98104477,0.030732192,0.004302355,0.1912806,1.0,1.9787263e-09,4.5908e-11,-0.0001795194,2
78498054,0.9810491,0.030699767,0.004314921,0.19126323,1.0,1.9787263e-09,4.5908e-11,-0.0001795194,2
78502057,0.9810506,0.030751007,0.004344593,0.1912467,1.0,1.9787263e-09,4.5908e-11,-0.0001795194,2
78506054,0.98104763,0.030748228,0.004362712,0.1912617,1.0,1.9787263e-09,4.5908e-11,-0.0001795194,2
78510054,0.98104286,0.030728033,0.004375407,0.19128922,1.0,1.9787263e-09,4.5908e-11,-0.0001795194,2
78514054,0.981038,0.030753223,0.004411028,0.19130959,1.0,1.9787263e-09,4.5908e-11,-0.0001795194,2
78518062,0.98104,0.030706545,0.0044310195,0.19130647,1.0,1.9787263e-09,4.5908e-11,-0.0001795194,2
78522054,0.9810426,0.03072877,0.004427227,0.1912891,1.0,1.9787263e-09,4.5908e-11,-0.0001795194,2
78526056,0.98104537,0.030709436,0.0044644275,0.19127731,1.0,1.9787263e-09,4.5908e-11,-0.0001795194,2
78530075,0.98104554,0.030660376,0.004465301,0.19128431,1.0,1.9787263e-09,4.5908e-11,-0.0001795194,2
78534054,0.9810407,0.030648576,0.004458595,0.19131103,1.0,1.9787263e-09,4.5908e-11,-0.0001795194,2
78538054,0.98103935,0.030580958,0.00449293,0.19132802,1.0,1.9787263e-09,4.5908e-11,-0.0001795194,2
78542054,0.98104167,0.030536653,0.004479125,0.19132334,1.0,1.9787263e-09,4.5908e-11,-0.0001795194,2
78546054,0.9810474,0.030503727,0.004465734,0.19129965,1.0,1.9787263e-09,4.5908e-11,-0.0001795194,2
78550061,0.98105264,0.030458374,0.0044594277,0.1912808,1.0,1.9787263e-09,4.5908e-11,-0.0001795194,2
78554106,0.98105484,0.03040763,0.0044369646,0.19127747,1.0,1.9787263e-09,4.5908e-11,-0.0001795194,2
78558854,0.9810514,0.030349528,0.0044191107,0.1913053,1.0,1.9787263e-09,4.5908e-11,-0.0001795194,2
78562854,0.9810494,0.030309852,0.0044240654,0.19132152,1.0,1.9787263e-09,4.5908e-11,-0.0001795194,2
78566856,0.98105264,0.030281346,0.004426064,0.19130921,1.0,1.9787263e-09,4.5908e-11,-0.0001795194,2
78570903,0.981058,0.030272692,0.004392017,0.19128375,1.0,1.9787263e-09,4.5908e-11,-0.0001795194,2
78574857,0.9810615,0.030238427,0.004424077,0.1912711,1.0,1.9787263e-09,4.5908e-11,-0.0001795194,2
78578887,0.9810612,0.030239277,0.0044129654,0.19127233,1.0,1.9787263e-09,4.5908e-11,-0.0001795194,2
78582854,0.98105514,0.030267883,0.004402335,0.1912992,1.0,1.9787263e-09,4.5908e-11,-0.0001795194,2
78586856,0.981052,0.030226123,0.004453963,0.19132051,1.0,1.9787263e-09,4.5908e-11,-0.0001795194,2
78590854,0.98105246,0.030259531,0.0044210497,0.1913136,1.0,1.9787263e-09,4.5908e-11,-0.0001795194,2
78594861,0.98105466,0.030313144,0.0044502183,0.1912937,1.0,1.9787263e-09,4.5908e-11,-0.0001795194,2
78598863,0.98105884,0.030299988,0.0044641783,0.19127344,1.0,1.9787263e-09,4.5908e-11,-0.0001795194,2
78602875,0.98105717,0.03035878,0.004448795,0.19127308,1.0,1.9787263e-09,4.5908e-11,-0.0001795194,2
78606882,0.98105055,0.030402193,0.0045171566,0.19129877,1.0,1.9787263e-09,4.5908e-11,-0.0001795194,2
78610854,0.9810487,0.030363608,0.0045026722,0.1913147,1.0,1.9787263e-09,4.5908e-11,-0.0001795194,2
78614854,0.981048,0.030420229,0.0045347335,0.19130869,1.0,1.9787263e-09,4.5908e-11,-0.0001795194,2
78618860,0.98105246,0.030441629,0.0045593404,0.19128196,1.0,1.9787263e-09,4.5908e-11,-0.0001795194,2
78622854,0.98105806,0.030419998,0.004523021,0.19125727,1.0,1.9787263e-09,4.5908e-11,-0.0001795194,2
78626857,0.98105484,0.030487465,0.0045690546,0.19126166,1.0,1.9787263e-09,4.5908e-11,-0.0001795194,2
78630854,0.9810489,0.030522773,0.0045563336,0.19128728,1.0,1.9787263e-09,4.5908e-11,-0.0001795194,2
78634885,0.98104644,0.030445343,0.004546895,0.19131199,1.0,1.9787263e-09,4.5908e-11,-0.0001795194,2
78638854,0.98104393,0.030501693,0.0045890477,0.19131511,1.0,1.9787263e-09,4.5908e-11,-0.0001795194,2
78642854,0.98104995,0.030496221,0.0045552985,0.19128594,1.0,1.9787263e-09,4.5908e-11,-0.0001795194,2
78646863,0.9810558,0.030408164,0.004555133,0.1912701,1.0,1.9787263e-09,4.5908e-11,-0.0001795194,2
78650854,0.9810529,0.03047878,0.004571173,0.1912729,1.0,1.9787263e-09,4.5908e-11,-0.0001795194,2
78654919,0.9810487,0.030445486,0.0045433827,0.1913008,1.0,1.9787263e-09,4.5908e-11,-0.0001795194,2
78658854,0.9810454,0.030376596,0.0045791767,0.19132751,1.0,1.9787263e-09,4.5908e-11,-0.0001795194,2
78662882,0.9810455,0.03040502,0.004575155,0.19132277,1.0,1.9787263e-09,4.5908e-11,-0.0001795194,2
78666863,0.9810525,0.030343717,0.004543978,0.19129743,1.0,1.9787263e-09,4.5908e-11,-0.0001795194,2
78670854,0.98105764,0.030312385,0.004558764,0.19127554,1.0,1.9787263e-09,4.5908e-11,-0.0001795194,2
78674854,0.98105776,0.030292919,0.0045074313,0.19127934,1.0,1.9787263e-09,4.5908e-11,-0.0001795194,2
78678857,0.9810535,0.030256258,0.00452382,0.19130678,1.0,1.9787263e-09,4.5908e-11,-0.0001795194,2
78682854,0.9810498,0.030172551,0.0045420583,0.1913385,1.0,1.9787263e-09,4.5908e-11,-0.0001795194,2
78686854,0.98105216,0.030120922,0.004499716,0.19133534,1.0,1.9787263e-09,4.5908e-11,-0.0001795194,2
78690883,0.98105717,0.030099226,0.0045406455,0.19131175,1.0,1.9787263e-09,4.5908e-11,-0.0001795194,2
78694854,0.98106253,0.030015083,0.00449371,0.19129893,1.0,1.9787263e-09,4.5908e-11,-0.0001795194,2
78698860,0.98106074,0.029985938,0.004467975,0.19131367,1.0,1.9787263e-09,4.5908e-11,-0.0001795194,2
78702854,0.9810549,0.02997546,0.00449768,0.19134381,1.0,1.9787263e-09,4.5908e-11,-0.0001795194,2
78706875,0.98105323,0.02986704,0.004439221,0.19137073,1.0,1.9787263e-09,4.5908e-11,-0.0001795194,2
78710854,0.9810576,0.029825628,0.0044257483,0.19135578,1.0,1.9787263e-09,4.5908e-11,-0.0001795194,2
78714854,0.98106456,0.029747277,0.004414752,0.19133201,1.0,1.9787263e-09,4.5908e-11,-0.0001795194,2
78718894,0.9810699,0.029650427,0.0043370915,0.19132131,1.0,1.9787263e-09,4.5908e-11,-0.0001795194,2
78723654,0.98106426,0.029608171,0.004334427,0.19135721,1.0,1.9787263e-09,4.5908e-11,-0.0001795194,2
78727675,0.98106104,0.029508961,0.004320524,0.19138907,1.0,1.9787263e-09,4.5908e-11,-0.0001795194,2
78731654,0.9810645,0.029435564,0.0042419476,0.19138451,1.0,1.9787263e-09,4.5908e-11,-0.0001795194,2
78735663,0.98107064,0.02938156,0.0042702216,0.1913608,1.0,1.9787263e-09,4.5908e-11,-0.0001795194,2
78739654,0.9810784,0.029275674,0.004208566,0.19133866,1.0,1.9787263e-09,4.5908e-11,-0.0001795194,2
78743654,0.9810786,0.029236065,0.004125741,0.19134542,1.0,1.9787263e-09,4.5908e-11,-0.0001795194,2
78747667,0.9810754,0.029174393,0.004176797,0.19136977,1.0,1.9787263e-09,4.5908e-11,-0.0001795194,2
78751657,0.98107475,0.029143443,0.004109254,0.19137977,1.0,1.9787263e-09,4.5908e-11,-0.0001795194,2
78755729,0.98108065,0.029017532,0.004088523,0.19136894,1.0,1.9787263e-09,4.5908e-11,-0.0001795194,2
78759654,0.98108476,0.028967338,0.004101778,0.191355,1.0,1.9787263e-09,4.5908e-11,-0.0001795194,2
78763654,0.9810874,0.0289954,0.0040024174,0.19133937,1.0,1.9787263e-09,4.5908e-11,-0.0001795194,2
78767654,0.9810903,0.02885181,0.0040098047,0.19134612,1.0,1.9787263e-09,4.5908e-11,-0.0001795194,2
78771654,0.981086,0.028958764,0.0040114266,0.19135197,1.0,1.9787263e-09,4.5908e-11,-0.0001795194,2
78775668,0.9810889,0.028868085,0.0039751646,0.19135176,1.0,1.9787263e-09,4.5908e-11,-0.0001795194,2
78779679,0.98108995,0.028826017,0.0039913845,0.19135219,1.0,1.9787263e-09,4.5908e-11,-0.0001795194,2
78783654,0.9810897,0.028865663,0.0039481935,0.1913483,1.0,1.9787263e-09,4.5908e-11,-0.0001795194,2
78787654,0.9810925,0.028787903,0.0039346353,0.19134602,1.0,1.9787263e-09,4.5908e-11,-0.0001795194,2
78791654,0.9810919,0.028855247,0.0039225407,0.1913392,1.0,1.9787263e-09,4.5908e-11,-0.0001795194,2
78795654,0.98109126,0.02881688,0.0039465893,0.19134802,1.0,1.9787263e-09,4.5908e-11,-0.0001795194,2
78799656,0.981091,0.028794711,0.00395867,0.19135231,1.0,1.9787263e-09,4.5908e-11,-0.0001795194,2
78803657,0.9810882,0.028848933,0.0039220382,0.19135922,1.0,1.9787263e-09,4.5908e-11,-0.0001795194,2
78807654,0.981089,0.028831255,0.0039678207,0.19135693,1.0,1.9787263e-09,4.5908e-11,-0.0001795194,2
78811656,0.9810905,0.028914258,0.0039368495,0.19133736,1.0,1.9787263e-09,4.5908e-11,-0.0001795194,2
78815662,0.9810905,0.028892783,0.003958317,0.19133998,1.0,1.9787263e-09,4.5908e-11,-0.0001795194,2
78819654,0.981089,0.028880782,0.0040660687,0.1913473,1.0,1.9787263e-09,4.5908e-11,-0.0001795194,2
78823654,0.9810854,0.028972743,0.0040116427,0.19135293,1.0,1.9787263e-09,4.5908e-11,-0.0001795194,2
78827654,0.9810876,0.028868895,0.004051068,0.19135669,1.0,1.9787263e-09,4.5908e-11,-0.0001795194,2
78831674,0.9810856,0.029006446,0.0040783384,0.19134524,1.0,1.9787263e-09,4.5908e-11,-0.0001795194,2
78835656,0.9810908,0.028909815,0.004022683,0.19133492,1.0,1.9787263e-09,4.5908e-11,-0.0001795194,2
78839702,0.98109037,0.028860277,0.004173985,0.19134134,1.0,1.9787263e-09,4.5908e-11,-0.0001795194,2
78843664,0.98109037,0.028907966,0.004142788,0.19133432,1.0,1.9787263e-09,4.5908e-11,-0.0001795194,2
78847654,0.9810933,0.028830914,0.0041487236,0.19133091,1.0,1.9787263e-09,4.5908e-11,-0.0001795194,2
78851654,0.98109263,0.02887604,0.004214048,0.19132625,1.0,1.9787263e-09,4.5908e-11,-0.0001795194,2
78855660,0.9810926,0.028738804,0.0041485997,0.19134815,1.0,1.9787263e-09,4.5908e-11,-0.0001795194,2
78859709,0.9810899,0.028806787,0.0042297654,0.19135043,1.0,1.9787263e-09,4.5908e-11,-0.0001795194,2
78863654,0.9810961,0.02865602,0.004223039,0.19134128,1.0,1.9787263e-09,4.5908e-11,-0.0001795194,2
78867662,0.981101,0.028657125,0.0042151464,0.19131643,1.0,1.9787263e-09,4.5908e-11,-0.0001795194,2
78871656,0.98110044,0.028682718,0.0042061517,0.1913155,1.0,1.9787263e-09,4.5908e-11,-0.0001795194,2
78875654,0.98110056,0.028502155,0.00416676,0.19134292,1.0,1.9787263e-09,4.5908e-11,-0.0001795194,2
78879654,0.98109174,0.028638849,0.004159079,0.19136749,1.0,1.9787263e-09,4.5908e-11,-0.0001795194,2
78883675,0.98109907,0.028474625,0.004164408,0.19135477,1.0,1.9787263e-09,4.5908e-11,-0.0001795194,2
78888454,0.98110664,0.028477952,0.004145671,0.19131579,1.0,1.9787263e-09,4.5908e-11,-0.0001795194,2
78892463,0.98111063,0.028405048,0.004096347,0.19130711,1.0,1.9787263e-09,4.5908e-11,-0.0001795194,2
78896463,0.98110545,0.028434187,0.004113285,0.19132899,1.0,1.9787263e-09,4.5908e-11,-0.0001795194,2
78900454,0.9811023,0.028312203,0.0040254644,0.19136511,1.0,1.9787263e-09,4.5908e-11,-0.0001795194,2
78904481,0.98110324,0.028342025,0.0041186963,0.19135386,1.0,1.9787263e-09,4.5908e-11,-0.0001795194,2
78908454,0.9811127,0.028225852,0.004050342,0.19132425,1.0,1.9787263e-09,4.5908e-11,-0.0001795194,2
78912456,0.9811171,0.028101703,0.004010067,0.19132017,1.0,1.9787263e-09,4.5908e-11,-0.0001795194,2
78916456,0.98110896,0.028246837,0.004049606,0.19134042,1.0,1.9787263e-09,4.5908e-11,-0.0001795194,2
78920458,0.9811099,0.028035669,0.003932886,0.1913681,1.0,1.9787263e-09,4.5908e-11,-0.0001795194,2
78924454,0.9811065,0.028110448,0.0040418883,0.19137312,1.0,1.9787263e-09,4.5908e-11,-0.0001795194,2
78928457,0.981115,0.027927322,0.0040406035,0.19135617,1.0,1.9787263e-09,4.5908e-11,-0.0001795194,2
78932461,0.9811175,0.027944075,0.004025727,0.19134109,1.0,1.9787263e-09,4.5908e-11,-0.0001795194,2
78936456,0.9811221,0.027870161,0.004053362,0.19132783,1.0,1.9787263e-09,4.5908e-11,-0.0001795194,2
78940492,0.98111975,0.02789518,0.004024309,0.19133672,1.0,1.9787263e-09,4.5908e-11,-0.0001795194,2
78944454,0.98112035,0.027864855,0.0040393206,0.19133753,1.0,1.9787263e-09,4.5908e-11,-0.0001795194,2
78948462,0.98112214,0.027711181,0.004094846,0.19134967,1.0,1.9787263e-09,4.5908e-11,-0.0001795194,2
78952454,0.981122,0.02783968,0.0040626023,0.19133225,1.0,1.9787263e-09,4.5908e-11,-0.0001795194,2
78956473,0.98112917,0.027682826,0.00404665,0.19131874,1.0,1.9787263e-09,4.5908e-11,-0.0001795194,2
78960475,0.9811262,0.027809853,0.004071042,0.1913157,1.0,1.9787263e-09,4.5908e-11,-0.0001795194,2
78964454,0.9811246,0.02769758,0.0040071574,0.19134116,1.0,1.9787263e-09,4.5908e-11,-0.0001795194,2
78968457,0.9811172,0.027759135,0.004115338,0.19136788,1.0,1.9787263e-09,4.5908e-11,-0.0001795194,2
78972454,0.9811187,0.027676834,0.0040298104,0.19137408,1.0,1.9787263e-09,4.5908e-11,-0.0001795194,2
78976465,0.98112166,0.027699709,0.0040080845,0.19135557,1.0,1.9787263e-09,4.5908e-11,-0.0001795194,2
78980457,0.98112154,0.027718494,0.004023586,0.19135357,1.0,1.9787263e-09,4.5908e-11,-0.0001795194,2
78984456,0.9811223,0.027592255,0.0039446857,0.19136918,1.0,1.9787263e-09,4.5908e-11,-0.0001795194,2
78988454,0.98110276,0.0277398,0.0040001106,0.19144684,1.0,1.9787263e-09,4.5908e-11,-0.0001795194,2
78992456,0.98108786,0.02754528,0.003909331,0.19155309,1.0,1.9787263e-09,4.5908e-11,-0.0001795194,2
78996456,0.9810522,0.027618665,0.0038809075,0.19172561,1.0,1.9787263e-09,4.5908e-11,-0.0001795194,2
79000454,0.98101676,0.02747316,0.0038142565,0.19192915,1.0,1.9787263e-09,4.5908e-11,-0.0001795194,2
79004454,0.9809765,0.027372032,0.003772309,0.19215034,1.0,1.9787263e-09,4.5908e-11,-0.0001795194,2
79008480,0.9809425,0.027304312,0.0037508097,0.19233412,1.0,1.9787263e-09,4.5908e-11,-0.0001795194,2
79012454,0.98092103,0.027080264,0.0037101074,0.19247584,1.0,1.9787263e-09,4.5908e-11,-0.0001795194,2
79016456,0.98090684,0.026815427,0.0035980504,0.19258705,1.0,1.9787263e-09,4.5908e-11,-0.0001795194,2
79020465,0.98090357,0.026679661,0.0036295436,0.19262254,1.0,1.9787263e-09,4.5908e-11,-0.0001795194,2
79024500,0.9809164,0.026372543,0.0034832174,0.19260167,1.0,1.9787263e-09,4.5908e-11,-0.0001795194,2
79028454,0.98092717,0.026037391,0.0035114815,0.19259188,1.0,1.9787263e-09,4.5908e-11,-0.0001795194,2
79032457,0.98095155,0.025781203,0.0035469115,0.19250184,1.0,1.9787263e-09,4.5908e-11,-0.0001795194,2
79036453,0.98099136,0.025358142,0.0034422742,0.19235662,1.0,1.9787263e-09,4.5908e-11,-0.0001795194,2
79040454,0.98102677,0.025064286,0.0035561007,0.19221263,1.0,1.9787263e-09,4.5908e-11,-0.0001795194,2
79044470,0.98105884,0.024636393,0.003450538,0.19210598,1.0,1.9787263e-09,4.5908e-11,-0.0001795194,2
79048454,0.9810837,0.024341065,0.0035892418,0.19201426,1.0,1.9787263e-09,4.5908e-11,-0.0001795194,2
79052454,0.98111755,0.023897674,0.0036755372,0.19189514,1.0,1.9787263e-09,4.5908e-11,-0.0001795194,2
79056462,0.9811433,0.023519749,0.003561998,0.19181263,1.0,1.9787263e-09,4.5908e-11,-0.0001795194,2
79061255,0.98115593,0.0231423,0.0037557299,0.19178998,1.0,1.9787263e-09,4.5908e-11,-0.0001795194,2
79065256,0.98115945,0.022814028,0.0036802846,0.191813,1.0,1.9787263e-09,4.5908e-11,-0.0001795194,2
79069256,0.9811574,0.022462979,0.003771746,0.1918629,1.0,1.9787263e-09,4.5908e-11,-0.0001795194,2
79073311,0.98115563,0.02227177,0.003853686,0.19189288,1.0,1.9787263e-09,4.5908e-11,-0.0001795194,2
79077254,0.9811475,0.022016613,0.0037260882,0.19196635,1.0,1.9787263e-09,4.5908e-11,-0.0001795194,2
79081285,0.9811302,0.02174952,0.0039067324,0.19208181,1.0,1.9787263e-09,4.5908e-11,-0.0001795194,2
79085254,0.98111904,0.021593656,0.0037073554,0.19215964,1.0,1.9787263e-09,4.5908e-11,-0.0001795194,2
79089258,0.9811047,0.021506602,0.0037452793,0.19224277,1.0,1.9787263e-09,4.5908e-11,-0.0001795194,2
79093256,0.9810909,0.021227816,0.0038543434,0.19234167,1.0,1.9787263e-09,4.5908e-11,-0.0001795194,2
79097267,0.9810864,0.02119432,0.0036600386,0.1923717,1.0,1.9787263e-09,4.5908e-11,-0.0001795194,2
79101256,0.98109144,0.021081664,0.0038266487,0.19235523,1.0,1.9787263e-09,4.5908e-11,-0.0001795194,2
79105259,0.9810897,0.02104339,0.0036788003,0.19237117,1.0,1.9787263e-09,4.5908e-11,-0.0001795194,2
79109259,0.9810897,0.020989634,0.003642172,0.19237794,1.0,1.9787263e-09,4.5908e-11,-0.0001795194,2
79113258,0.981101,0.020909112,0.0038054958,0.19232611,1.0,1.9787263e-09,4.5908e-11,-0.0001795194,2
79117276,0.9811141,0.020848028,0.0035851824,0.19226961,1.0,1.9787263e-09,4.5908e-11,-0.0001795194,2
79121256,0.9811203,0.020814775,0.0036650286,0.19224079,1.0,1.9787263e-09,4.5908e-11,-0.0001795194,2
79125302,0.98113346,0.020853786,0.003607735,0.19217016,1.0,1.9787263e-09,4.5908e-11,-0.0001795194,2
79129259,0.9811407,0.02070448,0.0034663836,0.19215184,1.0,1.9787263e-09,4.5908e-11,-0.0001795194,2
79133278,0.98114264,0.02079235,0.0035303226,0.1921312,1.0,1.9787263e-09,4.5908e-11,-0.0001795194,2
79137258,0.981143,0.020758787,0.0034681505,0.19213411,1.0,1.9787263e-09,4.5908e-11,-0.0001795194,2
79141256,0.98115075,0.020642664,0.0034476568,0.19210759,1.0,1.9787263e-09,4.5908e-11,-0.0001795194,2
79145264,0.98115,0.020647746,0.003454977,0.19211054,1.0,1.9787263e-09,4.5908e-11,-0.0001795194,2
79149265,0.9811432,0.020695727,0.0033238598,0.19214249,1.0,1.9787263e-09,4.5908e-11,-0.0001795194,2
79153256,0.98112994,0.020489175,0.0033829347,0.1922311,1.0,1.9787263e-09,4.5908e-11,-0.0001795194,2
79157262,0.9811202,0.020437412,0.0033664596,0.19228666,1.0,1.9787263e-09,4.5908e-11,-0.0001795194,2
79161260,0.9811181,0.020394878,0.0033423447,0.19230253,1.0,1.9787263e-09,4.5908e-11,-0.0001795194,2
79165256,0.98110473,0.020286856,0.0033968948,0.19238065,1.0,1.9787263e-09,4.5908e-11,-0.0001795194,2
79169254,0.9811009,0.020231523,0.0032914751,0.19240822,1.0,1.9787263e-09,4.5908e-11,-0.0001795194,2
79173258,0.98109806,0.020142458,0.0033137451,0.19243178,1.0,1.9787263e-09,4.5908e-11,-0.0001795194,2
79177254,0.9810923,0.020064164,0.0033635986,0.1924685,1.0,1.9787263e-09,4.5908e-11,-0.0001795194,2
79181256,0.9810878,0.019924108,0.0033219536,0.19250666,1.0,1.9787263e-09,4.5908e-11,-0.0001795194,2
79185287,0.9811005,0.019913558,0.003351529,0.19244248,1.0,1.9787263e-09,4.5908e-11,-0.0001795194,2
79189256,0.9811062,0.019713065,0.0034303686,0.1924326,1.0,1.9787263e-09,4.5908e-11,-0.0001795194,2
79194054,0.9811042,0.019675251,0.0032962107,0.19244932,1.0,1.9787263e-09,4.5908e-11,-0.0001795194,2
79198063,0.98111093,0.019718474,0.0034160137,0.19240838,1.0,1.9787263e-09,4.5908e-11,-0.0001795194,2
79202054,0.98111445,0.019499071,0.003384339,0.19241342,1.0,1.9787263e-09,4.5908e-11,-0.0001795194,2
79206086,0.9811154,0.019671937,0.0033192784,0.19239193,1.0,1.9787263e-09,4.5908e-11,-0.0001795194,2
79218057,0.981127,0.01965075,0.003318972,0.19233456,1.0,1.9787263e-09,4.5908e-11,-0.0001795194,2
79222063,0.98112607,0.019440554,0.0033963486,0.19235936,1.0,1.9787263e-09,4.5908e-11,-0.0001795194,2
79226103,0.9811278,0.019427387,0.0032012654,0.19235578,1.0,1.9787263e-09,4.5908e-11,-0.0001795194,2
79230057,0.98113143,0.019487808,0.0032757258,0.1923294,1.0,1.9787263e-09,4.5908e-11,-0.0001795194,2
79234054,0.9811301,0.019329118,0.0031558792,0.1923541,1.0,1.9787263e-09,4.5908e-11,-0.0001795194,2
79238064,0.98113203,0.01928061,0.003035726,0.19235125,1.0,1.9787263e-09,4.5908e-11,-0.0001795194,2
79242057,0.98112994,0.019298723,0.0030726297,0.19235954,1.0,1.9787263e-09,4.5908e-11,-0.0001795194,2
79246070,0.98112196,0.019152824,0.0029769102,0.19241633,1.0,1.9787263e-09,4.5908e-11,-0.0001795194,2
79250054,0.9811244,0.019044429,0.0029462501,0.19241485,1.0,1.9787263e-09,4.5908e-11,-0.0001795194,2
79254054,0.9811312,0.018979972,0.0028784624,0.1923881,1.0,1.9787263e-09,4.5908e-11,-0.0001795194,2
79258070,0.98112863,0.018844504,0.0027824647,0.19241568,1.0,1.9787263e-09,4.5908e-11,-0.0001795194,2
79262054,0.9811305,0.018654002,0.002659555,0.19242626,1.0,1.9787263e-09,4.5908e-11,-0.0001795194,2
79266062,0.9811337,0.01855708,0.002600551,0.19242072,1.0,1.9787263e-09,4.5908e-11,-0.0001795194,2
79270054,0.9811278,0.018382601,0.0025993306,0.19246718,1.0,1.9787263e-09,4.5908e-11,-0.0001795194,2
79274054,0.98113126,0.018306587,0.0024560103,0.19245851,1.0,1.9787263e-09,4.5908e-11,-0.0001795194,2
79278060,0.9811437,0.018143903,0.0025295005,0.1924096,1.0,1.9787263e-09,4.5908e-11,-0.0001795194,2
79282057,0.98114383,0.018091064,0.0024379808,0.19241497,1.0,1.9787263e-09,4.5908e-11,-0.0001795194,2
79286054,0.98114276,0.018054599,0.002327571,0.19242525,1.0,1.9787263e-09,4.5908e-11,-0.0001795194,2
79290063,0.98114556,0.017888786,0.0025103807,0.19242471,1.0,1.9787263e-09,4.5908e-11,-0.0001795194,2
79294054,0.9811447,0.017890502,0.0023082027,0.1924312,1.0,1.9787263e-09,4.5908e-11,-0.0001795194,2
79298054,0.98114467,0.017945,0.002296227,0.19242607,1.0,1.9787263e-09,4.5908e-11,-0.0001795194,2
79302054,0.98115355,0.017757606,0.002422003,0.19239731,1.0,1.9787263e-09,4.5908e-11,-0.0001795194,2
79306054,0.9811543,0.017782938,0.0021124682,0.1923941,1.0,1.9787263e-09,4.5908e-11,-0.0001795194,2
79310117,0.9811479,0.017947387,0.0022552558,0.19241025,1.0,1.9787263e-09,4.5908e-11,-0.0001795194,2
79314054,0.98115027,0.01774115,0.0023489997,0.19241571,1.0,1.9787263e-09,4.5908e-11,-0.0001795194,2
79318061,0.9811512,0.01786402,0.0021776415,0.19240186,1.0,1.9787263e-09,4.5908e-11,-0.0001795194,2
79322054,0.9811488,0.018026587,0.0024364812,0.19239599,1.0,1.9787263e-09,4.5908e-11,-0.0001795194,2
79326054,0.98115516,0.017881475,0.0024121236,0.19237734,1.0,1.9787263e-09,4.5908e-11,-0.0001795194,2
79330054,0.98115516,0.018020822,0.002362294,0.19236493,1.0,1.9787263e-09,4.5908e-11,-0.0001795194,2
79334057,0.9811441,0.01826126,0.002549231,0.1923965,1.0,1.9787263e-09,4.5908e-11,-0.0001795194,2
79338054,0.9811429,0.018120416,0.002540679,0.19241595,1.0,1.9787263e-09,4.5908e-11,-0.0001795194,2
79342059,0.98114383,0.018325705,0.002573825,0.19239135,1.0,1.9787263e-09,4.5908e-11,-0.0001795194,2
79346054,0.9811417,0.018455056,0.0026741868,0.19238809,1.0,1.9787263e-09,4.5908e-11,-0.0001795194,2
79350054,0.98114055,0.018312678,0.0026683419,0.19240826,1.0,1.9787263e-09,4.5908e-11,-0.0001795194,2
79354055,0.98113596,0.01856971,0.0026129866,0.1924072,1.0,1.9787263e-09,4.5908e-11,-0.0001795194,2
79358062,0.9811267,0.018559437,0.0027003498,0.19245422,1.0,1.9787263e-09,4.5908e-11,-0.0001795194,2
79362083,0.9811183,0.018452637,0.0027565523,0.19250669,1.0,1.9787263e-09,4.5908e-11,-0.0001795194,2
79366054,0.9811179,0.018632706,0.002682555,0.19249222,1.0,1.9787263e-09,4.5908e-11,-0.0001795194,2
79370054,0.9811201,0.018490823,0.0027844333,0.19249366,1.0,1.9787263e-09,4.5908e-11,-0.0001795194,2
79374054,0.9811179,0.01853014,0.0027809902,0.19250058,1.0,1.9787263e-09,4.5908e-11,-0.0001795194,2
79378854,0.981121,0.018474858,0.00272641,0.19249153,1.0,1.9787263e-09,4.5908e-11,-0.0001795194,2
79382886,0.98112464,0.018286305,0.0028978556,0.1924883,1.0,1.9787263e-09,4.5908e-11,-0.0001795194,2
79386869,0.981124,0.018314129,0.0028599082,0.19248946,1.0,1.9787263e-09,4.5908e-11,-0.0001795194,2
79390885,0.9811371,0.018086148,0.0028801002,0.19244413,1.0,1.9787263e-09,4.5908e-11,-0.0001795194,2
79394854,0.9811482,0.017928401,0.0029684815,0.192401,1.0,1.9787263e-09,4.5908e-11,-0.0001795194,2
79398862,0.9811456,0.017990578,0.0028295966,0.19241033,1.0,1.9787263e-09,4.5908e-11,-0.0001795194,2
79402854,0.9811489,0.017723914,0.0028501288,0.19241816,1.0,1.9787263e-09,4.5908e-11,-0.0001795194,2
79406857,0.98114896,0.017620493,0.002937949,0.1924254,1.0,1.9787263e-09,4.5908e-11,-0.0001795194,2
79410902,0.9811402,0.017749991,0.00281387,0.19246045,1.0,1.9787263e-09,4.5908e-11,-0.0001795194,2
79414854,0.98114586,0.017460728,0.0028780692,0.1924568,1.0,1.9787263e-09,4.5908e-11,-0.0001795194,2
79418882,0.9811488,0.017526865,0.0029469552,0.1924348,1.0,1.9787263e-09,4.5908e-11,-0.0001795194,2
79422854,0.9811376,0.017648816,0.002819569,0.19248341,1.0,1.9787263e-09,4.5908e-11,-0.0001795194,2
79426856,0.98113215,0.01749279,0.0029331169,0.19252314,1.0,1.9787263e-09,4.5908e-11,-0.0001795194,2
79430854,0.9811288,0.017602256,0.0030036492,0.1925292,1.0,1.9787263e-09,4.5908e-11,-0.0001795194,2
79434883,0.98112077,0.01774053,0.0028595359,0.1925597,1.0,1.9787263e-09,4.5908e-11,-0.0001795194,2
79438862,0.98112506,0.01762309,0.0029651276,0.19254702,1.0,1.9787263e-09,4.5908e-11,-0.0001795194,2
79442854,0.98112977,0.017817631,0.0028635974,0.19250666,1.0,1.9787263e-09,4.5908e-11,-0.0001795194,2
79446882,0.98112404,0.017901514,0.002635228,0.19253092,1.0,1.9787263e-09,4.5908e-11,-0.0001795194,2
79450857,0.98112106,0.017844316,0.002748004,0.19254996,1.0,1.9787263e-09,4.5908e-11,-0.0001795194,2
79454854,0.981122,0.017931208,0.0026486332,0.19253899,1.0,1.9787263e-09,4.5908e-11,-0.0001795194,2
79458857,0.9811228,0.017921425,0.0024894087,0.19253755,1.0,1.9787263e-09,4.5908e-11,-0.0001795194,2
79462854,0.981128,0.01790083,0.002596465,0.19251217,1.0,1.9787263e-09,4.5908e-11,-0.0001795194,2
79466854,0.981136,0.017912848,0.0024489374,0.19247174,1.0,1.9787263e-09,4.5908e-11,-0.0001795194,2
79470854,0.98113465,0.017814768,0.0022958617,0.19248967,1.0,1.9787263e-09,4.5908e-11,-0.0001795194,2
79474901,0.9811286,0.017841691,0.0023928822,0.19251665,1.0,1.9787263e-09,4.5908e-11,-0.0001795194,2
79478854,0.9811294,0.017762182,0.0022690052,0.1925216,1.0,1.9787263e-09,4.5908e-11,-0.0001795194,2
79482854,0.98113257,0.017605111,0.0020901596,0.19252212,1.0,1.9787263e-09,4.5908e-11,-0.0001795194,2
79486874,0.98112637,0.01774617,0.0021871077,0.1925395,1.0,1.9787263e-09,4.5908e-11,-0.0001795194,2
79490856,0.98112863,0.017478446,0.0019817655,0.19255458,1.0,1.9787263e-09,4.5908e-11,-0.0001795194,2
79494906,0.981123,0.017371856,0.0018213631,0.1925949,1.0,1.9787263e-09,4.5908e-11,-0.0001795194,2
79498856,0.9811105,0.01747252,0.0020608313,0.19264677,1.0,1.9787263e-09,4.5908e-11,-0.0001795194,2
79502882,0.98111254,0.017137596,0.0018680048,0.19266832,1.0,1.9787263e-09,4.5908e-11,-0.0001795194,2
79506878,0.981114,0.017168213,0.0017821117,0.19265921,1.0,1.9787263e-09,4.5908e-11,-0.0001795194,2
79510857,0.9811084,0.01720403,0.0020726556,0.19268088,1.0,1.9787263e-09,4.5908e-11,-0.0001795194,2
79514889,0.9811121,0.01688019,0.0017861797,0.19269356,1.0,1.9787263e-09,4.5908e-11,-0.0001795194,2
79518854,0.98111147,0.017038459,0.0018292771,0.19268298,1.0,1.9787263e-09,4.5908e-11,-0.0001795194,2
79522854,0.98110455,0.016961632,0.0021594262,0.19272166,1.0,1.9787263e-09,4.5908e-11,-0.0001795194,2
79526854,0.9811082,0.016719315,0.0018313831,0.19272742,1.0,1.9787263e-09,4.5908e-11,-0.0001795194,2
79530882,0.9811145,0.016882407,0.0020435224,0.1926791,1.0,1.9787263e-09,4.5908e-11,-0.0001795194,2
79534854,0.9811109,0.016781274,0.0022518856,0.19270426,1.0,1.9787263e-09,4.5908e-11,-0.0001795194,2
79538883,0.9811125,0.016629647,0.0018184487,0.19271362,1.0,1.9787263e-09,4.5908e-11,-0.0001795194,2
79542854,0.9811112,0.016749725,0.0021659732,0.19270593,1.0,1.9787263e-09,4.5908e-11,-0.0001795194,2
79547654,0.9811045,0.016591564,0.0021235924,0.19275434,1.0,1.9787263e-09,4.5908e-11,-0.0001795194,2
79551654,0.9811077,0.016663047,0.0019814242,0.19273326,1.0,1.9787263e-09,4.5908e-11,-0.0001795194,2
79555657,0.98111326,0.016527396,0.0024899484,0.19271056,1.0,1.9787263e-09,4.5908e-11,-0.0001795194,2
79559679,0.98110914,0.016590262,0.002248893,0.19272944,1.0,1.9787263e-09,4.5908e-11,-0.0001795194,2
79563654,0.98111063,0.016669614,0.0023157918,0.19271436,1.0,1.9787263e-09,4.5908e-11,-0.0001795194,2
79567654,0.9811111,0.016498657,0.0026739608,0.19272152,1.0,1.9787263e-09,4.5908e-11,-0.0001795194,2
79571654,0.98110896,0.016622737,0.0024337026,0.1927256,1.0,1.9787263e-09,4.5908e-11,-0.0001795194,2
79575654,0.98111707,0.016651953,0.0025662903,0.19268006,1.0,1.9787263e-09,4.5908e-11,-0.0001795194,2
79579654,0.981124,0.016388562,0.0028220736,0.19266322,1.0,1.9787263e-09,4.5908e-11,-0.0001795194,2
79583657,0.9811197,0.016664132,0.0025386692,0.19266558,1.0,1.9787263e-09,4.5908e-11,-0.0001795194,2
79587654,0.9811185,0.016563741,0.0026926338,0.19267844,1.0,1.9787263e-09,4.5908e-11,-0.0001795194,2
79591654,0.98111933,0.016309937,0.0028985173,0.19269274,1.0,1.9787263e-09,4.5908e-11,-0.0001795194,2
79595706,0.98110676,0.016680986,0.0026238246,0.19272855,1.0,1.9787263e-09,4.5908e-11,-0.0001795194,2
79599660,0.98111,0.016333625,0.0028763725,0.19273898,1.0,1.9787263e-09,4.5908e-11,-0.0001795194,2
79603654,0.9811114,0.016240282,0.0029291557,0.19273873,1.0,1.9787263e-09,4.5908e-11,-0.0001795194,2
79607695,0.98109555,0.016526142,0.0026545115,0.1927992,1.0,1.9787263e-09,4.5908e-11,-0.0001795194,2
79611667,0.9810941,0.016135344,0.0029432012,0.19283481,1.0,1.9787263e-09,4.5908e-11,-0.0001795194,2
79615710,0.981093,0.016138876,0.002811153,0.19284272,1.0,1.9787263e-09,4.5908e-11,-0.0001795194,2
79619656,0.9810815,0.016293775,0.002670436,0.19289018,1.0,1.9787263e-09,4.5908e-11,-0.0001795194,2
79623654,0.98108774,0.015912363,0.0028339531,0.19288757,1.0,1.9787263e-09,4.5908e-11,-0.0001795194,2
79627654,0.98108524,0.015986996,0.0026297886,0.19289723,1.0,1.9787263e-09,4.5908e-11,-0.0001795194,2
79631654,0.9810725,0.01602157,0.0025578064,0.19296028,1.0,1.9787263e-09,4.5908e-11,-0.0001795194,2
79635666,0.9810766,0.015755018,0.002634229,0.19296028,1.0,1.9787263e-09,4.5908e-11,-0.0001795194,2
79639663,0.9810721,0.015801907,0.0025478196,0.19298026,1.0,1.9787263e-09,4.5908e-11,-0.0001795194,2
79643663,0.98106307,0.015808772,0.0024696637,0.19302669,1.0,1.9787263e-09,4.5908e-11,-0.0001795194,2
79647660,0.98106885,0.015659094,0.0025541484,0.19300841,1.0,1.9787263e-09,4.5908e-11,-0.0001795194,2
79651654,0.9810618,0.015684312,0.0024481316,0.19304375,1.0,1.9787263e-09,4.5908e-11,-0.0001795194,2
79655654,0.98104805,0.015709188,0.0022601269,0.19311365,1.0,1.9787263e-09,4.5908e-11,-0.0001795194,2
79659654,0.9810468,0.01566636,0.0024731718,0.19312087,1.0,1.9787263e-09,4.5908e-11,-0.0001795194,2
79663714,0.98103684,0.015622828,0.0021930626,0.19317815,1.0,1.9787263e-09,4.5908e-11,-0.0001795194,2
79667654,0.9810246,0.015706077,0.0020744635,0.19323508,1.0,1.9787263e-09,4.5908e-11,-0.0001795194,2
79671654,0.9810194,0.015643433,0.0023444782,0.19326344,1.0,1.9787263e-09,4.5908e-11,-0.0001795194,2
79675662,0.9810071,0.015632672,0.0018727824,0.19333178,1.0,1.9787263e-09,4.5908e-11,-0.0001795194,2
79679702,0.98098904,0.015790552,0.002031316,0.19340898,1.0,1.9787263e-09,4.5908e-11,-0.0001795194,2
79683654,0.980987,0.015604328,0.0021761225,0.19343305,1.0,1.9787263e-09,4.5908e-11,-0.0001795194,2
79687664,0.9809739,0.015695706,0.0017131087,0.1934967,1.0,1.9787263e-09,4.5908e-11,-0.0001795194,2
79691654,0.9809628,0.015805902,0.0020739266,0.19354038,1.0,1.9787263e-09,4.5908e-11,-0.0001795194,2
79695654,0.98096097,0.015515502,0.0019522221,0.19357452,1.0,1.9787263e-09,4.5908e-11,-0.0001795194,2
79700456,0.98093927,0.015859725,0.0018054416,0.19365785,1.0,1.9787263e-09,4.5908e-11,-0.0001795194,2
79704454,0.98093355,0.015609351,0.0022115035,0.19370343,1.0,1.9787263e-09,4.5908e-11,-0.0001795194,2
79708462,0.98093456,0.015429762,0.0018256975,0.1937167,1.0,1.9787263e-09,4.5908e-11,-0.0001795194,2
79712454,0.98091424,0.015883643,0.0020286483,0.19378053,1.0,1.9787263e-09,4.5908e-11,-0.0001795194,2
79716475,0.98091114,0.015483702,0.0022117607,0.19382687,1.0,1.9787263e-09,4.5908e-11,-0.0001795194,2
79720465,0.9809067,0.015517749,0.0019653894,0.19384886,1.0,1.9787263e-09,4.5908e-11,-0.0001795194,2
79724454,0.9808846,0.015804587,0.0023418046,0.19393356,1.0,1.9787263e-09,4.5908e-11,-0.0001795194,2
79728454,0.9808856,0.015435546,0.0023416316,0.19395825,1.0,1.9787263e-09,4.5908e-11,-0.0001795194,2
79732454,0.9808735,0.01561712,0.0023830316,0.194004,1.0,1.9787263e-09,4.5908e-11,-0.0001795194,2
79736502,0.98085123,0.015565135,0.002628041,0.19411753,1.0,1.9787263e-09,4.5908e-11,-0.0001795194,2
79740456,0.98084754,0.01533002,0.0025776722,0.19415633,1.0,1.9787263e-09,4.5908e-11,-0.0001795194,2
79744454,0.9808291,0.015508294,0.0027606199,0.19423214,1.0,1.9787263e-09,4.5908e-11,-0.0001795194,2
79748454,0.9808121,0.015275958,0.0028640665,0.19433542,1.0,1.9787263e-09,4.5908e-11,-0.0001795194,2
79752454,0.9808066,0.01520459,0.002932517,0.19436724,1.0,1.9787263e-09,4.5908e-11,-0.0001795194,2
79756458,0.9807808,0.015243473,0.0030645637,0.19449268,1.0,1.9787263e-09,4.5908e-11,-0.0001795194,2
79760463,0.9807591,0.014975864,0.0030785676,0.19462259,1.0,1.9787263e-09,4.5908e-11,-0.0001795194,2
79764457,0.9807379,0.014918436,0.003197013,0.19473161,1.0,1.9787263e-09,4.5908e-11,-0.0001795194,2
79768454,0.980705,0.014807766,0.0031904485,0.19490601,1.0,1.9787263e-09,4.5908e-11,-0.0001795194,2
79772457,0.9806791,0.01455971,0.0032210406,0.195054,1.0,1.9787263e-09,4.5908e-11,-0.0001795194,2
79776456,0.98065186,0.014440941,0.0032354146,0.19519968,1.0,1.9787263e-09,4.5908e-11,-0.0001795194,2
79780502,0.98060864,0.014344562,0.0032378489,0.19542372,1.0,1.9787263e-09,4.5908e-11,-0.0001795194,2
79784456,0.9805696,0.014172726,0.0032344395,0.19563203,1.0,1.9787263e-09,4.5908e-11,-0.0001795194,2
79788473,0.98052746,0.013967446,0.0031266212,0.19586015,1.0,1.9787263e-09,4.5908e-11,-0.0001795194,2
79792454,0.9804754,0.013981751,0.0031402607,0.19611888,1.0,1.9787263e-09,4.5908e-11,-0.0001795194,2
79796465,0.9804264,0.0138424495,0.0029898405,0.19637616,1.0,1.9787263e-09,4.5908e-11,-0.0001795194,2
79800473,0.98037416,0.013607008,0.0029330216,0.19665456,1.0,1.9787263e-09,4.5908e-11,-0.0001795194,2
79804454,0.98030454,0.013803426,0.002903153,0.19698754,1.0,1.9787263e-09,4.5908e-11,-0.0001795194,2
79808454,0.9802448,0.013644257,0.0026084378,0.19729961,1.0,1.9787263e-09,4.5908e-11,-0.0001795194,2
79812457,0.9801776,0.013624886,0.002647347,0.19763443,1.0,1.9787263e-09,4.5908e-11,-0.0001795194,2
79816456,0.9801036,0.013750734,0.002503589,0.19799413,1.0,1.9787263e-09,4.5908e-11,-0.0001795194,2
79820454,0.9800423,0.0135534685,0.0022350661,0.19831422,1.0,1.9787263e-09,4.5908e-11,-0.0001795194,2
79824454,0.97996074,0.0138884485,0.0023288338,0.19869266,1.0,1.9787263e-09,4.5908e-11,-0.0001795194,2
79828456,0.9798815,0.0138459215,0.0020138058,0.19908886,1.0,1.9787263e-09,4.5908e-11,-0.0001795194,2
79832454,0.9798102,0.013767568,0.0019053508,0.19944683,1.0,1.9787263e-09,4.5908e-11,-0.0001795194,2
79836463,0.9797188,0.01414261,0.002027439,0.19986759,1.0,1.9787263e-09,4.5908e-11,-0.0001795194,2
79840476,0.9796468,0.0139091,0.0016181824,0.20024031,1.0,1.9787263e-09,4.5908e-11,-0.0001795194,2
79844457,0.97957134,0.014053074,0.0016635645,0.20059867,1.0,1.9787263e-09,4.5908e-11,-0.0001795194,2
79849256,0.97946864,0.014056776,0.0016082865,0.20109984,1.0,1.9787263e-09,4.5908e-11,-0.0001795194,2
79853254,0.97939754,0.013934359,0.0012909921,0.20145622,1.0,1.9787263e-09,4.5908e-11,-0.0001795194,2
79857256,0.97930497,0.014237086,0.0015918599,0.2018825,1.0,1.9787263e-09,4.5908e-11,-0.0001795194,2
79861284,0.9792364,0.0139384605,0.0013939126,0.20223741,1.0,1.9787263e-09,4.5908e-11,-0.0001795194,2
79865256,0.9791647,0.013965782,0.0013004111,0.20258304,1.0,1.9787263e-09,4.5908e-11,-0.0001795194,2
79869256,0.97907984,0.014126641,0.0015058608,0.20298009,1.0,1.9787263e-09,4.5908e-11,-0.0001795194,2
79873254,0.97901034,0.013807417,0.0013279481,0.20333841,1.0,1.9787263e-09,4.5908e-11,-0.0001795194,2
79877256,0.9789254,0.01385669,0.0013141921,0.2037437,1.0,1.9787263e-09,4.5908e-11,-0.0001795194,2
79881313,0.9788398,0.013843992,0.0015460472,0.20415325,1.0,1.9787263e-09,4.5908e-11,-0.0001795194,2
79885261,0.97877026,0.0136790145,0.0013940361,0.20449883,1.0,1.9787263e-09,4.5908e-11,-0.0001795194,2
79889259,0.9786843,0.013713049,0.0013404696,0.20490819,1.0,1.9787263e-09,4.5908e-11,-0.0001795194,2
79893256,0.97860426,0.013547985,0.0016095535,0.205299,1.0,1.9787263e-09,4.5908e-11,-0.0001795194,2
79897256,0.97852,0.013409896,0.0014047078,0.20571074,1.0,1.9787263e-09,4.5908e-11,-0.0001795194,2
79901259,0.9784239,0.013576236,0.0014970908,0.20615593,1.0,1.9787263e-09,4.5908e-11,-0.0001795194,2
79905258,0.978343,0.013301686,0.0018303273,0.20655441,1.0,1.9787263e-09,4.5908e-11,-0.0001795194,2
79909256,0.97825867,0.01311741,0.0014582518,0.20696825,1.0,1.9787263e-09,4.5908e-11,-0.0001795194,2
79913283,0.97816336,0.0133012505,0.0017017964,0.20740466,1.0,1.9787263e-09,4.5908e-11,-0.0001795194,2
79917254,0.9780755,0.012932074,0.0019292001,0.20783994,1.0,1.9787263e-09,4.5908e-11,-0.0001795194,2
79921256,0.97797513,0.012839359,0.0015334395,0.20832056,1.0,1.9787263e-09,4.5908e-11,-0.0001795194,2
79925256,0.9778746,0.012871614,0.0019981305,0.20878641,1.0,1.9787263e-09,4.5908e-11,-0.0001795194,2
79929260,0.97778827,0.012385133,0.001993029,0.20921975,1.0,1.9787263e-09,4.5908e-11,-0.0001795194,2
79933256,0.9776897,0.012451943,0.0017398078,0.20967788,1.0,1.9787263e-09,4.5908e-11,-0.0001795194,2
79937268,0.9775908,0.012360798,0.002223111,0.21013963,1.0,1.9787263e-09,4.5908e-11,-0.0001795194,2
79941254,0.9774964,0.011822142,0.002008925,0.21061087,1.0,1.9787263e-09,4.5908e-11,-0.0001795194,2
79945256,0.9773727,0.012177664,0.0019602603,0.21116476,1.0,1.9787263e-09,4.5908e-11,-0.0001795194,2
79949261,0.9772692,0.01182398,0.0023366406,0.21165949,1.0,1.9787263e-09,4.5908e-11,-0.0001795194,2
79953262,0.9771642,0.011543988,0.0020776042,0.21216157,1.0,1.9787263e-09,4.5908e-11,-0.0001795194,2
79957264,0.9770401,0.011896542,0.0020592299,0.21271363,1.0,1.9787263e-09,4.5908e-11,-0.0001795194,2
79961257,0.9769342,0.011500882,0.002295064,0.21321876,1.0,1.9787263e-09,4.5908e-11,-0.0001795194,2
79965330,0.9768011,0.011702323,0.0020321996,0.21381892,1.0,1.9787263e-09,4.5908e-11,-0.0001795194,2
79969256,0.97667295,0.011925071,0.002066902,0.21439092,1.0,1.9787263e-09,4.5908e-11,-0.0001795194,2
79973254,0.97655624,0.011631781,0.002273653,0.21493588,1.0,1.9787263e-09,4.5908e-11,-0.0001795194,2
79977259,0.9764169,0.012162564,0.0019524876,0.21554202,1.0,1.9787263e-09,4.5908e-11,-0.0001795194,2
79981257,0.97628963,0.0122169675,0.0019320347,0.21611473,1.0,1.9787263e-09,4.5908e-11,-0.0001795194,2
79985267,0.9761539,0.012239905,0.0020944504,0.21672463,1.0,1.9787263e-09,4.5908e-11,-0.0001795194,2
79989262,0.97600543,0.012599684,0.0017095726,0.21737462,1.0,1.9787263e-09,4.5908e-11,-0.0001795194,2
79993256,0.9758758,0.0125146415,0.0018340696,0.21795999,1.0,1.9787263e-09,4.5908e-11,-0.0001795194,2
79997265,0.97572875,0.012552297,0.0019352586,0.21861425,1.0,1.9787263e-09,4.5908e-11,-0.0001795194,2
80001259,0.9755904,0.012669079,0.0014576175,0.2192279,1.0,1.9787263e-09,4.5908e-11,-0.0001795194,2
80005257,0.97545034,0.012483743,0.0017173787,0.2198586,1.0,1.9787263e-09,4.5908e-11,-0.0001795194,2
80009260,0.97529507,0.0124787,0.0016642064,0.2205476,1.0,1.9787263e-09,4.5908e-11,-0.0001795194,2
80013256,0.975154,0.012434309,0.0013758813,0.22117479,1.0,1.9787263e-09,4.5908e-11,-0.0001795194,2
80017278,0.975001,0.012238626,0.0017552421,0.22185639,1.0,1.9787263e-09,4.5908e-11,-0.0001795194,2
80021258,0.9748585,0.012194139,0.001536808,0.22248578,1.0,1.9787263e-09,4.5908e-11,-0.0001795194,2
80025260,0.97470766,0.012136342,0.0014559178,0.22314931,1.0,1.9787263e-09,4.5908e-11,-0.0001795194,2
80029254,0.9745467,0.012143019,0.0017336903,0.22384897,1.0,1.9787263e-09,4.5908e-11,-0.0001795194,2
80034054,0.9743589,0.012173721,0.0015511145,0.2246649,1.0,1.9787263e-09,4.5908e-11,-0.0001795194,2
80038098,0.97419274,0.012219417,0.001664784,0.22538097,1.0,1.9787263e-09,4.5908e-11,-0.0001795194,2
80042057,0.9740379,0.012261557,0.0019045542,0.22604467,1.0,1.9787263e-09,4.5908e-11,-0.0001795194,2
80046054,0.97388226,0.012390175,0.0016590477,0.2267095,1.0,1.9787263e-09,4.5908e-11,-0.0001795194,2
80050054,0.9737052,0.012649254,0.001765469,0.22745407,1.0,1.9787263e-09,4.5908e-11,-0.0001795194,2
80054054,0.9735368,0.012726124,0.0020104735,0.2281668,1.0,1.9787263e-09,4.5908e-11,-0.0001795194,2
80058054,0.9733562,0.012819928,0.0016816886,0.22893359,1.0,1.9787263e-09,4.5908e-11,-0.0001795194,2
80062057,0.9731626,0.013149582,0.0019446478,0.2297346,1.0,1.9787263e-09,4.5908e-11,-0.0001795194,2
80066106,0.9729809,0.013042151,0.0019739976,0.23050836,1.0,1.9787263e-09,4.5908e-11,-0.0001795194,2
80070054,0.9727853,0.013129452,0.0015614154,0.23133099,1.0,1.9787263e-09,4.5908e-11,-0.0001795194,2
80074054,0.97258246,0.0132872015,0.0019708571,0.2321701,1.0,1.9787263e-09,4.5908e-11,-0.0001795194,2
80078064,0.97238433,0.012959555,0.0016523319,0.23301949,1.0,1.9787263e-09,4.5908e-11,-0.0001795194,2
80082054,0.9721662,0.013266309,0.0014130417,0.23391226,1.0,1.9787263e-09,4.5908e-11,-0.0001795194,2
80086054,0.9719586,0.0131035745,0.0017482708,0.23478025,1.0,1.9787263e-09,4.5908e-11,-0.0001795194,2
80090075,0.9717511,0.012831197,0.001147897,0.23565626,1.0,1.9787263e-09,4.5908e-11,-0.0001795194,2
80094054,0.97152096,0.013260445,0.0011911954,0.23657951,1.0,1.9787263e-09,4.5908e-11,-0.0001795194,2
80098060,0.9713045,0.012940892,0.0012221083,0.23748425,1.0,1.9787263e-09,4.5908e-11,-0.0001795194,2
80102054,0.9710644,0.013197019,0.00070627825,0.23845196,1.0,1.9787263e-09,4.5908e-11,-0.0001795194,2
80106054,0.9708252,0.01356356,0.0008642803,0.2394027,1.0,1.9787263e-09,4.5908e-11,-0.0001795194,2
80110054,0.97059613,0.0133569995,0.000712033,0.24034196,1.0,1.9787263e-09,4.5908e-11,-0.0001795194,2
80114057,0.9703414,0.013951443,0.00039033205,0.24133533,1.0,1.9787263e-09,4.5908e-11,-0.0001795194,2
80118071,0.9700968,0.014109393,0.0005123875,0.24230747,1.0,1.9787263e-09,4.5908e-11,-0.0001795194,2
80122054,0.96983516,0.01426259,0.00037020352,0.24334389,1.0,1.9787263e-09,4.5908e-11,-0.0001795194,2
80126054,0.9695701,0.014792258,6.619697e-05,0.24436662,1.0,1.9787263e-09,4.5908e-11,-0.0001795194,2
80130054,0.96931356,0.014767785,0.0002361827,0.24538386,1.0,1.9787263e-09,4.5908e-11,-0.0001795194,2
80134054,0.96903926,0.015051791,-2.0071544e-05,0.24644744,1.0,1.9787263e-09,4.5908e-11,-0.0001795194,2
80138054,0.9687721,0.015257692,-0.00041902633,0.24748279,1.0,1.9787263e-09,4.5908e-11,-0.0001795194,2
80142075,0.9684877,0.015240283,-0.00012153458,0.24859488,1.0,1.9787263e-09,4.5908e-11,-0.0001795194,2
80146054,0.9682024,0.015281821,-0.0006849464,0.24970019,1.0,1.9787263e-09,4.5908e-11,-0.0001795194,2
80150100,0.9679167,0.015239568,-0.00092427933,0.25080732,1.0,1.9787263e-09,4.5908e-11,-0.0001795194,2
80154054,0.9676237,0.015114081,-0.00076127565,0.25194317,1.0,1.9787263e-09,4.5908e-11,-0.0001795194,2
80158063,0.96733814,0.014942229,-0.001639211,0.25304344,1.0,1.9787263e-09,4.5908e-11,-0.0001795194,2
80162054,0.96703315,0.014958881,-0.0015706085,0.25420633,1.0,1.9787263e-09,4.5908e-11,-0.0001795194,2
80166057,0.9667363,0.014690158,-0.0017951118,0.2553468,1.0,1.9787263e-09,4.5908e-11,-0.0001795194,2
80170086,0.9664261,0.014614022,-0.0025878276,0.25651607,1.0,1.9787263e-09,4.5908e-11,-0.0001795194,2
80174054,0.9661155,0.014671749,-0.002452005,0.25768155,1.0,1.9787263e-09,4.5908e-11,-0.0001795194,2
80178054,0.9658188,0.01431395,-0.0029839529,0.25880575,1.0,1.9787263e-09,4.5908e-11,-0.0001795194,2
80182088,0.96549284,0.014515721,-0.0034018143,0.26000246,1.0,1.9787263e-09,4.5908e-11,-0.0001795194,2
80186054,0.9651865,0.014519215,-0.0034805993,0.26113626,1.0,1.9787263e-09,4.5908e-11,-0.0001795194,2
80190054,0.96486837,0.01438389,-0.004041017,0.26230898,1.0,1.9787263e-09,4.5908e-11,-0.0001795194,2
80194087,0.96452886,0.014788933,-0.0042230124,0.2635293,1.0,1.9787263e-09,4.5908e-11,-0.0001795194,2
80198060,0.96422076,0.014674456,-0.004470888,0.26465675,1.0,1.9787263e-09,4.5908e-11,-0.0001795194,2
80202054,0.9638779,0.014835506,-0.004797026,0.26588756,1.0,1.9787263e-09,4.5908e-11,-0.0001795194,2
80206054,0.9635488,0.015079634,-0.0050090062,0.26706043,1.0,1.9787263e-09,4.5908e-11,-0.0001795194,2
80210056,0.96320343,0.0149214445,-0.0052566663,0.26830745,1.0,1.9787263e-09,4.5908e-11,-0.0001795194,2
80214054,0.9628352,0.015152456,-0.0055391598,0.26960745,1.0,1.9787263e-09,4.5908e-11,-0.0001795194,2
80218854,0.9623972,0.015024586,-0.005825473,0.2711679,1.0,1.9787263e-09,4.5908e-11,-0.0001795194,2
80222854,0.9620079,0.014909232,-0.0060706562,0.27254704,1.0,1.9787263e-09,4.5908e-11,-0.0001795194,2
80226854,0.961627,0.014931139,-0.0064225593,0.27387866,1.0,1.9787263e-09,4.5908e-11,-0.0001795194,2
80230888,0.9612154,0.0146436095,-0.0065827263,0.27533105,1.0,1.9787263e-09,4.5908e-11,-0.0001795194,2
80234854,0.960802,0.014514832,-0.0069385315,0.27676842,1.0,1.9787263e-09,4.5908e-11,-0.0001795194,2
80238861,0.9603726,0.014343681,-0.0072216177,0.27825606,1.0,1.9787263e-09,4.5908e-11,-0.0001795194,2
80242854,0.9599297,0.014136788,-0.0073862956,0.27978694,1.0,1.9787263e-09,4.5908e-11,-0.0001795194,2
80246854,0.9594912,0.014062383,-0.007872996,0.28127736,1.0,1.9787263e-09,4.5908e-11,-0.0001795194,2
80250908,0.95902056,0.0138266375,-0.007992671,0.28288612,1.0,1.9787263e-09,4.5908e-11,-0.0001795194,2
80254854,0.9585594,0.0136879375,-0.008230217,0.28444508,1.0,1.9787263e-09,4.5908e-11,-0.0001795194,2
80258883,0.9580647,0.013641605,-0.008792321,0.2860921,1.0,1.9787263e-09,4.5908e-11,-0.0001795194,2
80262854,0.95757747,0.013653754,-0.00867903,0.2877215,1.0,1.9787263e-09,4.5908e-11,-0.0001795194,2
80266886,0.95708746,0.013564686,-0.009108994,0.2893385,1.0,1.9787263e-09,4.5908e-11,-0.0001795194,2
80270854,0.95658845,0.013830705,-0.009498411,0.29095876,1.0,1.9787263e-09,4.5908e-11,-0.0001795194,2
80274854,0.95612353,0.013828719,-0.009296618,0.2924895,1.0,1.9787263e-09,4.5908e-11,-0.0001795194,2
80278860,0.95563424,0.0139711425,-0.00998245,0.29405525,1.0,1.9787263e-09,4.5908e-11,-0.0001795194,2
80282874,0.9551614,0.014403981,-0.009866056,0.2955706,1.0,1.9787263e-09,4.5908e-11,-0.0001795194,2
80286882,0.95471656,0.014270848,-0.009866486,0.29701087,1.0,1.9787263e-09,4.5908e-11,-0.0001795194,2
80290857,0.95424336,0.0147109665,-0.010389359,0.29848853,1.0,1.9787263e-09,4.5908e-11,-0.0001795194,2
80294854,0.95380586,0.014873205,-0.009867924,0.29989308,1.0,1.9787263e-09,4.5908e-11,-0.0001795194,2
80298862,0.9533662,0.014729155,-0.010182367,0.30128437,1.0,1.9787263e-09,4.5908e-11,-0.0001795194,2
80302854,0.9529372,0.015086737,-0.010047815,0.30262554,1.0,1.9787263e-09,4.5908e-11,-0.0001795194,2
80306854,0.952551,0.0149101885,-0.009711896,0.30385855,1.0,1.9787263e-09,4.5908e-11,-0.0001795194,2
80310854,0.9521463,0.014756044,-0.009954222,0.30512413,1.0,1.9787263e-09,4.5908e-11,-0.0001795194,2
80314885,0.9517704,0.014781367,-0.009400103,0.3063109,1.0,1.9787263e-09,4.5908e-11,-0.0001795194,2
80318868,0.9514271,0.014272722,-0.009276978,0.30740306,1.0,1.9787263e-09,4.5908e-11,-0.0001795194,2
80322854,0.95110554,0.014029419,-0.009004832,0.30841622,1.0,1.9787263e-09,4.5908e-11,-0.0001795194,2
80326854,0.95079046,0.013861838,-0.008527875,0.30940714,1.0,1.9787263e-09,4.5908e-11,-0.0001795194,2
80330854,0.9504948,0.013105163,-0.008318562,0.31035239,1.0,1.9787263e-09,4.5908e-11,-0.0001795194,2
80334908,0.9501902,0.0130327875,-0.0077395947,0.31130183,1.0,1.9787263e-09,4.5908e-11,-0.0001795194,2
80338854,0.94993,0.0125297755,-0.0072935326,0.31212637,1.0,1.9787263e-09,4.5908e-11,-0.0001795194,2
80342885,0.9496614,0.011916048,-0.00707242,0.31297192,1.0,1.9787263e-09,4.5908e-11,-0.0001795194,2
80346854,0.9493861,0.011938837,-0.0064579314,0.31381816,1.0,1.9787263e-09,4.5908e-11,-0.0001795194,2
80350854,0.94914186,0.0113099925,-0.0060600173,0.31458753,1.0,1.9787263e-09,4.5908e-11,-0.0001795194,2
80354860,0.9489003,0.011167767,-0.0057082926,0.31532687,1.0,1.9787263e-09,4.5908e-11,-0.0001795194,2
80358854,0.94864905,0.011065983,-0.005147106,0.31609517,1.0,1.9787263e-09,4.5908e-11,-0.0001795194,2
80362854,0.94841737,0.010586172,-0.005000574,0.31680843,1.0,1.9787263e-09,4.5908e-11,-0.0001795194,2
80366854,0.9481734,0.010798773,-0.004484143,0.31753814,1.0,1.9787263e-09,4.5908e-11,-0.0001795194,2
80370885,0.9479489,0.010667317,-0.004188055,0.31821632,1.0,1.9787263e-09,4.5908e-11,-0.0001795194,2
80374854,0.94772667,0.01032625,-0.004141694,0.31888935,1.0,1.9787263e-09,4.5908e-11,-0.0001795194,2
80378856,0.94748735,0.010664384,-0.0036505219,0.31959456,1.0,1.9787263e-09,4.5908e-11,-0.0001795194,2
80382854,0.94727796,0.010442123,-0.0035666774,0.32022333,1.0,1.9787263e-09,4.5908e-11,-0.0001795194,2
80386854,0.9470659,0.010328902,-0.0035001691,0.32085386,1.0,1.9787263e-09,4.5908e-11,-0.0001795194,2
80390854,0.94682807,0.010671038,-0.0031451832,0.32154787,1.0,1.9787263e-09,4.5908e-11,-0.0001795194,2
80394857,0.9466205,0.010307643,-0.0032197852,0.3221693,1.0,1.9787263e-09,4.5908e-11,-0.0001795194,2
80399662,0.9463751,0.010582929,-0.002882642,0.3228838,1.0,1.9787263e-09,4.5908e-11,-0.0001795194,2
80403654,0.94617033,0.010458193,-0.0028631832,0.3234874,1.0,1.9787263e-09,4.5908e-11,-0.0001795194,2
80407654,0.94598347,0.010175491,-0.0028109876,0.32404292,1.0,1.9787263e-09,4.5908e-11,-0.0001795194,2
80411654,0.94578296,0.010581318,-0.0024741192,0.32461774,1.0,1.9787263e-09,4.5908e-11,-0.0001795194,2
80415667,0.9456022,0.010226652,-0.0025263494,0.3251545,1.0,1.9787263e-09,4.5908e-11,-0.0001795194,2
80419657,0.94541824,0.010140072,-0.0023839858,0.32569313,1.0,1.9787263e-09,4.5908e-11,-0.0001795194,2
80423666,0.9452172,0.010312438,-0.002110861,0.3262726,1.0,1.9787263e-09,4.5908e-11,-0.0001795194,2
80427654,0.9450641,0.010071811,-0.0021356288,0.32672268,1.0,1.9787263e-09,4.5908e-11,-0.0001795194,2
80431654,0.94489384,0.010029158,-0.001941888,0.32721773,1.0,1.9787263e-09,4.5908e-11,-0.0001795194,2
80435733,0.9447128,0.010082798,-0.0017984388,0.3277391,1.0,1.9787263e-09,4.5908e-11,-0.0001795194,2
80439656,0.94457364,0.0098883035,-0.0017504968,0.32814613,1.0,1.9787263e-09,4.5908e-11,-0.0001795194,2
80443678,0.94442177,0.009957266,-0.0015279916,0.32858214,1.0,1.9787263e-09,4.5908e-11,-0.0001795194,2
80447654,0.94426537,0.0099565955,-0.0015224556,0.32903132,1.0,1.9787263e-09,4.5908e-11,-0.0001795194,2
80451658,0.9441319,0.009739325,-0.001365737,0.3294212,1.0,1.9787263e-09,4.5908e-11,-0.0001795194,2
80455659,0.943989,0.010120767,-0.0011207503,0.3298198,1.0,1.9787263e-09,4.5908e-11,-0.0001795194,2
80459654,0.9438556,0.009974225,-0.0011354659,0.33020607,1.0,1.9787263e-09,4.5908e-11,-0.0001795194,2
80463654,0.9437228,0.009968196,-0.0009531642,0.33058602,1.0,1.9787263e-09,4.5908e-11,-0.0001795194,2
80467657,0.9435768,0.010354911,-0.00076075667,0.3309911,1.0,1.9787263e-09,4.5908e-11,-0.0001795194,2
80471654,0.9434624,0.010226441,-0.0007067104,0.33132124,1.0,1.9787263e-09,4.5908e-11,-0.0001795194,2
80475654,0.9433362,0.01039806,-0.00051827467,0.33167514,1.0,1.9787263e-09,4.5908e-11,-0.0001795194,2
80479654,0.94319576,0.010602488,-0.00042698838,0.3320683,1.0,1.9787263e-09,4.5908e-11,-0.0001795194,2
80483654,0.94309425,0.010673823,-0.00023017272,0.3323544,1.0,1.9787263e-09,4.5908e-11,-0.0001795194,2
80487654,0.94297534,0.01075911,-0.0001053395,0.3326889,1.0,1.9787263e-09,4.5908e-11,-0.0001795194,2
80491654,0.9428377,0.01106233,-3.566058e-05,0.3330685,1.0,1.9787263e-09,4.5908e-11,-0.0001795194,2
80495674,0.9427265,0.011057886,0.00016231365,0.3333836,1.0,1.9787263e-09,4.5908e-11,-0.0001795194,2
80499661,0.942614,0.0111780455,0.00022599834,0.33369744,1.0,1.9787263e-09,4.5908e-11,-0.0001795194,2
80503654,0.94248843,0.011365826,0.0003086379,0.3340454,1.0,1.9787263e-09,4.5908e-11,-0.0001795194,2
80507654,0.9423759,0.011270068,0.00048595795,0.33436584,1.0,1.9787263e-09,4.5908e-11,-0.0001795194,2
80511656,0.9422618,0.011447484,0.0005406255,0.33468112,1.0,1.9787263e-09,4.5908e-11,-0.0001795194,2
80515663,0.942154,0.011444674,0.0006781472,0.33498442,1.0,1.9787263e-09,4.5908e-11,-0.0001795194,2
80519708,0.9420502,0.011387798,0.00085802504,0.33527744,1.0,1.9787263e-09,4.5908e-11,-0.0001795194,2
80523654,0.9419415,0.0112910485,0.0008713226,0.33558622,1.0,1.9787263e-09,4.5908e-11,-0.0001795194,2
80527654,0.94184715,0.011489227,0.0011360317,0.33584335,1.0,1.9787263e-09,4.5908e-11,-0.0001795194,2
80531654,0.9417619,0.011257855,0.0011580113,0.33609018,1.0,1.9787263e-09,4.5908e-11,-0.0001795194,2
80535654,0.9416593,0.011145971,0.0012003628,0.33638105,1.0,1.9787263e-09,4.5908e-11,-0.0001795194,2
80540457,0.9415579,0.011241663,0.0014272082,0.33666077,1.0,1.9787263e-09,4.5908e-11,-0.0001795194,2
80544456,0.9414762,0.010914096,0.0012304857,0.33690062,1.0,1.9787263e-09,4.5908e-11,-0.0001795194,2
80548456,0.94137955,0.011167502,0.0013571178,0.3371618,1.0,1.9787263e-09,4.5908e-11,-0.0001795194,2
80552454,0.941298,0.011035711,0.0014219491,0.3373935,1.0,1.9787263e-09,4.5908e-11,-0.0001795194,2
80556485,0.9412234,0.010812911,0.0011598775,0.33760983,1.0,1.9787263e-09,4.5908e-11,-0.0001795194,2
80560454,0.9411369,0.011295331,0.0013508324,0.33783397,1.0,1.9787263e-09,4.5908e-11,-0.0001795194,2
80564454,0.94104856,0.011134813,0.0012378118,0.33808598,1.0,1.9787263e-09,4.5908e-11,-0.0001795194,2
80568477,0.9409776,0.01123009,0.0010916177,0.338281,1.0,1.9787263e-09,4.5908e-11,-0.0001795194,2
80572454,0.94088864,0.011728374,0.0012717355,0.33851066,1.0,1.9787263e-09,4.5908e-11,-0.0001795194,2
80576462,0.9408085,0.011628615,0.0009972628,0.33873752,1.0,1.9787263e-09,4.5908e-11,-0.0001795194,2
80580460,0.94073814,0.011937695,0.0009925526,0.33892214,1.0,1.9787263e-09,4.5908e-11,-0.0001795194,2
80584454,0.94065046,0.012445796,0.001116064,0.33914706,1.0,1.9787263e-09,4.5908e-11,-0.0001795194,2
80588454,0.9405843,0.012355458,0.00091899297,0.33933416,1.0,1.9787263e-09,4.5908e-11,-0.0001795194,2
80592457,0.94051534,0.01271715,0.0010250836,0.33951157,1.0,1.9787263e-09,4.5908e-11,-0.0001795194,2
80596489,0.94043386,0.013152647,0.0011341535,0.3397204,1.0,1.9787263e-09,4.5908e-11,-0.0001795194,2
80600456,0.9403808,0.012897091,0.0010016765,0.3398774,1.0,1.9787263e-09,4.5908e-11,-0.0001795194,2
80604454,0.9403169,0.013288746,0.0011494082,0.34003872,1.0,1.9787263e-09,4.5908e-11,-0.0001795194,2
80608457,0.9402451,0.013483091,0.0011930629,0.3402293,1.0,1.9787263e-09,4.5908e-11,-0.0001795194,2
80612454,0.9402054,0.013162761,0.0011525382,0.34035173,1.0,1.9787263e-09,4.5908e-11,-0.0001795194,2
80616456,0.9401526,0.0133801475,0.0012978385,0.34048867,1.0,1.9787263e-09,4.5908e-11,-0.0001795194,2
80620563,0.94009274,0.013308083,0.0012816455,0.3406565,1.0,1.9787263e-09,4.5908e-11,-0.0001795194,2
80624454,0.9400687,0.013031288,0.0013227705,0.34073365,1.0,1.9787263e-09,4.5908e-11,-0.0001795194,2
80628454,0.94003534,0.013106036,0.0014801844,0.34082186,1.0,1.9787263e-09,4.5908e-11,-0.0001795194,2
80632454,0.9399875,0.013002205,0.0014472487,0.34095812,1.0,1.9787263e-09,4.5908e-11,-0.0001795194,2
80636460,0.93996704,0.01283921,0.0016270932,0.34101978,1.0,1.9787263e-09,4.5908e-11,-0.0001795194,2
80640467,0.93994045,0.01282504,0.001779443,0.3410929,1.0,1.9787263e-09,4.5908e-11,-0.0001795194,2
80644466,0.93989456,0.012864154,0.001826995,0.34121764,1.0,1.9787263e-09,4.5908e-11,-0.0001795194,2
80648454,0.939871,0.012822114,0.0020538857,0.34128255,1.0,1.9787263e-09,4.5908e-11,-0.0001795194,2
80652454,0.93984693,0.012801455,0.0022167298,0.34134898,1.0,1.9787263e-09,4.5908e-11,-0.0001795194,2
80656456,0.9398081,0.012892022,0.002361019,0.34145123,1.0,1.9787263e-09,4.5908e-11,-0.0001795194,2
80660454,0.93977606,0.01314491,0.0025840737,0.34152842,1.0,1.9787263e-09,4.5908e-11,-0.0001795194,2
80664454,0.9397505,0.013091691,0.002675207,0.3416001,1.0,1.9787263e-09,4.5908e-11,-0.0001795194,2
80668454,0.93972486,0.013246834,0.0028854315,0.34166268,1.0,1.9787263e-09,4.5908e-11,-0.0001795194,2
80672483,0.9396987,0.01363799,0.0030135517,0.34171838,1.0,1.9787263e-09,4.5908e-11,-0.0001795194,2
80676454,0.93967617,0.013529454,0.0029578265,0.34178492,1.0,1.9787263e-09,4.5908e-11,-0.0001795194,2
80680454,0.9396518,0.013883607,0.0031495066,0.34183615,1.0,1.9787263e-09,4.5908e-11,-0.0001795194,2
80684454,0.93964094,0.014233033,0.0031197208,0.34185192,1.0,1.9787263e-09,4.5908e-11,-0.0001795194,2
80688463,0.9396262,0.014094344,0.0029671835,0.34189928,1.0,1.9787263e-09,4.5908e-11,-0.0001795194,2
80692459,0.9396097,0.014500353,0.003055432,0.34192705,1.0,1.9787263e-09,4.5908e-11,-0.0001795194,2
80696468,0.9396059,0.014638766,0.0029092,0.34193292,1.0,1.9787263e-09,4.5908e-11,-0.0001795194,2
80700456,0.9395989,0.014455431,0.002592595,0.34196234,1.0,1.9787263e-09,4.5908e-11,-0.0001795194,2
80704502,0.93959105,0.014728813,0.0025738396,0.34197235,1.0,1.9787263e-09,4.5908e-11,-0.0001795194,2
80708454,0.9395994,0.014630609,0.0022888933,0.3419557,1.0,1.9787263e-09,4.5908e-11,-0.0001795194,2
80712456,0.9396085,0.014356967,0.0019065535,0.34194484,1.0,1.9787263e-09,4.5908e-11,-0.0001795194,2
80716462,0.9396076,0.014462747,0.0017484667,0.34194344,1.0,1.9787263e-09,4.5908e-11,-0.0001795194,2
80720454,0.9396182,0.014217287,0.0014021542,0.34192666,1.0,1.9787263e-09,4.5908e-11,-0.0001795194,2
80724500,0.93964875,0.013958524,0.0010176543,0.34185427,1.0,1.9787263e-09,4.5908e-11,-0.0001795194,2
80729258,0.93965745,0.013850057,0.00073307,0.34183583,1.0,1.9787263e-09,4.5908e-11,-0.0001795194,2
80733254,0.93969125,0.013603872,0.00035037394,0.34175324,1.0,1.9787263e-09,4.5908e-11,-0.0001795194,2
80737254,0.9397344,0.013466001,0.00013708259,0.34164008,1.0,1.9787263e-09,4.5908e-11,-0.0001795194,2
80741246,0.9397545,0.013327736,-0.00013990028,0.3415905,1.0,1.9787263e-09,4.5908e-11,-0.0001795194,2
80745279,0.9397987,0.013167266,-0.0003910518,0.34147453,1.0,1.9787263e-09,4.5908e-11,-0.0001795194,2
80749274,0.93985385,0.013095265,-0.00051632634,0.34132546,1.0,1.9787263e-09,4.5908e-11,-0.0001795194,2
80753258,0.9398832,0.013040641,-0.00071729114,0.34124658,1.0,1.9787263e-09,4.5908e-11,-0.0001795194,2
