timestamp,timestamp_sample,control[0],control[1],control[2],control[3],control[4],control[5],control[6],control[7]
78212584,78212474,-0.08922698,0.00096490985,-0.0062246677,8.9456295e-27,0.0,0.0,0.0,-1.0
78218279,78218146,-0.096745454,0.0085556675,-0.0039571533,5.068363e-27,0.0,0.0,0.0,-1.0
78343755,78343654,-0.08777048,0.003168703,0.00083312433,2.4248176e-29,0.0,0.0,0.0,-1.0
78347780,78347663,-0.10224004,0.0005384424,0.004508329,2.4248176e-29,0.0,0.0,0.0,-1.0
78350955,78350854,-0.09572475,0.0024703783,0.0034657964,2.4248176e-29,0.0,0.0,0.0,-1.0
78354976,78354875,-0.0860447,-0.0043521393,0.0013990526,2.4248176e-29,0.0,0.0,0.0,-1.0
78358214,78358064,-0.09265195,-0.0070262733,-0.0025359674,2.4248176e-29,0.0,0.0,0.0,-1.0
78362161,78362058,-0.09472916,0.0052306037,-0.0063468968,0.0,0.0,0.0,0.0,-1.0
78365379,78365256,-0.0874814,0.0051909215,-0.0064720702,0.0,0.0,0.0,0.0,-1.0
78367785,78367675,-0.08699374,0.0021336451,-0.0043835025,0.0,0.0,0.0,0.0,-1.0
78371755,78371654,-0.0957103,0.0049578925,-0.0013841485,0.0,0.0,0.0,0.0,-1.0
78375757,78375656,-0.08853248,0.008681909,0.00055777683,0.0,0.0,0.0,0.0,-1.0
78379765,78379655,-0.09112033,5.98139e-05,0.00053772907,0.0,0.0,0.0,0.0,-1.0
78382204,78382062,-0.09350056,-0.00078912,-0.00086131797,0.0,0.0,0.0,0.0,-1.0
78386958,78386855,-0.089389905,0.0018142117,-0.0043280153,0.0,0.0,0.0,0.0,-1.0
78389366,78389259,-0.09115471,0.0048049856,-0.0034813199,0.0,0.0,0.0,0.0,-1.0
78393381,78393260,-0.09456392,0.0053935363,-0.00016733374,0.0,0.0,0.0,0.0,-1.0
78396655,78396478,-0.0912213,0.003690459,0.005123251,0.0,0.0,0.0,0.0,-1.0
78399771,78399654,-0.08899519,0.0075513036,0.0053949985,0.0,0.0,0.0,0.0,-1.0
78403759,78403657,-0.093871616,0.008047757,0.006367802,0.0,0.0,0.0,0.0,-1.0
78406955,78406854,-0.09024197,0.00018213814,0.0025208972,0.0,0.0,0.0,0.0,-1.0
78410976,78410875,-0.09058779,0.006908034,-0.0011964609,0.0,0.0,0.0,0.0,-1.0
78414164,78414054,-0.09220174,0.010300254,-0.0029416927,0.0,0.0,0.0,0.0,-1.0
78416624,78416472,-0.09468448,0.0065190364,-0.0010693757,0.0,0.0,0.0,0.0,-1.0
78420605,78420464,-0.09474092,0.0062185363,0.0019875097,0.0,0.0,0.0,0.0,-1.0
78424568,78424454,-0.09632308,0.014525007,0.0034093433,1.1115249e-30,0.0,0.0,0.0,-1.0
78427783,78427669,-0.0985817,0.0060195415,0.0016787499,1.1115249e-30,0.0,0.0,0.0,-1.0
78431771,78431657,-0.096983396,0.0020884385,-0.0027059577,1.1115249e-30,0.0,0.0,0.0,-1.0
78434963,78434857,-0.09613694,0.0086236745,-0.0053945743,1.1115249e-30,0.0,0.0,0.0,-1.0
78438190,78438073,-0.09565095,0.008887839,-0.007380784,1.1115249e-30,0.0,0.0,0.0,-1.0
78442963,78442855,-0.091091275,0.0027990362,-0.0031196503,1.1115249e-30,0.0,0.0,0.0,-1.0
78444557,78444456,-0.09720838,0.008805571,-0.000676884,1.1115249e-30,0.0,0.0,0.0,-1.0
78448554,78448454,-0.10453242,0.018577084,0.001651579,0.00018280718,0.0,0.0,0.0,-1.0
78452557,78452456,-0.090957254,0.0032337932,0.001459229,0.00018280718,0.0,0.0,0.0,-1.0
78455809,78455663,-0.101458184,-0.00064326625,-0.00040550285,0.00018280718,0.0,0.0,0.0,-1.0
78459763,78459658,-0.10917455,0.012216442,-0.003803147,0.00018280718,0.0,0.0,0.0,-1.0
78462960,78462860,-0.092785865,0.009606722,-0.0040318784,0.00018280718,0.0,0.0,0.0,-1.0
78467002,78466881,-0.09526232,-0.005620051,-0.0015905547,0.0004331666,0.0,0.0,0.0,-1.0
78470231,78470106,-0.10556813,0.008343234,0.0028788052,0.0004331666,0.0,0.0,0.0,-1.0
78472558,78472454,-0.101511024,0.015881205,0.005945002,0.0004331666,0.0,0.0,0.0,-1.0
78476573,78476466,-0.09525643,-0.00030393508,0.0055980003,0.0004331666,0.0,0.0,0.0,-1.0
78480562,78480454,-0.10069109,0.00096190214,0.0011977908,0.0004331666,0.0,0.0,0.0,-1.0
78483788,78483660,-0.102287866,0.0074155857,-0.0016124905,0.0004331666,0.0,0.0,0.0,-1.0
78487771,78487654,-0.092466,-0.0010361368,-0.0039874157,0.0003070775,0.0,0.0,0.0,-1.0
78490960,78490857,-0.092713594,-0.0015643565,-0.0020428933,0.0003070775,0.0,0.0,0.0,-1.0
78494164,78494054,-0.09992914,0.0077282684,0.0020169849,0.0003070775,0.0,0.0,0.0,-1.0
78500578,78500467,-0.09270485,0.0026515173,0.0041021258,0.0003070775,0.0,0.0,0.0,-1.0
78504561,78504456,-0.09771319,0.00048043396,-0.00030351058,0.0003070775,0.0,0.0,0.0,-1.0
78508562,78508454,-0.093940236,0.000219335,-0.0038808812,0.0003070775,0.0,0.0,0.0,-1.0
78511755,78511654,-0.08939579,0.000981038,-0.006600777,2.8652688e-05,0.0,0.0,0.0,-1.0
78515764,78515654,-0.09447649,-0.00028720274,-0.003783218,2.8652688e-05,0.0,0.0,0.0,-1.0
78518973,78518865,-0.089826204,-0.0006011346,0.00027776865,2.8652688e-05,0.0,0.0,0.0,-1.0
78523766,78523665,-0.0941806,0.0069365315,0.0029623709,2.8652688e-05,0.0,0.0,0.0,-1.0
78526173,78526056,-0.09511941,0.0042122044,0.0025281606,2.8652688e-05,0.0,0.0,0.0,-1.0
78528555,78528454,-0.09122748,0.0010198641,0.0012899023,0.0006816861,0.0,0.0,0.0,-1.0
78532554,78532454,-0.08763355,0.004371771,-0.0038003612,0.0006816861,0.0,0.0,0.0,-1.0
78536613,78536462,-0.089235425,0.005777803,-0.006102107,0.0006816861,0.0,0.0,0.0,-1.0
78539775,78539667,-0.084488586,-0.0006830126,-0.003075226,0.0006816861,0.0,0.0,0.0,-1.0
78543825,78543666,-0.085383736,0.004074363,0.0019381862,0.0006816861,0.0,0.0,0.0,-1.0
78547766,78547655,-0.08901539,0.009339795,0.0046083583,0.0006816861,0.0,0.0,0.0,-1.0
78550989,78550888,-0.08866299,0.008169389,0.0038478316,0.0006816861,0.0,0.0,0.0,-1.0
78554958,78554855,-0.0901465,0.0073342402,0.00049255154,0.00353682,0.0,0.0,0.0,-1.0
78557420,78557265,-0.0916034,0.0077883154,-0.0031737676,0.00353682,0.0,0.0,0.0,-1.0
78561394,78561278,-0.088134214,0.0059269597,-0.0058985795,0.00353682,0.0,0.0,0.0,-1.0
78564567,78564459,-0.08932584,0.0011375512,-0.0023122644,0.00353682,0.0,0.0,0.0,-1.0
78567777,78567657,-0.09240781,-0.00043442298,0.002094223,0.00353682,0.0,0.0,0.0,-1.0
78572570,78572467,-0.09650395,0.009268322,0.004561258,0.008302947,0.0,0.0,0.0,-1.0
78574967,78574857,-0.09269326,0.005058527,0.0035426472,0.008302947,0.0,0.0,0.0,-1.0
78577420,78577262,-0.0929292,-0.0013542747,0.0016448738,0.008302947,0.0,0.0,0.0,-1.0
78581377,78581256,-0.10101776,0.006033701,-0.003818899,0.008302947,0.0,0.0,0.0,-1.0
78585368,78585257,-0.10084992,0.0041149547,-0.0057479893,0.008302947,0.0,0.0,0.0,-1.0
78589378,78589254,-0.09135948,-0.0035832576,-0.0022148776,0.008302947,0.0,0.0,0.0,-1.0
78592584,78592483,-0.09920919,0.0070055597,0.0018738915,0.0151721025,0.0,0.0,0.0,-1.0
78596557,78596455,-0.106876895,0.004917621,0.0041348366,0.0151721025,0.0,0.0,0.0,-1.0
78599816,78599655,-0.09727041,-2.8771348e-05,0.0040233387,0.0151721025,0.0,0.0,0.0,-1.0
78603756,78603655,-0.097236715,0.008624336,-4.517972e-05,0.0151721025,0.0,0.0,0.0,-1.0
78605361,78605254,-0.10628745,0.00544561,-0.0025298307,0.0151721025,0.0,0.0,0.0,-1.0
78609371,78609254,-0.09849483,-0.0044405786,-0.005072354,0.0151721025,0.0,0.0,0.0,-1.0
78613375,78613274,-0.08664516,0.003760645,-0.0017575192,0.026100326,0.0,0.0,0.0,-1.0
78617371,78617256,-0.10327178,0.00023780353,0.0046315286,0.026100326,0.0,0.0,0.0,-1.0
78620556,78620455,-0.09954424,0.002221467,0.004947071,0.026100326,0.0,0.0,0.0,-1.0
78623775,78623674,-0.08769823,0.010620687,0.004696551,0.026100326,0.0,0.0,0.0,-1.0
78627763,78627655,-0.097788885,0.005721853,-0.00040405558,0.026100326,0.0,0.0,0.0,-1.0
78630963,78630854,-0.10457793,0.0027837667,-0.00418713,0.026100326,0.0,0.0,0.0,-1.0
78633368,78633254,-0.09209478,0.007198838,-0.0072654723,0.039761942,0.0,0.0,0.0,-1.0
78637419,78637268,-0.0820808,0.0021037874,-0.0033259555,0.039761942,0.0,0.0,0.0,-1.0
78641396,78641295,-0.10107036,0.00026107006,0.0025170501,0.039761942,0.0,0.0,0.0,-1.0
78645380,78645256,-0.08500677,0.008083725,0.004458682,0.039761942,0.0,0.0,0.0,-1.0
78648566,78648454,-0.07728574,0.00469815,0.0030937367,0.039761942,0.0,0.0,0.0,-1.0
78651767,78651655,-0.095700294,0.0028497449,-0.0006164875,0.039761942,0.0,0.0,0.0,-1.0
78655758,78655657,-0.099040546,0.006650529,-0.005795523,0.039761942,0.0,0.0,0.0,-1.0
78659756,78659655,-0.08323999,-0.00069779495,-0.0055447277,0.0512623,0.0,0.0,0.0,-1.0
78661365,78661254,-0.08773843,-0.0040765908,-0.0032840664,0.0512623,0.0,0.0,0.0,-1.0
78665378,78665271,-0.09501213,0.0053085987,0.0034307884,0.0512623,0.0,0.0,0.0,-1.0
78669368,78669257,-0.08552568,0.007747214,0.00527898,0.0512623,0.0,0.0,0.0,-1.0
78673370,78673254,-0.08808969,0.0059946575,0.0020535057,0.0512623,0.0,0.0,0.0,-1.0
78676604,78676463,-0.089688376,0.011220942,-0.0020065263,0.0512623,0.0,0.0,0.0,-1.0
78679755,78679654,-0.08967185,0.005814934,-0.0055984263,0.0512623,0.0,0.0,0.0,-1.0
78683756,78683655,-0.08388124,-0.006561988,-0.006514032,0.05832106,0.0,0.0,0.0,-1.0
78686964,78686854,-0.085652575,0.004890714,-0.0017841599,0.05832106,0.0,0.0,0.0,-1.0
78689415,78689273,-0.086038716,0.0034568796,0.003250865,0.05832106,0.0,0.0,0.0,-1.0
78693369,78693256,-0.09106128,-0.0011230885,0.003790693,0.05832106,0.0,0.0,0.0,-1.0
78697418,78697277,-0.08298574,0.01275502,0.00041310108,0.06288207,0.0,0.0,0.0,-1.0
78701371,78701256,-0.09181307,0.006511494,-0.005502736,0.06288207,0.0,0.0,0.0,-1.0
78704568,78704454,-0.09590144,-0.0001958539,-0.0069115753,0.06288207,0.0,0.0,0.0,-1.0
78707764,78707655,-0.08323808,0.005156481,-0.0057678935,0.06288207,0.0,0.0,0.0,-1.0
78711757,78711657,-0.08153783,0.010090174,0.0021407546,0.06288207,0.0,0.0,0.0,-1.0
78715763,78715655,-0.08379741,0.0027119312,0.005101309,0.06288207,0.0,0.0,0.0,-1.0
78717376,78717275,-0.07931806,0.0055631534,0.00410422,0.06288207,0.0,0.0,0.0,-1.0
78722211,78722106,-0.079784244,0.013699142,-0.003500375,0.066110194,0.0,0.0,0.0,-1.0
78725365,78725258,-0.090248644,0.0040966487,-0.007150864,0.066110194,0.0,0.0,0.0,-1.0
78729368,78729254,-0.082471415,-0.0009383951,-0.0059474697,0.066110194,0.0,0.0,0.0,-1.0
78732563,78732455,-0.07743712,0.008583134,-0.00025644014,0.066110194,0.0,0.0,0.0,-1.0
78736558,78736455,-0.08821879,0.004629126,0.0050256927,0.066110194,0.0,0.0,0.0,-1.0
78740572,78740463,-0.07982959,0.003684621,0.004493483,0.06750679,0.0,0.0,0.0,-1.0
78742157,78742056,-0.07786189,0.012863261,0.0016017534,0.06750679,0.0,0.0,0.0,-1.0
78746214,78746063,-0.0882505,0.012300311,-0.0040821712,0.06750679,0.0,0.0,0.0,-1.0
78750167,78750056,-0.08929013,-0.0037977847,-0.004136247,0.06750679,0.0,0.0,0.0,-1.0
78753364,78753256,-0.08979222,0.006777159,-0.0021636838,0.06750679,0.0,0.0,0.0,-1.0
78757442,78757265,-0.07609964,0.0047190567,0.0031863446,0.06750679,0.0,0.0,0.0,-1.0
78760555,78760454,-0.07782685,-0.003054982,0.0034934147,0.06750679,0.0,0.0,0.0,-1.0
78764556,78764455,-0.09779648,0.016411923,0.0024477744,0.06757356,0.0,0.0,0.0,-1.0
78768567,78768455,-0.07988657,0.011101649,-0.00096487487,0.06757356,0.0,0.0,0.0,-1.0
78770159,78770054,-0.08485505,0.001274727,-0.002179726,0.06757356,0.0,0.0,0.0,-1.0
78774163,78774060,-0.106127456,0.0029996985,-0.0018276669,0.06757356,0.0,0.0,0.0,-1.0
78778207,78778065,-0.0800039,0.00490373,0.0011850831,0.06757356,0.0,0.0,0.0,-1.0
78781375,78781257,-0.08098754,8.6053886e-05,-0.00035734833,0.06757356,0.0,0.0,0.0,-1.0
78785380,78785262,-0.09583803,0.009072037,0.0004488309,0.06750757,0.0,0.0,0.0,-1.0
78788556,78788455,-0.08689205,0.009476956,0.0005193727,0.06750757,0.0,0.0,0.0,-1.0
78791767,78791654,-0.08875086,0.0074654226,0.0011468782,0.06750757,0.0,0.0,0.0,-1.0
78797362,78797255,-0.092305265,-0.0018069112,-0.0015817332,0.06750757,0.0,0.0,0.0,-1.0
78798159,78798057,-0.087448925,-0.004433944,-0.0013005217,0.06750757,0.0,0.0,0.0,-1.0
78802157,78802054,-0.084047824,0.0006094985,-0.0018833188,0.06750757,0.0,0.0,0.0,-1.0
78806201,78806100,-0.09937011,0.010661926,-0.0008243669,0.06750757,0.0,0.0,0.0,-1.0
78809367,78809267,-0.09419006,0.0014834551,0.001303749,0.06801853,0.0,0.0,0.0,-1.0
78813381,78813256,-0.10211509,0.009437637,0.0026651118,0.06801853,0.0,0.0,0.0,-1.0
78816613,78816462,-0.09769807,0.008120711,6.3158834e-05,0.06801853,0.0,0.0,0.0,-1.0
78821379,78821278,-0.086951025,-0.016122192,-0.0016508211,0.06801853,0.0,0.0,0.0,-1.0
78823766,78823654,-0.096032076,-0.0008173322,-0.0022255373,0.06801853,0.0,0.0,0.0,-1.0
78826155,78826054,-0.09300636,0.012961364,-0.0006248285,0.06858588,0.0,0.0,0.0,-1.0
78830155,78830054,-0.0819965,0.0010677162,0.0012662453,0.06858588,0.0,0.0,0.0,-1.0
78834155,78834054,-0.101328135,0.007283389,0.0020166016,0.06858588,0.0,0.0,0.0,-1.0
78837421,78837265,-0.07917642,0.0109277135,0.0015878669,0.06858588,0.0,0.0,0.0,-1.0
78841378,78841256,-0.07675579,-0.017254382,-0.0012268423,0.06858588,0.0,0.0,0.0,-1.0
78845365,78845258,-0.091370545,0.00025906973,0.0014326378,0.06858588,0.0,0.0,0.0,-1.0
78847771,78847654,-0.08366099,0.0077910353,0.001293572,0.06858588,0.0,0.0,0.0,-1.0
78852577,78852477,-0.094196655,0.00087193144,0.0008194585,0.06979232,0.0,0.0,0.0,-1.0
78854155,78854054,-0.084701784,0.0025221468,-0.0013520865,0.06979232,0.0,0.0,0.0,-1.0
78858202,78858060,-0.07568239,0.008437784,-0.0025915871,0.06979232,0.0,0.0,0.0,-1.0
78862162,78862054,-0.09215764,-0.0047718533,-0.0014821002,0.06979232,0.0,0.0,0.0,-1.0
78865372,78865254,-0.07246969,-0.0022969397,0.0029133367,0.06979232,0.0,0.0,0.0,-1.0
78869376,78869255,-0.08586423,0.0077529103,0.0043361844,0.06979232,0.0,0.0,0.0,-1.0
78872562,78872454,-0.10344323,0.011548608,0.00052537053,0.06979232,0.0,0.0,0.0,-1.0
78876557,78876450,-0.066042766,0.011008953,-0.0054360284,0.07250353,0.0,0.0,0.0,-1.0
78879771,78879654,-0.08850457,0.008641036,-0.006416632,0.07250353,0.0,0.0,0.0,-1.0
78882154,78882054,-0.10009468,0.0088157635,-0.0022540577,0.07250353,0.0,0.0,0.0,-1.0
78886993,78886892,-0.074810766,-0.0024854243,0.007155159,0.07250353,0.0,0.0,0.0,-1.0
78890209,78890101,-0.08480678,0.005445307,0.005596481,0.07250353,0.0,0.0,0.0,-1.0
78893368,78893254,-0.08444775,0.011208238,0.0016393585,0.07250353,0.0,0.0,0.0,-1.0
78897378,78897258,-0.09451464,0.0028172303,-0.004491943,0.07601127,0.0,0.0,0.0,-1.0
78900577,78900454,-0.08344231,0.009648291,-0.008454004,0.07601127,0.0,0.0,0.0,-1.0
78902955,78902854,-0.07149581,0.010420915,-0.002769168,0.07601127,0.0,0.0,0.0,-1.0
78907014,78906906,-0.093121886,-0.011442855,0.0044795936,0.07601127,0.0,0.0,0.0,-1.0
78910966,78910854,-0.058388095,0.009331335,0.004699226,0.0824436,0.0,0.0,0.0,-1.0
78914990,78914885,-0.080495715,0.008072883,-0.0019576673,0.0824436,0.0,0.0,0.0,-1.0
78918246,78918077,-0.11044867,0.004743495,-0.0048194663,0.0824436,0.0,0.0,0.0,-1.0
78922159,78922058,-0.07292706,0.015709864,-0.005512589,0.0824436,0.0,0.0,0.0,-1.0
78925386,78925275,-0.08781451,0.0004312349,-0.0015402907,0.0824436,0.0,0.0,0.0,-1.0
78929362,78929255,-0.0721895,-0.017198373,0.0034252983,0.0824436,0.0,0.0,0.0,-1.0
78930961,78930854,-0.0658066,-0.007901046,0.005191344,0.0824436,0.0,0.0,0.0,-1.0
78934962,78934854,-0.0856084,0.0044011795,0.0018045245,0.09181155,0.0,0.0,0.0,-1.0
78939007,78938865,-0.0838195,0.0026932014,0.0010912768,0.09181155,0.0,0.0,0.0,-1.0
78942165,78942054,-0.09892425,0.010620777,-0.0017878291,0.09181155,0.0,0.0,0.0,-1.0
78946190,78946085,-0.086229034,0.0043943143,-0.0019814495,0.09181155,0.0,0.0,0.0,-1.0
78949373,78949266,-0.056309737,-0.009811478,-0.0018650236,0.09181155,0.0,0.0,0.0,-1.0
78953369,78953255,-0.10115438,0.003249582,0.002523133,0.09181155,0.0,0.0,0.0,-1.0
78956582,78956473,-0.080373645,0.010060587,0.003049692,0.09181155,0.0,0.0,0.0,-1.0
78961362,78961255,-0.09639785,0.008166379,0.0006243199,0.098401085,0.0,0.0,0.0,-1.0
78962962,78962854,-0.10168691,0.008145357,-0.0033466376,0.098401085,0.0,0.0,0.0,-1.0
78966976,78966875,-0.07401751,0.005675809,-0.005718248,0.098401085,0.0,0.0,0.0,-1.0
78970160,78970058,-0.09162277,-0.008841855,-0.005220216,0.1559094,0.0,0.0,0.0,-1.0
78974239,78974106,-0.075152345,0.01205048,0.16083093,0.1559094,0.0,0.0,0.0,-1.0
78977435,78977320,-0.07264825,0.019086348,0.16442688,0.1559094,0.0,0.0,0.0,-1.0
78981379,78981256,-0.10255053,0.012419153,0.16394114,0.1559094,0.0,0.0,0.0,-1.0
78985363,78985255,-0.060324945,0.01465832,0.17182584,0.15778296,0.0,0.0,0.0,-1.0
78986963,78986854,-0.07931387,0.012762505,0.16900465,0.15778296,0.0,0.0,0.0,-1.0
78991012,78990910,-0.09461607,0.0072231665,0.1601862,0.15778296,0.0,0.0,0.0,-1.0
78994974,78994854,-0.062302355,0.017156996,0.15346837,0.15778296,0.0,0.0,0.0,-1.0
78998285,78998115,-0.0818049,0.016834456,0.15462059,0.15917218,0.0,0.0,0.0,-1.0
79002156,79002054,-0.06313903,0.0143552385,0.14997937,0.15917218,0.0,0.0,0.0,-1.0
79005365,79005257,-0.053353738,0.011767733,0.14852566,0.15917218,0.0,0.0,0.0,-1.0
79010171,79010068,-0.070799716,0.004914021,0.16171275,0.15917218,0.0,0.0,0.0,-1.0
79012569,79012454,-0.06337349,0.00362478,0.16651617,0.15917218,0.0,0.0,0.0,-1.0
79014967,79014854,-0.036934502,0.009702223,0.16945831,0.15917218,0.0,0.0,0.0,-1.0
79019044,79018883,-0.03744886,0.013401547,0.18588738,0.15917218,0.0,0.0,0.0,-1.0
79022963,79022854,-0.054419547,0.005152431,0.20786023,0.16101092,0.0,0.0,0.0,-1.0
79026169,79026065,-0.037886262,0.018575568,0.2157819,0.16101092,0.0,0.0,0.0,-1.0
79030158,79030056,-0.029155364,-0.0025530823,0.21911292,0.16101092,0.0,0.0,0.0,-1.0
79033363,79033255,-0.044774294,-0.016793134,0.23070608,0.16101092,0.0,0.0,0.0,-1.0
79037428,79037262,-0.022598507,0.0026669526,0.24569708,0.16101092,0.0,0.0,0.0,-1.0
79042161,79042055,-0.039037332,-0.011731648,0.2490121,0.16101092,0.0,0.0,0.0,-1.0
79042962,79042859,-0.03213189,-0.011697542,0.24594352,0.16101092,0.0,0.0,0.0,-1.0
79047007,79046860,-0.029967895,0.0062667187,0.24844383,0.16325165,0.0,0.0,0.0,-1.0
79050956,79050854,-0.052565403,-0.022456372,0.25233513,0.16325165,0.0,0.0,0.0,-1.0
79054156,79054054,-0.03080269,-0.023341412,0.25678277,0.16325165,0.0,0.0,0.0,-1.0
79058293,79058121,-0.028885603,0.011263483,0.2502643,0.16325165,0.0,0.0,0.0,-1.0
79061372,79061255,-0.050862536,-0.010860731,0.24155924,0.16325165,0.0,0.0,0.0,-1.0
79066964,79066855,-0.043234758,0.0112459045,0.23500615,0.16639903,0.0,0.0,0.0,-1.0
79067770,79067657,-0.03867311,0.015923046,0.23285113,0.16639903,0.0,0.0,0.0,-1.0
79071763,79071654,-0.045879267,-0.018376648,0.2392697,0.16639903,0.0,0.0,0.0,-1.0
79075821,79075662,-0.0710267,0.008265836,0.23597436,0.16639903,0.0,0.0,0.0,-1.0
79078960,79078857,-0.05786973,0.027896369,0.23226915,0.16639903,0.0,0.0,0.0,-1.0
79082179,79082068,-0.04965371,-0.004626558,0.22708856,0.16639903,0.0,0.0,0.0,-1.0
79086160,79086057,-0.057612896,0.016513905,0.23316485,0.16639903,0.0,0.0,0.0,-1.0
79090968,79090855,-0.075348444,0.016756253,0.23704018,0.17050786,0.0,0.0,0.0,-1.0
79093391,79093256,-0.058568634,-0.0171109,0.23512898,0.17050786,0.0,0.0,0.0,-1.0
79095807,79095662,-0.05622007,-0.0047859075,0.24307677,0.17050786,0.0,0.0,0.0,-1.0
79099756,79099654,-0.066845834,0.024929432,0.2572236,0.17050786,0.0,0.0,0.0,-1.0
79103762,79103658,-0.08058165,-0.008364357,0.26692197,0.17050786,0.0,0.0,0.0,-1.0
79106961,79106857,-0.07299947,0.021682935,0.25839642,0.17050786,0.0,0.0,0.0,-1.0
79110981,79110879,-0.06952086,0.021726873,0.27077466,0.17521748,0.0,0.0,0.0,-1.0
79114957,79114855,-0.06808149,-0.020484993,0.28319234,0.17521748,0.0,0.0,0.0,-1.0
79118195,79118061,-0.055101573,0.012646206,0.28289965,0.17521748,0.0,0.0,0.0,-1.0
79122172,79122055,-0.061060008,0.020967282,0.28067568,0.17521748,0.0,0.0,0.0,-1.0
79123760,79123658,-0.07068647,0.0027745755,0.284707,0.17521748,0.0,0.0,0.0,-1.0
79127773,79127657,-0.0674864,0.022164084,0.3010736,0.1802429,0.0,0.0,0.0,-1.0
79131760,79131654,-0.044621747,0.025353575,0.29740438,0.1802429,0.0,0.0,0.0,-1.0
79135019,79134870,-0.07359475,0.0041459384,0.2980042,0.1802429,0.0,0.0,0.0,-1.0
79138992,79138883,-0.07221888,0.006244039,0.30014262,0.1802429,0.0,0.0,0.0,-1.0
79142209,79142106,-0.05107619,0.006734008,0.30268988,0.1802429,0.0,0.0,0.0,-1.0
79146157,79146055,-0.04979367,-0.0028177304,0.30062062,0.1802429,0.0,0.0,0.0,-1.0
79150167,79150057,-0.07553491,0.025629839,0.2963249,0.1802429,0.0,0.0,0.0,-1.0
79151758,79151656,-0.07017685,0.02204742,0.3012249,0.18653658,0.0,0.0,0.0,-1.0
79155819,79155663,-0.036093894,-0.005173203,0.3036679,0.18653658,0.0,0.0,0.0,-1.0
79159769,79159654,-0.04451127,-0.0021442715,0.31171113,0.18653658,0.0,0.0,0.0,-1.0
79162964,79162858,-0.060627177,0.0067760013,0.3194729,0.18653658,0.0,0.0,0.0,-1.0
79166163,79166054,-0.061870895,0.00034189783,0.3099113,0.18653658,0.0,0.0,0.0,-1.0
79170979,79170855,-0.049866803,0.017728768,0.3214274,0.18653658,0.0,0.0,0.0,-1.0
79173376,79173258,-0.054922927,0.015568655,0.3234067,0.18653658,0.0,0.0,0.0,-1.0
79178176,79178072,-0.056911565,-0.0060926373,0.32542846,0.1947883,0.0,0.0,0.0,-1.0
79179756,79179654,-0.050844505,-0.0068782098,0.32362375,0.1947883,0.0,0.0,0.0,-1.0
79183756,79183654,-0.045005158,0.008264569,0.34091678,0.1947883,0.0,0.0,0.0,-1.0
79187846,79187666,-0.05629268,-0.005306833,0.34952265,0.1947883,0.0,0.0,0.0,-1.0
79190969,79190854,-0.048597444,-0.007646433,0.34779987,0.20210503,0.0,0.0,0.0,-1.0
79194984,79194875,-0.058968727,0.02902517,0.3398685,0.20210503,0.0,0.0,0.0,-1.0
79199012,79198864,-0.07484838,0.0064265355,0.35303882,0.20210503,0.0,0.0,0.0,-1.0
79201362,79201254,-0.057117112,-0.005738512,0.35348618,0.20210503,0.0,0.0,0.0,-1.0
79205379,79205256,-0.055701736,0.01683059,0.3538868,0.20210503,0.0,0.0,0.0,-1.0
79207766,79207654,-0.082790755,0.01905313,0.35934824,0.20210503,0.0,0.0,0.0,-1.0
79218957,79218855,-0.07217881,0.031586595,0.3624764,0.20488523,0.0,0.0,0.0,-1.0
79219778,79219662,-0.0867635,0.021727566,0.3636573,0.20488523,0.0,0.0,0.0,-1.0
79222226,79222063,-0.08276033,-0.000119000964,0.36178192,0.20488523,0.0,0.0,0.0,-1.0
79226988,79226885,-0.02836996,0.021471627,0.36778232,0.20488523,0.0,0.0,0.0,-1.0
79229363,79229255,-0.049735814,0.019960456,0.37257802,0.20488523,0.0,0.0,0.0,-1.0
79232556,79232454,-0.08008938,0.010295828,0.3752287,0.20488523,0.0,0.0,0.0,-1.0
79236577,79236462,-0.027492857,0.022637017,0.37291527,0.20488523,0.0,0.0,0.0,-1.0
79239766,79239656,-0.036687072,0.027161345,0.37495068,0.20488523,0.0,0.0,0.0,-1.0
79243836,79243664,-0.06921774,0.0063030277,0.381158,0.20391576,0.0,0.0,0.0,-1.0
79246969,79246856,-0.05226659,0.007827496,0.37328655,0.20391576,0.0,0.0,0.0,-1.0
79250994,79250886,-0.029137712,0.0040592453,0.3841699,0.20391576,0.0,0.0,0.0,-1.0
79254987,79254880,-0.048310257,0.011977358,0.39414105,0.20391576,0.0,0.0,0.0,-1.0
79256626,79256469,-0.038013566,0.013044025,0.3949213,0.2030131,0.0,0.0,0.0,-1.0
79260559,79260457,-0.028808521,0.019488499,0.39110488,0.2030131,0.0,0.0,0.0,-1.0
79264563,79264454,-0.03918071,0.028957382,0.3996522,0.2030131,0.0,0.0,0.0,-1.0
79267772,79267656,-0.03892653,0.0135277165,0.40064698,0.2030131,0.0,0.0,0.0,-1.0
79271759,79271657,-0.03754521,-0.0035576983,0.39654714,0.2030131,0.0,0.0,0.0,-1.0
79274964,79274855,-0.05083768,0.01647297,0.40438944,0.2030131,0.0,0.0,0.0,-1.0
79278996,79278894,-0.047846634,0.002578499,0.4174074,0.2030131,0.0,0.0,0.0,-1.0
79282957,79282855,-0.048583254,-0.0030276463,0.41483322,0.20399758,0.0,0.0,0.0,-1.0
79284556,79284454,-0.06327189,0.0237952,0.41320536,0.20399758,0.0,0.0,0.0,-1.0
79288563,79288454,-0.06462293,0.016983427,0.42007276,0.20399758,0.0,0.0,0.0,-1.0
79292562,79292460,-0.041344818,-0.022482293,0.42106408,0.20399758,0.0,0.0,0.0,-1.0
79296700,79296551,-0.06493939,0.04053557,0.42367283,0.20399758,0.0,0.0,0.0,-1.0
79299788,79299684,-0.07314681,0.025252761,0.43118817,0.20399758,0.0,0.0,0.0,-1.0
79302959,79302857,-0.047759656,-0.017017666,0.43448588,0.20399758,0.0,0.0,0.0,-1.0
79307007,79306899,-0.04141261,0.0338325,0.4315696,0.20524323,0.0,0.0,0.0,-1.0
79310232,79310117,-0.08044567,0.037264045,0.42930186,0.20524323,0.0,0.0,0.0,-1.0
79312556,79312454,-0.0780239,-0.013755336,0.43518892,0.20524323,0.0,0.0,0.0,-1.0
79316573,79316456,-0.036052283,-0.015253729,0.4385247,0.20524323,0.0,0.0,0.0,-1.0
79320651,79320482,-0.08568596,0.025725191,0.43833625,0.20480564,0.0,0.0,0.0,-1.0
79323828,79323666,-0.09152206,-0.017790897,0.43956754,0.20480564,0.0,0.0,0.0,-1.0
79327768,79327656,-0.040321153,-0.009964753,0.4433775,0.20480564,0.0,0.0,0.0,-1.0
79330975,79330872,-0.0549139,0.027539877,0.442424,0.20480564,0.0,0.0,0.0,-1.0
79334168,79334057,-0.093625635,0.010457213,0.4403956,0.20480564,0.0,0.0,0.0,-1.0
79339757,79339655,-0.046499033,0.00017300033,0.44565514,0.20480564,0.0,0.0,0.0,-1.0
79340580,79340456,-0.05192667,0.009762594,0.44814748,0.20480564,0.0,0.0,0.0,-1.0
79344609,79344463,-0.08072173,0.01182958,0.45105526,0.20313083,0.0,0.0,0.0,-1.0
79348561,79348455,-0.06578903,-0.0006746528,0.44313174,0.20313083,0.0,0.0,0.0,-1.0
79351781,79351675,-0.03214268,0.009298512,0.4478147,0.20313083,0.0,0.0,0.0,-1.0
79355762,79355654,-0.06889536,0.030582298,0.4514791,0.20313083,0.0,0.0,0.0,-1.0
79358959,79358856,-0.06656981,0.01101611,0.44456485,0.20313083,0.0,0.0,0.0,-1.0
79363771,79363668,-0.038969014,-0.006098123,0.45026338,0.20313083,0.0,0.0,0.0,-1.0
79366169,79366054,-0.06234729,0.01372682,0.4568397,0.20313083,0.0,0.0,0.0,-1.0
79368576,79368454,-0.05955727,0.017232342,0.46554065,0.20259762,0.0,0.0,0.0,-1.0
79372577,79372475,-0.04242749,-0.0050475555,0.463753,0.20259762,0.0,0.0,0.0,-1.0
79376616,79376468,-0.054243103,0.017523326,0.46870378,0.20259762,0.0,0.0,0.0,-1.0
79379770,79379655,-0.04974197,0.026328417,0.46875528,0.20259762,0.0,0.0,0.0,-1.0
79383763,79383657,-0.023005895,-0.018503396,0.47118407,0.20259762,0.0,0.0,0.0,-1.0
79388557,79388455,-0.050488193,0.0051776576,0.48909718,0.2042798,0.0,0.0,0.0,-1.0
79389388,79389274,-0.046108548,0.011969993,0.49180615,0.2042798,0.0,0.0,0.0,-1.0
79393384,79393282,-0.009858182,-0.007044112,0.49954158,0.2042798,0.0,0.0,0.0,-1.0
79397442,79397285,-0.053216364,0.006424213,0.49739912,0.2042798,0.0,0.0,0.0,-1.0
79401396,79401275,-0.05329554,0.034830704,0.49151042,0.2042798,0.0,0.0,0.0,-1.0
79404568,79404457,-0.025395453,0.012759216,0.49569583,0.2042798,0.0,0.0,0.0,-1.0
79407773,79407654,-0.032382973,-0.010634438,0.49597883,0.2042798,0.0,0.0,0.0,-1.0
79412571,79412467,-0.079530686,0.026410652,0.507388,0.20698012,0.0,0.0,0.0,-1.0
79414965,79414854,-0.039955784,0.0109043345,0.5110955,0.20698012,0.0,0.0,0.0,-1.0
79417423,79417276,-0.03362804,-0.00646822,0.521567,0.20698012,0.0,0.0,0.0,-1.0
79421377,79421261,-0.08106811,0.0069670393,0.52014357,0.20698012,0.0,0.0,0.0,-1.0
79425363,79425254,-0.07092625,0.025848959,0.5140729,0.20976391,0.0,0.0,0.0,-1.0
79429372,79429257,-0.05359683,-0.010890439,0.52669895,0.20976391,0.0,0.0,0.0,-1.0
79432559,79432457,-0.07498854,-0.0066051832,0.53166705,0.20976391,0.0,0.0,0.0,-1.0
79436557,79436455,-0.081350535,0.03350645,0.52847743,0.20976391,0.0,0.0,0.0,-1.0
79439757,79439655,-0.05112381,0.013842665,0.53679574,0.20976391,0.0,0.0,0.0,-1.0
79443757,79443655,-0.067791164,0.018438425,0.5463547,0.20976391,0.0,0.0,0.0,-1.0
79445442,79445287,-0.06511969,0.04239642,0.54422957,0.20976391,0.0,0.0,0.0,-1.0
79449369,79449261,-0.063358165,0.05138938,0.5312836,0.21280223,0.0,0.0,0.0,-1.0
79453366,79453254,-0.050715663,-0.003513604,0.5446281,0.21280223,0.0,0.0,0.0,-1.0
79457426,79457260,-0.048097957,0.018379427,0.5467556,0.21280223,0.0,0.0,0.0,-1.0
79460557,79460455,-0.046717037,0.03158093,0.54893446,0.21280223,0.0,0.0,0.0,-1.0
79463756,79463654,-0.051251527,0.0030414967,0.5537504,0.21280223,0.0,0.0,0.0,-1.0
79467777,79467668,-0.045025248,0.0047316714,0.5596529,0.21280223,0.0,0.0,0.0,-1.0
79470965,79470854,-0.03473205,0.029448723,0.5541081,0.21280223,0.0,0.0,0.0,-1.0
79473362,79473254,-0.04894526,0.03227908,0.5459145,0.21676442,0.0,0.0,0.0,-1.0
79477364,79477256,-0.049057934,-0.01024889,0.5501831,0.21676442,0.0,0.0,0.0,-1.0
79481362,79481254,-0.029242583,0.024223145,0.5548143,0.21676442,0.0,0.0,0.0,-1.0
79485389,79485258,-0.04542249,0.034892973,0.56050086,0.21676442,0.0,0.0,0.0,-1.0
79488563,79488454,-0.07038092,0.0020900024,0.5574182,0.22200531,0.0,0.0,0.0,-1.0
79491765,79491655,-0.029194897,0.0077081737,0.5567156,0.22200531,0.0,0.0,0.0,-1.0
79495759,79495657,-0.009565249,0.047259185,0.55562836,0.22200531,0.0,0.0,0.0,-1.0
79499759,79499655,-0.07739574,-0.013811507,0.55691886,0.22200531,0.0,0.0,0.0,-1.0
79501362,79501254,-0.056308404,-0.040528756,0.55901366,0.22200531,0.0,0.0,0.0,-1.0
79505370,79505254,-0.012680944,0.026248382,0.56958485,0.22200531,0.0,0.0,0.0,-1.0
79509382,79509271,-0.067624606,0.013834767,0.57573825,0.22200531,0.0,0.0,0.0,-1.0
79513376,79513260,-0.058601,-0.034650594,0.58162606,0.22725575,0.0,0.0,0.0,-1.0
79516610,79516463,-0.013538687,0.028163522,0.5860152,0.22725575,0.0,0.0,0.0,-1.0
79519758,79519656,-0.050376285,0.04736159,0.59017724,0.22725575,0.0,0.0,0.0,-1.0
79523760,79523657,-0.082854785,-0.04196466,0.5866835,0.22725575,0.0,0.0,0.0,-1.0
79526975,79526854,-0.027398665,-0.0010989307,0.5886974,0.22725575,0.0,0.0,0.0,-1.0
79529374,79529256,-0.020619031,0.052628845,0.60090035,0.22725575,0.0,0.0,0.0,-1.0
79533375,79533270,-0.07309673,-0.024744038,0.60680336,0.22725575,0.0,0.0,0.0,-1.0
79537418,79537272,-0.042135075,-0.0077575375,0.6071124,0.23113115,0.0,0.0,0.0,-1.0
79541385,79541256,-0.039410487,0.073090985,0.6149069,0.23113115,0.0,0.0,0.0,-1.0
79544610,79544464,-0.070016466,-0.008431232,0.61973363,0.23113115,0.0,0.0,0.0,-1.0
79548565,79548456,-0.0442656,-0.025214562,0.60993207,0.23113115,0.0,0.0,0.0,-1.0
79551765,79551654,-0.03524141,0.045877982,0.61973464,0.23113115,0.0,0.0,0.0,-1.0
79554956,79554854,-0.07024222,0.004261078,0.6279888,0.2339325,0.0,0.0,0.0,-1.0
79557368,79557266,-0.060367048,-0.058038354,0.6262989,0.2339325,0.0,0.0,0.0,-1.0
79562209,79562100,-0.048554815,0.044281207,0.6212631,0.2339325,0.0,0.0,0.0,-1.0
79565370,79565268,-0.06676868,0.028560452,0.6318774,0.2339325,0.0,0.0,0.0,-1.0
79569391,79569259,-0.04314081,-0.047155224,0.6310727,0.2339325,0.0,0.0,0.0,-1.0
79573370,79573258,-0.05333086,0.034080513,0.63381034,0.2339325,0.0,0.0,0.0,-1.0
79575772,79575654,-0.06260061,0.034325734,0.6393151,0.2339325,0.0,0.0,0.0,-1.0
79581365,79581255,-0.022186778,-0.038812265,0.6336484,0.23618312,0.0,0.0,0.0,-1.0
79582166,79582063,-0.027684882,-0.022212636,0.632247,0.23618312,0.0,0.0,0.0,-1.0
79586156,79586054,-0.07147262,0.062266357,0.6268988,0.23618312,0.0,0.0,0.0,-1.0
79590163,79590054,-0.04208913,-0.008706629,0.63374126,0.23618312,0.0,0.0,0.0,-1.0
79593371,79593256,-0.014772166,-0.036540017,0.62908137,0.2381585,0.0,0.0,0.0,-1.0
79597380,79597256,-0.07970422,0.047928978,0.62552285,0.2381585,0.0,0.0,0.0,-1.0
79600567,79600454,-0.04659799,0.012661562,0.6319227,0.2381585,0.0,0.0,0.0,-1.0
79605365,79605255,-0.020565549,-0.01678174,0.63837916,0.2381585,0.0,0.0,0.0,-1.0
79607827,79607695,-0.062219556,0.035722047,0.6313728,0.2381585,0.0,0.0,0.0,-1.0
79610156,79610054,-0.06893705,0.048340134,0.62998503,0.2381585,0.0,0.0,0.0,-1.0
79614170,79614066,-0.010426829,-0.031227903,0.6417118,0.2381585,0.0,0.0,0.0,-1.0
79618164,79618054,-0.055623855,0.034048025,0.644327,0.23999903,0.0,0.0,0.0,-1.0
79621370,79621254,-0.072252676,0.048324805,0.6434189,0.23999903,0.0,0.0,0.0,-1.0
79625373,79625257,-0.009359517,-0.014082342,0.65736514,0.23999903,0.0,0.0,0.0,-1.0
79628565,79628455,-0.027881943,0.013928864,0.6539239,0.23999903,0.0,0.0,0.0,-1.0
79631772,79631654,-0.06349454,0.03855759,0.6476555,0.23999903,0.0,0.0,0.0,-1.0
79638162,79638055,-0.030148476,-0.010458766,0.66400266,0.23999903,0.0,0.0,0.0,-1.0
79642163,79642054,-0.059220444,0.019090205,0.6609091,0.24170256,0.0,0.0,0.0,-1.0
79646208,79646106,-0.040467396,0.013822326,0.6670677,0.24170256,0.0,0.0,0.0,-1.0
79649378,79649268,-0.0379689,-0.0075173564,0.6769741,0.24170256,0.0,0.0,0.0,-1.0
79653406,79653285,-0.05646376,0.023159297,0.6680837,0.24170256,0.0,0.0,0.0,-1.0
79656619,79656466,-0.058299482,0.05131781,0.6626264,0.24170256,0.0,0.0,0.0,-1.0
79661363,79661255,-0.04883261,-0.017614054,0.67694485,0.24324086,0.0,0.0,0.0,-1.0
79663836,79663714,-0.04357447,0.0041980823,0.6727407,0.24324086,0.0,0.0,0.0,-1.0
79666158,79666056,-0.046846107,0.056693096,0.6680224,0.24324086,0.0,0.0,0.0,-1.0
79670163,79670054,-0.060221426,0.016179185,0.67776066,0.24324086,0.0,0.0,0.0,-1.0
79674177,79674075,-0.038164362,-0.021682626,0.6788174,0.24324086,0.0,0.0,0.0,-1.0
79677434,79677269,-0.037176907,0.059706483,0.6740057,0.24324086,0.0,0.0,0.0,-1.0
79681383,79681256,-0.07691738,0.010861012,0.67514205,0.24502698,0.0,0.0,0.0,-1.0
79685367,79685255,-0.03144096,-0.038492233,0.68358815,0.24502698,0.0,0.0,0.0,-1.0
79688610,79688459,-0.020308826,0.050935984,0.6777441,0.24502698,0.0,0.0,0.0,-1.0
79692557,79692455,-0.08661919,0.015244023,0.6845268,0.24502698,0.0,0.0,0.0,-1.0
79694163,79694054,-0.0653789,-0.04222009,0.6903265,0.24502698,0.0,0.0,0.0,-1.0
79699046,79698901,-0.006791583,0.0474312,0.6861313,0.24502698,0.0,0.0,0.0,-1.0
79702178,79702068,-0.08289132,0.038733877,0.68533975,0.24502698,0.0,0.0,0.0,-1.0
79705385,79705283,-0.069229335,-0.043788526,0.69239074,0.24502698,0.0,0.0,0.0,-1.0
79710164,79710055,-0.007876438,0.03509072,0.69495595,0.24778314,0.0,0.0,0.0,-1.0
79712565,79712454,-0.06547903,0.046023697,0.6906543,0.24778314,0.0,0.0,0.0,-1.0
79715848,79715698,-0.072770625,-0.019016342,0.6918051,0.24778314,0.0,0.0,0.0,-1.0
79719756,79719654,-0.009985158,0.0010609867,0.6994649,0.24778314,0.0,0.0,0.0,-1.0
79722163,79722054,-0.036899738,0.034468617,0.69960046,0.25099027,0.0,0.0,0.0,-1.0
79726182,79726078,-0.095620096,-0.02583638,0.69511026,0.25099027,0.0,0.0,0.0,-1.0
79730209,79730106,-0.0044506914,-0.020772837,0.7082516,0.25101984,0.0,0.0,0.0,-1.0
79734160,79734056,-0.056270696,0.010976775,0.70283043,0.25101984,0.0,0.0,0.0,-1.0
79737384,79737254,-0.084428184,-0.014250983,0.69400644,0.25101984,0.0,0.0,0.0,-1.0
79741363,79741255,-0.0020136829,-0.003761873,0.70667726,0.25101697,0.0,0.0,0.0,-1.0
79742969,79742857,-0.01432523,0.008798337,0.7112358,0.25101697,0.0,0.0,0.0,-1.0
79747127,79746978,-0.07438435,-0.0046530277,0.7074012,0.25349593,0.0,0.0,0.0,-1.0
79750960,79750854,-0.010944831,-0.0080102505,0.7169365,0.25348336,0.0,0.0,0.0,-1.0
79754156,79754054,-0.01842206,-0.0021930751,0.7229177,0.25348336,0.0,0.0,0.0,-1.0
79758168,79758065,-0.061590075,-0.0007298093,0.70889205,0.25348336,0.0,0.0,0.0,-1.0
79761362,79761254,-0.034276463,0.0059605762,0.70814604,0.25353405,0.0,0.0,0.0,-1.0
79765371,79765255,-0.018440131,-0.004064944,0.7150233,0.25353405,0.0,0.0,0.0,-1.0
79768565,79768454,-0.035061195,-0.00083655125,0.70851266,0.25353405,0.0,0.0,0.0,-1.0
79770959,79770857,-0.03010369,0.013084476,0.7128842,0.25526634,0.0,0.0,0.0,-1.0
79774956,79774854,-0.017663425,0.0056399046,0.7234144,0.25526634,0.0,0.0,0.0,-1.0
79779006,79778860,-0.022323001,0.009561079,0.7156792,0.25526634,0.0,0.0,0.0,-1.0
79782157,79782055,-0.03592928,0.010594076,0.7102064,0.255305,0.0,0.0,0.0,-1.0
79786156,79786054,-0.03187628,0.009770348,0.7128088,0.25685817,0.0,0.0,0.0,-1.0
79789440,79789312,-0.019748624,0.020024601,0.7105248,0.25685817,0.0,0.0,0.0,-1.0
79793389,79793256,-0.04104859,0.016114958,0.70611674,0.2568568,0.0,0.0,0.0,-1.0
79797415,79797313,-0.044525225,0.024575606,0.70772046,0.2568568,0.0,0.0,0.0,-1.0
79799050,79798899,-0.026746893,0.030169852,0.71071887,0.2568568,0.0,0.0,0.0,-1.0
79802956,79802854,-0.036894508,0.011129954,0.702538,0.25689498,0.0,0.0,0.0,-1.0
79806960,79806856,-0.07471193,0.027760498,0.69950086,0.25689498,0.0,0.0,0.0,-1.0
79810167,79810063,-0.032595564,0.048714865,0.69718724,0.2589899,0.0,0.0,0.0,-1.0
79814210,79814106,-0.045061488,0.009907983,0.69355255,0.2589899,0.0,0.0,0.0,-1.0
79817439,79817276,-0.07835016,0.012526014,0.68999195,0.2589899,0.0,0.0,0.0,-1.0
79821370,79821255,-0.022515774,0.045884654,0.6983694,0.2590351,0.0,0.0,0.0,-1.0
79824572,79824454,-0.045311403,0.0134489015,0.6964901,0.2590351,0.0,0.0,0.0,-1.0
79826967,79826865,-0.10030309,0.007362453,0.68787986,0.2590351,0.0,0.0,0.0,-1.0
79831015,79830905,-0.034705486,0.05064565,0.69233173,0.2590874,0.0,0.0,0.0,-1.0
79834956,79834854,-0.040844027,0.008104942,0.6869396,0.26180944,0.0,0.0,0.0,-1.0
79838221,79838063,-0.08946127,-0.010695717,0.6843196,0.26180944,0.0,0.0,0.0,-1.0
79842156,79842054,-0.012397116,0.047926374,0.6944703,0.26182857,0.0,0.0,0.0,-1.0
79845364,79845255,-0.019726194,0.033656485,0.696083,0.26182857,0.0,0.0,0.0,-1.0
79850164,79850055,-0.06532811,-0.015405058,0.6864734,0.2618456,0.0,0.0,0.0,-1.0
79852556,79852454,-0.018996837,0.028054204,0.6927194,0.2618456,0.0,0.0,0.0,-1.0
79855019,79854863,-0.00538093,0.040216226,0.69596565,0.2638569,0.0,0.0,0.0,-1.0
79858959,79858855,-0.08476781,-0.024274483,0.6905615,0.2638569,0.0,0.0,0.0,-1.0
79862969,79862863,-0.015268051,0.01009836,0.70534724,0.26388314,0.0,0.0,0.0,-1.0
79866157,79866055,-0.0031004725,0.038110394,0.7050496,0.26388314,0.0,0.0,0.0,-1.0
79870157,79870055,-0.07355546,-0.010976556,0.6973973,0.26384917,0.0,0.0,0.0,-1.0
79874159,79874055,-0.013485091,-0.001139592,0.7000231,0.2651889,0.0,0.0,0.0,-1.0
79877384,79877256,-0.0060974346,0.027517332,0.69736737,0.2651889,0.0,0.0,0.0,-1.0
79880556,79880454,-0.056997363,0.0009626869,0.6941801,0.26519567,0.0,0.0,0.0,-1.0
79883775,79883671,-0.028250614,-0.029668784,0.7056746,0.26519567,0.0,0.0,0.0,-1.0
79886969,79886854,-0.0041783513,0.014162876,0.7083246,0.26519567,0.0,0.0,0.0,-1.0
79890971,79890857,-0.047971494,0.02946993,0.70160705,0.26518098,0.0,0.0,0.0,-1.0
79894165,79894059,-0.054478195,-0.022898449,0.70320165,0.26518098,0.0,0.0,0.0,-1.0
79898212,79898108,-0.011715665,0.0025744687,0.69675595,0.26711774,0.0,0.0,0.0,-1.0
79901376,79901259,-0.041314904,0.032009926,0.6914523,0.26713794,0.0,0.0,0.0,-1.0
79906957,79906855,-0.027772412,-0.05371499,0.70513994,0.26713794,0.0,0.0,0.0,-1.0
79907770,79907656,-0.010875432,-0.037479546,0.70521003,0.26713794,0.0,0.0,0.0,-1.0
79911771,79911660,-0.011949616,0.06104367,0.6984028,0.2671364,0.0,0.0,0.0,-1.0
79915823,79915661,-0.06341254,-0.024376214,0.701517,0.2671364,0.0,0.0,0.0,-1.0
79919002,79918863,-0.00713901,-0.043119557,0.6960708,0.2692842,0.0,0.0,0.0,-1.0
79922168,79922064,0.016717644,0.040413126,0.6885586,0.26925504,0.0,0.0,0.0,-1.0
79926156,79926054,-0.06499086,0.004493875,0.6924902,0.26925504,0.0,0.0,0.0,-1.0
79930957,79930855,0.02592388,-0.032214157,0.7026825,0.26931462,0.0,0.0,0.0,-1.0
79933394,79933256,0.011618564,0.032718103,0.6994561,0.26931462,0.0,0.0,0.0,-1.0
79935808,79935663,-0.055512022,0.03671166,0.6968744,0.27170616,0.0,0.0,0.0,-1.0
79939756,79939654,-0.03811779,-0.051699538,0.6997951,0.27167946,0.0,0.0,0.0,-1.0
79943763,79943654,0.024600819,0.030175462,0.6883101,0.27167946,0.0,0.0,0.0,-1.0
79946968,79946864,-0.06850144,0.04412391,0.683833,0.27167946,0.0,0.0,0.0,-1.0
79950159,79950057,-0.06669665,-0.033490166,0.69285655,0.27168295,0.0,0.0,0.0,-1.0
79954979,79954877,0.011544075,0.022042055,0.691153,0.27168295,0.0,0.0,0.0,-1.0
79958211,79958064,-0.07608111,0.06416121,0.6852947,0.27168295,0.0,0.0,0.0,-1.0
79962170,79962055,-0.046853248,-0.023969471,0.6948489,0.27480823,0.0,0.0,0.0,-1.0
79963773,79963667,-0.005043024,-0.029579999,0.69186085,0.27480823,0.0,0.0,0.0,-1.0
79967766,79967654,-0.08329772,0.055894125,0.678207,0.27480823,0.0,0.0,0.0,-1.0
79971763,79971654,-0.081476934,0.0049497313,0.6885047,0.27483144,0.0,0.0,0.0,-1.0
79974968,79974857,-0.021327702,-0.038408954,0.68851054,0.27483144,0.0,0.0,0.0,-1.0
79978159,79978055,-0.06774928,0.029235352,0.6802253,0.27483144,0.0,0.0,0.0,-1.0
79982203,79982095,-0.08719524,0.06088798,0.6855713,0.2748605,0.0,0.0,0.0,-1.0
79986960,79986857,-0.034955297,-0.030831514,0.6775238,0.27823815,0.0,0.0,0.0,-1.0
79989393,79989262,-0.05581875,0.01654233,0.6711956,0.27823815,0.0,0.0,0.0,-1.0
79991756,79991654,-0.061335985,0.0574294,0.6788727,0.27829513,0.0,0.0,0.0,-1.0
79995825,79995663,-0.0071662473,-0.038929418,0.6815797,0.27829513,0.0,0.0,0.0,-1.0
79999759,79999657,-0.01712894,-0.020523695,0.6730875,0.28120926,0.0,0.0,0.0,-1.0
80002968,80002857,-0.015540696,0.05421851,0.6787848,0.28120926,0.0,0.0,0.0,-1.0
80006992,80006886,0.0014502743,-0.035842218,0.6748594,0.28120926,0.0,0.0,0.0,-1.0
80010959,80010856,-0.007219633,-0.0353848,0.6678249,0.28116226,0.0,0.0,0.0,-1.0
80013378,80013256,-0.010768188,0.017048065,0.6738936,0.28116226,0.0,0.0,0.0,-1.0
80018157,80018055,-0.0032996186,-0.049535517,0.67111135,0.28116226,0.0,0.0,0.0,-1.0
80019769,80019666,-0.01542511,-0.06956622,0.6718732,0.28115287,0.0,0.0,0.0,-1.0
80023763,80023654,-0.01264692,0.0038691629,0.67086715,0.28367853,0.0,0.0,0.0,-1.0
80027789,80027677,-0.02106402,-0.019143213,0.6618535,0.28367853,0.0,0.0,0.0,-1.0
80030964,80030857,-0.040726386,-0.062968634,0.6598165,0.2837415,0.0,0.0,0.0,-1.0
80034988,80034886,-0.034808423,-0.014999159,0.66227365,0.2837415,0.0,0.0,0.0,-1.0
80038959,80038857,-0.05189036,-0.0056098164,0.6579085,0.2837415,0.0,0.0,0.0,-1.0
80041369,80041257,-0.052798692,-0.043749154,0.65869415,0.28379974,0.0,0.0,0.0,-1.0
80044626,80044479,-0.0514048,-0.045135774,0.6695487,0.28379974,0.0,0.0,0.0,-1.0
80048585,80048483,-0.033802416,0.021399232,0.65093213,0.28671023,0.0,0.0,0.0,-1.0
80051761,80051657,-0.06588109,-0.011281645,0.6454066,0.28674465,0.0,0.0,0.0,-1.0
80055770,80055668,-0.047949478,-0.05722994,0.6452425,0.28674465,0.0,0.0,0.0,-1.0
80059764,80059655,-0.0172689,0.014512113,0.63384145,0.28674465,0.0,0.0,0.0,-1.0
80062175,80062057,-0.042604,0.00489904,0.6312359,0.28672823,0.0,0.0,0.0,-1.0
80066961,80066857,-0.014332833,-0.080382906,0.6313049,0.28956988,0.0,0.0,0.0,-1.0
80068582,80068473,0.021427376,-0.024877131,0.6277074,0.28956988,0.0,0.0,0.0,-1.0
80072559,80072457,-0.009192354,0.02491726,0.6154969,0.28953797,0.0,0.0,0.0,-1.0
80076618,80076462,-0.01724388,-0.07611292,0.61571145,0.28953797,0.0,0.0,0.0,-1.0
80079790,80079670,0.049155418,-0.018532025,0.6118724,0.28958932,0.0,0.0,0.0,-1.0
80083766,80083656,-0.01525172,0.032247502,0.60459334,0.28958932,0.0,0.0,0.0,-1.0
80086956,80086854,-0.03469787,-0.062683284,0.6101287,0.28958932,0.0,0.0,0.0,-1.0
80090979,80090875,0.05487518,-0.008139566,0.60365725,0.29140484,0.0,0.0,0.0,-1.0
80094165,80094054,-0.019908201,0.0271804,0.5931189,0.29140484,0.0,0.0,0.0,-1.0
80096627,80096463,-0.07058373,-0.02422943,0.5957394,0.29140484,0.0,0.0,0.0,-1.0
80100657,80100506,0.016033469,-0.033697173,0.59051824,0.29140785,0.0,0.0,0.0,-1.0
80104556,80104454,-0.06603037,0.04581178,0.5735847,0.2927709,0.0,0.0,0.0,-1.0
80107782,80107668,-0.10263154,-0.015677532,0.5795847,0.2927709,0.0,0.0,0.0,-1.0
80111759,80111654,-0.017825881,-0.03372918,0.5782161,0.29279727,0.0,0.0,0.0,-1.0
80114961,80114855,-0.061884258,0.02939737,0.57010746,0.29279727,0.0,0.0,0.0,-1.0
80118187,80118071,-0.084482126,0.0025655048,0.57268184,0.29279727,0.0,0.0,0.0,-1.0
80122957,80122855,-0.029055754,-0.043100342,0.56050915,0.29287714,0.0,0.0,0.0,-1.0
80124566,80124457,-0.04542999,-0.0019795008,0.5564563,0.29287714,0.0,0.0,0.0,-1.0
80128556,80128454,-0.0729706,0.02808103,0.55181634,0.2950173,0.0,0.0,0.0,-1.0
80132559,80132455,-0.02474387,-0.05174381,0.5467499,0.29503578,0.0,0.0,0.0,-1.0
80135808,80135662,-0.028781965,0.004852983,0.54106706,0.29503578,0.0,0.0,0.0,-1.0
80139760,80139657,-0.018404936,0.053618383,0.54400945,0.29503578,0.0,0.0,0.0,-1.0
80142956,80142854,-0.00500487,-0.039715927,0.5341846,0.295091,0.0,0.0,0.0,-1.0
80146995,80146891,0.006441535,-0.0047016074,0.526983,0.295091,0.0,0.0,0.0,-1.0
80150224,80150100,0.001815753,0.06033424,0.5134834,0.29858506,0.0,0.0,0.0,-1.0
80152569,80152467,0.002301468,0.0025000651,0.50458217,0.29859567,0.0,0.0,0.0,-1.0
80156627,80156478,0.013335987,-0.019869177,0.5057178,0.29859567,0.0,0.0,0.0,-1.0
80160563,80160454,0.0375171,0.09865053,0.50284284,0.29863468,0.0,0.0,0.0,-1.0
80163770,80163657,-0.01850763,0.015478954,0.49615455,0.29863468,0.0,0.0,0.0,-1.0
80167813,80167672,0.00017022195,-0.0052573755,0.46888664,0.3040334,0.0,0.0,0.0,-1.0
80170959,80170855,0.026585689,0.09462196,0.46435878,0.3040827,0.0,0.0,0.0,-1.0
80174165,80174054,-0.035710376,0.04189846,0.45844734,0.3040827,0.0,0.0,0.0,-1.0
80179777,80179655,0.011461504,0.03149522,0.46490046,0.3040827,0.0,0.0,0.0,-1.0
80180568,80180457,0.016257329,0.056141924,0.46205544,0.3040827,0.0,0.0,0.0,-1.0
80184560,80184454,-0.06607894,0.06007213,0.45510763,0.3040779,0.0,0.0,0.0,-1.0
80188560,80188454,-0.040317554,0.015472385,0.46179652,0.3040779,0.0,0.0,0.0,-1.0
80191767,80191654,-0.013208607,0.05899518,0.41592905,0.31125754,0.0,0.0,0.0,-1.0
80195758,80195654,-0.08928317,0.050946508,0.41322044,0.31125754,0.0,0.0,0.0,-1.0
80199009,80198862,-0.06190484,0.021477915,0.4225089,0.31125754,0.0,0.0,0.0,-1.0
80203776,80203668,-0.041373838,0.044080406,0.40248695,0.31117257,0.0,0.0,0.0,-1.0
80206165,80206054,-0.064007565,0.04822879,0.40665564,0.31117257,0.0,0.0,0.0,-1.0
80208556,80208454,-0.05299839,0.037187263,0.40882796,0.31117257,0.0,0.0,0.0,-1.0
80212555,80212454,-0.005643891,0.026844716,0.38566986,0.31125998,0.0,0.0,0.0,-1.0
80216618,80216472,-0.029316891,0.047137037,0.3499994,0.3189158,0.0,0.0,0.0,-1.0
80219757,80219655,-0.0070485594,0.03670144,0.34499168,0.31894872,0.0,0.0,0.0,-1.0
80223756,80223654,0.020871226,0.025026118,0.3273984,0.31894872,0.0,0.0,0.0,-1.0
80228564,80228462,-0.0067541245,0.05727927,0.32500094,0.31894872,0.0,0.0,0.0,-1.0
80229378,80229257,-0.00237627,0.0505642,0.32015508,0.31894872,0.0,0.0,0.0,-1.0
80233381,80233256,0.014862978,0.019121507,0.2715199,0.32789287,0.0,0.0,0.0,-1.0
80237425,80237266,0.011178935,0.04945274,0.26785973,0.32789287,0.0,0.0,0.0,-1.0
80241383,80241256,0.0066729058,0.035108943,0.25107163,0.32792655,0.0,0.0,0.0,-1.0
80244621,80244462,0.007913129,0.022744454,0.24468239,0.32792655,0.0,0.0,0.0,-1.0
80247774,80247654,0.0033063195,0.05934261,0.24950327,0.32792655,0.0,0.0,0.0,-1.0
80251770,80251655,-0.0073068794,0.047121793,0.2313161,0.32797435,0.0,0.0,0.0,-1.0
80254965,80254854,-0.013100374,0.015651032,0.22464141,0.32797435,0.0,0.0,0.0,-1.0
80257368,80257260,-0.012345983,0.047991667,0.17492445,0.34053677,0.0,0.0,0.0,-1.0
80261371,80261255,-0.030473735,0.085964486,0.1606999,0.3405702,0.0,0.0,0.0,-1.0
80265362,80265254,-0.040551294,-0.0016672343,0.16478238,0.3405702,0.0,0.0,0.0,-1.0
80269372,80269257,-0.028670281,0.083480954,0.15878916,0.3405702,0.0,0.0,0.0,-1.0
80272563,80272454,-0.06582408,0.09410409,0.15502955,0.34059083,0.0,0.0,0.0,-1.0
80276566,80276455,-0.066413894,-0.006132442,0.16825119,0.34059083,0.0,0.0,0.0,-1.0
80279758,80279655,-0.035658397,0.0621022,0.16304222,0.34058613,0.0,0.0,0.0,-1.0
80283764,80283655,-0.09407768,0.08391406,0.102936074,0.3541579,0.0,0.0,0.0,-1.0
80285369,80285260,-0.10048835,0.0070380745,0.10966511,0.3541579,0.0,0.0,0.0,-1.0
80289365,80289256,-0.025001673,0.026546586,0.10697903,0.3541579,0.0,0.0,0.0,-1.0
80293372,80293258,-0.07771494,0.07844302,0.1012964,0.354212,0.0,0.0,0.0,-1.0
80297380,80297256,-0.06291432,-0.04109291,0.05225071,0.36540067,0.0,0.0,0.0,-1.0
80300559,80300456,0.0073548066,0.011391292,0.049337607,0.36543953,0.0,0.0,0.0,-1.0
80303756,80303654,-0.029269801,0.043631468,0.05513127,0.36543953,0.0,0.0,0.0,-1.0
80308595,80308485,-0.01761677,-0.04172599,0.06959813,0.36543953,0.0,0.0,0.0,-1.0
80310965,80310854,0.01372211,0.01937113,0.06519438,0.36545372,0.0,0.0,0.0,-1.0
80313364,80313256,0.011596996,0.024409093,0.065116085,0.36545372,0.0,0.0,0.0,-1.0
80317418,80317263,-0.031661708,-0.050021607,0.080560744,0.36545372,0.0,0.0,0.0,-1.0
80321370,80321262,0.06531712,-0.031421352,0.06350453,0.3639904,0.0,0.0,0.0,-1.0
80325378,80325254,-8.213624e-05,-0.030184416,0.074268386,0.3639904,0.0,0.0,0.0,-1.0
80328580,80328457,-0.026204215,-0.04529748,0.073361754,0.3639904,0.0,0.0,0.0,-1.0
80332560,80332458,0.0637764,-0.0408917,0.077447355,0.36398837,0.0,0.0,0.0,-1.0
80335763,80335654,0.011539353,-0.04799932,0.08009591,0.36398837,0.0,0.0,0.0,-1.0
80339780,80339678,-0.030932836,-0.058739536,0.090685904,0.36153904,0.0,0.0,0.0,-1.0
80341362,80341254,0.01646893,-0.043320253,0.09113883,0.36153904,0.0,0.0,0.0,-1.0
80345431,80345265,0.01034842,-0.010099178,0.079408176,0.36153904,0.0,0.0,0.0,-1.0
80349372,80349256,-0.059712656,-0.041053023,0.0848639,0.36153904,0.0,0.0,0.0,-1.0
80353376,80353261,0.027263543,-0.0337024,0.095196016,0.36159936,0.0,0.0,0.0,-1.0
80356569,80356456,-0.029364564,-0.007856687,0.09200645,0.36159936,0.0,0.0,0.0,-1.0
80359763,80359654,-0.089926735,-0.015732482,0.08827939,0.36158183,0.0,0.0,0.0,-1.0
80363773,80363658,-0.0077296672,0.0013558634,0.09571479,0.36064607,0.0,0.0,0.0,-1.0
80366972,80366854,-0.012084988,-0.0050752056,0.09276576,0.36064607,0.0,0.0,0.0,-1.0
80371767,80371665,-0.097617984,-0.0034566044,0.09771416,0.36059725,0.0,0.0,0.0,-1.0
80373365,80373257,-0.03634256,0.014219678,0.09487759,0.36059725,0.0,0.0,0.0,-1.0
80377375,80377257,-0.0029044887,0.02995705,0.087719485,0.36059725,0.0,0.0,0.0,-1.0
80381393,80381280,-0.08197397,-0.0069857505,0.08582428,0.3605675,0.0,0.0,0.0,-1.0
80384565,80384463,-0.025264956,0.013276137,0.09508102,0.36069262,0.0,0.0,0.0,-1.0
80387776,80387655,0.012872524,0.035680015,0.09454962,0.36069262,0.0,0.0,0.0,-1.0
80391785,80391683,-0.084642544,0.01479775,0.079419345,0.36065778,0.0,0.0,0.0,-1.0
80395764,80395655,-0.0048218397,0.013135823,0.0870719,0.36065778,0.0,0.0,0.0,-1.0
80398241,80398069,0.015484527,0.014452906,0.095500804,0.36065778,0.0,0.0,0.0,-1.0
80402243,80402134,-0.07791262,-0.0044867382,0.085798964,0.360687,0.0,0.0,0.0,-1.0
80405376,80405274,-0.02914261,0.005912846,0.08274568,0.36125743,0.0,0.0,0.0,-1.0
80409392,80409260,0.029899048,-0.0022505498,0.08549852,0.36125743,0.0,0.0,0.0,-1.0
80412581,80412473,-0.05770977,-0.017531022,0.08497862,0.36126503,0.0,0.0,0.0,-1.0
80417365,80417255,-0.002777044,0.003973108,0.08601187,0.36126503,0.0,0.0,0.0,-1.0
80419768,80419657,0.014375147,0.0025616142,0.08620759,0.36126503,0.0,0.0,0.0,-1.0
80422163,80422054,-0.015486926,-0.014548865,0.07747079,0.36108595,0.0,0.0,0.0,-1.0
80426159,80426057,-0.05322384,-0.017103761,0.08101443,0.36108595,0.0,0.0,0.0,-1.0
80430156,80430054,0.0038047724,0.0019244443,0.0934994,0.36109638,0.0,0.0,0.0,-1.0
80433389,80433285,-0.02255867,-0.009047607,0.08056063,0.36109638,0.0,0.0,0.0,-1.0
80437369,80437254,-0.039266508,-0.009484298,0.07758993,0.36109638,0.0,0.0,0.0,-1.0
80440557,80440455,0.00638803,-0.0049879714,0.09252475,0.36109075,0.0,0.0,0.0,-1.0
80443790,80443678,-0.025209036,-0.011875043,0.094190925,0.36109075,0.0,0.0,0.0,-1.0
80449367,80449255,-0.037170723,0.0077975234,0.08018092,0.36092192,0.0,0.0,0.0,-1.0
80450178,80450057,-0.017832275,0.004521983,0.08374052,0.36092192,0.0,0.0,0.0,-1.0
80454190,80454088,-0.018575968,-0.021380484,0.08844116,0.3608633,0.0,0.0,0.0,-1.0
80458209,80458061,-0.08393591,-0.0076351888,0.08058594,0.3608633,0.0,0.0,0.0,-1.0
80461372,80461256,-0.03689113,0.006553077,0.08431498,0.3608319,0.0,0.0,0.0,-1.0
80465387,80465256,-0.019059574,-0.014118798,0.0789224,0.3608319,0.0,0.0,0.0,-1.0
80468567,80468456,-0.07165977,-0.01390327,0.07643976,0.3608319,0.0,0.0,0.0,-1.0
80473363,80473255,-0.042222835,-0.001707014,0.08790508,0.36115187,0.0,0.0,0.0,-1.0
80475768,80475654,-0.03556237,-0.009200266,0.08637025,0.36115187,0.0,0.0,0.0,-1.0
80478212,80478063,-0.047161322,-0.011171907,0.07312368,0.36115187,0.0,0.0,0.0,-1.0
80482171,80482069,-0.05246769,-0.0050779693,0.07235595,0.3611418,0.0,0.0,0.0,-1.0
80486212,80486106,-0.04103083,-0.023705877,0.08563586,0.3609482,0.0,0.0,0.0,-1.0
80489372,80489261,-0.045306258,-0.013103745,0.0728909,0.3609482,0.0,0.0,0.0,-1.0
80493379,80493257,-0.06089262,0.0050567496,0.06440947,0.36093295,0.0,0.0,0.0,-1.0
80497363,80497255,-0.03236831,-0.02470579,0.0748961,0.36093295,0.0,0.0,0.0,-1.0
80500577,80500461,-0.03401112,-0.01619615,0.07404713,0.36087805,0.0,0.0,0.0,-1.0
80504576,80504455,-0.047569945,0.0006126567,0.06362912,0.36087805,0.0,0.0,0.0,-1.0
80506195,80506085,-0.04433619,-0.009423007,0.06539153,0.36087805,0.0,0.0,0.0,-1.0
80510156,80510054,-0.0056588976,-0.03615654,0.06297767,0.3603643,0.0,0.0,0.0,-1.0
80514156,80514054,-0.04001414,-0.0114888195,0.060840234,0.3603643,0.0,0.0,0.0,-1.0
80517418,80517272,-0.03800828,-0.022069678,0.06270692,0.3603643,0.0,0.0,0.0,-1.0
80521373,80521256,-0.011320547,-0.04064832,0.059719417,0.36033708,0.0,0.0,0.0,-1.0
80524559,80524457,0.009441243,-0.0257712,0.057779234,0.36033708,0.0,0.0,0.0,-1.0
80529363,80529255,-0.05967805,-0.033228572,0.06467489,0.36033708,0.0,0.0,0.0,-1.0
80531765,80531654,-0.02205411,-0.036739,0.06768894,0.36037636,0.0,0.0,0.0,-1.0
80534156,80534054,0.014227106,-0.019541716,0.058493424,0.3602396,0.0,0.0,0.0,-1.0
80538159,80538056,-0.030120501,-0.0132431025,0.054210845,0.3602396,0.0,0.0,0.0,-1.0
80542156,80542054,-0.053057365,-0.025497625,0.06316409,0.3602362,0.0,0.0,0.0,-1.0
80545365,80545255,0.017214242,-0.00066270394,0.060811706,0.3602362,0.0,0.0,0.0,-1.0
80549381,80549262,-0.023363104,0.009945497,0.051731963,0.3602362,0.0,0.0,0.0,-1.0
80553430,80553325,-0.05338097,-0.014926403,0.055911314,0.36024308,0.0,0.0,0.0,-1.0
80555810,80555665,-0.019260963,-0.0016279521,0.057934407,0.36024308,0.0,0.0,0.0,-1.0
80559756,80559654,-0.014435064,0.00799734,0.05415773,0.36024308,0.0,0.0,0.0,-1.0
80562160,80562057,-0.0956831,0.002550304,0.04786415,0.36020824,0.0,0.0,0.0,-1.0
80566209,80566063,-0.047864217,0.007702325,0.04667438,0.36020824,0.0,0.0,0.0,-1.0
80570205,80570094,-0.034032326,0.02027504,0.05107941,0.36023465,0.0,0.0,0.0,-1.0
80573371,80573268,-0.10910217,-0.0030672401,0.046231914,0.36023465,0.0,0.0,0.0,-1.0
80577371,80577255,-0.06380943,0.008644296,0.04268676,0.36027694,0.0,0.0,0.0,-1.0
80580619,80580460,-0.024831314,0.017771378,0.045567542,0.3602899,0.0,0.0,0.0,-1.0
80582956,80582854,-0.089452714,0.006538563,0.045100093,0.3602899,0.0,0.0,0.0,-1.0
80587005,80586903,-0.095293835,-0.011156071,0.04041894,0.3602899,0.0,0.0,0.0,-1.0
80590958,80590854,-0.0063168863,0.0023789476,0.040742673,0.36029738,0.0,0.0,0.0,-1.0
80594158,80594054,-0.062419847,-0.008274779,0.041512858,0.36029738,0.0,0.0,0.0,-1.0
80598215,80598069,-0.09848813,-0.0202568,0.03383402,0.36064544,0.0,0.0,0.0,-1.0
80602157,80602055,0.018716263,-0.019407433,0.04084131,0.36069253,0.0,0.0,0.0,-1.0
80605408,80605296,-0.026112488,-0.019254582,0.040422786,0.36069253,0.0,0.0,0.0,-1.0
80609371,80609255,-0.086225316,-0.016322471,0.03200533,0.36069253,0.0,0.0,0.0,-1.0
80610959,80610856,-0.033998255,-0.02012659,0.03345364,0.36064368,0.0,0.0,0.0,-1.0
80614956,80614854,0.032453127,-0.03950654,0.04398421,0.36144543,0.0,0.0,0.0,-1.0
80619010,80618863,-0.047645696,-0.033917986,0.030969849,0.36144543,0.0,0.0,0.0,-1.0
80622160,80622057,-0.023277562,-0.027371991,0.029700302,0.36143395,0.0,0.0,0.0,-1.0
80626161,80626059,0.025635775,-0.041918147,0.044040985,0.36143395,0.0,0.0,0.0,-1.0
80629365,80629257,-0.019264016,-0.046232026,0.042546775,0.36143395,0.0,0.0,0.0,-1.0
80633384,80633255,-0.045085236,-0.020120777,0.029978884,0.3613642,0.0,0.0,0.0,-1.0
80636603,80636460,-0.019177677,-0.03346098,0.036196727,0.3613642,0.0,0.0,0.0,-1.0
80638956,80638854,-0.027452666,-0.054489885,0.04256485,0.36261407,0.0,0.0,0.0,-1.0
80642956,80642854,-0.047001213,-0.043651994,0.03221455,0.36266437,0.0,0.0,0.0,-1.0
80646956,80646854,-0.054768246,-0.03382917,0.026712848,0.36266437,0.0,0.0,0.0,-1.0
80650159,80650055,-0.05487389,-0.052001987,0.030921929,0.36273548,0.0,0.0,0.0,-1.0
80654195,80654093,-0.049363755,-0.0512551,0.029882284,0.36273548,0.0,0.0,0.0,-1.0
80657370,80657266,-0.056745093,-0.03869687,0.02472327,0.36273548,0.0,0.0,0.0,-1.0
80661379,80661256,-0.0946995,-0.034746304,0.026182616,0.3627446,0.0,0.0,0.0,-1.0
80665370,80665258,-0.04983088,-0.03856336,0.026760694,0.3667976,0.0,0.0,0.0,-1.0
80667003,80666861,-0.05040278,-0.034795746,0.024043975,0.3667976,0.0,0.0,0.0,-1.0
80671012,80670906,-0.0836441,-0.036474597,0.026020387,0.36677584,0.0,0.0,0.0,-1.0
80674956,80674854,-0.07153934,-0.017142214,0.02158114,0.36677584,0.0,0.0,0.0,-1.0
80678220,80678063,-0.028138595,-0.007204324,0.02330506,0.37518364,0.0,0.0,0.0,-1.0
80682163,80682054,-0.075306974,-0.019224616,0.025325604,0.3752063,0.0,0.0,0.0,-1.0
80685367,80685258,-0.09349467,-0.0075252573,0.029071543,0.3752063,0.0,0.0,0.0,-1.0
80690159,80690056,-0.0018078303,0.004175103,0.021682529,0.375259,0.0,0.0,0.0,-1.0
80692606,80692459,-0.043764085,-0.010808982,0.022338007,0.375259,0.0,0.0,0.0,-1.0
80695038,80694863,-0.077915005,-0.011661437,0.02347912,0.375259,0.0,0.0,0.0,-1.0
80698967,80698863,-0.022891162,0.006866971,0.023527041,0.375259,0.0,0.0,0.0,-1.0
80702963,80702854,0.02718251,0.011465698,0.022396352,0.38369808,0.0,0.0,0.0,-1.0
80706160,80706057,-0.03391063,-0.00796284,0.019111056,0.38369808,0.0,0.0,0.0,-1.0
80710163,80710054,-0.009433013,0.0023484547,0.024631638,0.38370112,0.0,0.0,0.0,-1.0
80713371,80713255,0.045867432,0.015791183,0.02388,0.38370112,0.0,0.0,0.0,-1.0
80717432,80717266,-0.0012640245,9.5892334e-05,0.019659761,0.38370112,0.0,0.0,0.0,-1.0
80722175,80722069,0.0071677472,0.0013979914,0.020343807,0.38372114,0.0,0.0,0.0,-1.0
80723009,80722863,0.021124778,0.005961011,0.023162058,0.38372114,0.0,0.0,0.0,-1.0
80727769,80727657,0.0025846912,0.002122305,0.020703228,0.3879225,0.0,0.0,0.0,-1.0
80730966,80730855,-0.015229236,-0.011324458,0.014935187,0.38797262,0.0,0.0,0.0,-1.0
80734998,80734892,0.005438307,-0.0063818353,0.025209602,0.38797262,0.0,0.0,0.0,-1.0
80738212,80738109,-0.0037350592,-0.014600953,0.03134211,0.38797262,0.0,0.0,0.0,-1.0
80741373,80741246,-0.02606565,-0.008732054,0.022857726,0.3880137,0.0,0.0,0.0,-1.0
80746957,80746855,-0.017058592,-0.027355945,0.028773505,0.38927543,0.0,0.0,0.0,-1.0
80747770,80747656,-0.026906826,-0.029705541,0.032220602,0.38927543,0.0,0.0,0.0,-1.0
80751765,80751654,-0.03778087,-0.032842953,0.02681992,0.38925293,0.0,0.0,0.0,-1.0
80755840,80755678,-0.023360642,-0.03600998,0.016067611,0.38925293,0.0,0.0,0.0,-1.0
80758959,80758857,-0.028385574,-0.04120596,0.027085435,0.38925293,0.0,0.0,0.0,-1.0
80762168,80762057,-0.04216182,-0.034757234,0.033339478,0.38926786,0.0,0.0,0.0,-1.0
80766278,80766100,-0.014407585,-0.021205332,0.017002344,0.38926786,0.0,0.0,0.0,-1.0
80771812,80771696,-0.031220982,-0.03696319,0.028205013,0.39096498,0.0,0.0,0.0,-1.0
80773385,80773256,-0.031672042,-0.032432225,0.030288482,0.39096498,0.0,0.0,0.0,-1.0
80775828,80775664,-0.014988347,-0.02122278,0.021924572,0.39096498,0.0,0.0,0.0,-1.0
80779763,80779657,-0.011894565,-0.011473388,0.00961415,0.39101374,0.0,0.0,0.0,-1.0
80783756,80783654,-0.04471896,-0.018574553,0.025262896,0.39101374,0.0,0.0,0.0,-1.0
80786993,80786882,-0.027995193,-0.005904961,0.02719774,0.39101374,0.0,0.0,0.0,-1.0
80790166,80790064,-0.005410273,0.0042793527,0.015443166,0.39102742,0.0,0.0,0.0,-1.0
80794957,80794855,-0.052528255,-0.0019661924,0.021105345,0.3941319,0.0,0.0,0.0,-1.0
80798210,80798064,-0.05394315,0.0015097972,0.027626896,0.3941319,0.0,0.0,0.0,-1.0
80801380,80801256,-0.008226733,-0.005413635,0.019764934,0.3941099,0.0,0.0,0.0,-1.0
80803763,80803654,-0.028693108,0.0059591746,0.013784798,0.3941099,0.0,0.0,0.0,-1.0
80807795,80807683,-0.06482487,0.00014630043,0.024115324,0.3941099,0.0,0.0,0.0,-1.0
80811756,80811654,-0.0043463465,-0.0076476885,0.021679139,0.39408526,0.0,0.0,0.0,-1.0
80814959,80814856,-0.015175449,-0.017350884,0.017004225,0.39728788,0.0,0.0,0.0,-1.0
80818987,80818876,-0.0707092,-0.016622746,0.018859124,0.39728788,0.0,0.0,0.0,-1.0
80822205,80822103,-0.020413319,-0.020128867,0.025143804,0.3972653,0.0,0.0,0.0,-1.0
80826165,80826062,0.004812369,-0.02475264,0.01943579,0.3972653,0.0,0.0,0.0,-1.0
80829388,80829257,-0.056515634,-0.023772707,0.020420987,0.3972653,0.0,0.0,0.0,-1.0
80831759,80831657,-0.062171396,-0.024088498,0.020501124,0.4023263,0.0,0.0,0.0,-1.0
80835834,80835676,0.009229891,-0.02785969,0.024708582,0.4023263,0.0,0.0,0.0,-1.0
80839769,80839654,-0.04930163,-0.040265005,0.021280756,0.40223348,0.0,0.0,0.0,-1.0
80842980,80842864,-0.06926421,-0.023002718,0.021815103,0.40223348,0.0,0.0,0.0,-1.0
80846160,80846054,0.0047096643,-0.027648646,0.023226378,0.40223348,0.0,0.0,0.0,-1.0
80850974,80850856,-0.04000941,-0.035194717,0.024833808,0.40219197,0.0,0.0,0.0,-1.0
80853371,80853254,-0.06837129,-0.02533509,0.024034869,0.40219197,0.0,0.0,0.0,-1.0
80858157,80858055,0.0059851073,-0.024820983,0.021705309,0.41057163,0.0,0.0,0.0,-1.0
80859777,80859675,0.01992235,-0.028393833,0.022414612,0.41056636,0.0,0.0,0.0,-1.0
80863756,80863654,-0.06869045,-0.03645625,0.02296072,0.41056636,0.0,0.0,0.0,-1.0
80867766,80867654,-0.043107614,-0.015303964,0.018585939,0.41056636,0.0,0.0,0.0,-1.0
80870956,80870854,0.04564701,-0.01405006,0.018277422,0.4105491,0.0,0.0,0.0,-1.0
80875767,80875665,-0.061883118,-0.02466225,0.022238305,0.4105491,0.0,0.0,0.0,-1.0
80878957,80878855,-0.048123837,-0.01002264,0.022881417,0.4105491,0.0,0.0,0.0,-1.0
80880577,80880475,0.011758871,0.0005694824,0.019742934,0.4187911,0.0,0.0,0.0,-1.0
80885373,80885254,0.0016884505,-0.020421557,0.019868955,0.4187911,0.0,0.0,0.0,-1.0
80887773,80887662,-0.049556766,-0.015247417,0.019695863,0.4187911,0.0,0.0,0.0,-1.0
80891758,80891654,0.008831108,0.012943225,0.019562826,0.41872504,0.0,0.0,0.0,-1.0
