timestamp,timestamp_sample,control[0],control[1],control[2],control[3],control[4],control[5],control[6],control[7]
30373585,30373484,-0.11410458,0.1513594,-0.022289444,0.0,0.0,0.0,0.0,-1.0
30375221,30375063,-0.12136955,0.15838583,-0.029710028,0.0,0.0,0.0,0.0,-1.0
30505563,30505455,-0.13230208,0.16693239,-0.023139384,0.0,0.0,0.0,0.0,-1.0
30509571,30509470,-0.1258583,0.15690568,-0.036100302,0.0,0.0,0.0,0.0,-1.0
30512765,30512655,-0.109764636,0.16557625,-0.029829735,0.0,0.0,0.0,0.0,-1.0
30515208,30515107,-0.13226633,0.17344406,-0.015086814,0.0,0.0,0.0,0.0,-1.0
30520019,30519862,-0.16006693,0.16940685,-0.0049130986,0.0,0.0,0.0,0.0,-1.0
30522377,30522257,-0.1519428,0.1671279,0.0031494824,0.0,0.0,0.0,0.0,-1.0
30526372,30526259,-0.10138797,0.17129485,0.003051797,0.0,0.0,0.0,0.0,-1.0
30530376,30530255,-0.12913562,0.16718306,-0.015927888,0.0,0.0,0.0,0.0,-1.0
30533557,30533456,-0.13790232,0.15636759,-0.030824257,0.0,0.0,0.0,0.0,-1.0
30537563,30537462,-0.11625861,0.16520783,-0.024922447,0.0,0.0,0.0,0.0,-1.0
30541557,30541456,-0.1458809,0.17876786,-0.008007586,4.997524e-29,0.0,0.0,0.0,-1.0
30543955,30543855,-0.15932137,0.1725688,-0.0056194644,4.997524e-29,0.0,0.0,0.0,-1.0
30547966,30547855,-0.14140318,0.1639447,-0.0036691844,4.997524e-29,0.0,0.0,0.0,-1.0
30550367,30550256,-0.107590914,0.1647866,0.0025448664,4.997524e-29,0.0,0.0,0.0,-1.0
30554362,30554255,-0.11927314,0.17384519,-0.00877046,5.0803697e-29,0.0,0.0,0.0,-1.0
30558369,30558257,-0.13473384,0.154694,-0.025190085,5.0803697e-29,0.0,0.0,0.0,-1.0
30561587,30561464,-0.11644318,0.15152226,-0.025100736,5.0803697e-29,0.0,0.0,0.0,-1.0
30565587,30565486,-0.13851221,0.1780474,-0.01082116,5.0803697e-29,0.0,0.0,0.0,-1.0
30568765,30568655,-0.16800731,0.18388772,-0.0014519412,5.0803697e-29,0.0,0.0,0.0,-1.0
30571957,30571855,-0.14374386,0.16491836,-0.0017467125,5.0803697e-29,0.0,0.0,0.0,-1.0
30575975,30575855,-0.106795564,0.16224423,0.0015915879,5.0803697e-29,0.0,0.0,0.0,-1.0
30578362,30578255,-0.10639056,0.17457144,0.0022452092,0.0018280718,0.0,0.0,0.0,-1.0
30582447,30582290,-0.13921534,0.16712329,-0.018147405,0.0018280718,0.0,0.0,0.0,-1.0
30586365,30586257,-0.11437425,0.15015027,-0.023109687,0.0018280718,0.0,0.0,0.0,-1.0
30589564,30589456,-0.1221698,0.16919757,-0.014091746,0.0018280718,0.0,0.0,0.0,-1.0
30593571,30593464,-0.1653511,0.18773216,-0.004881684,0.0018280718,0.0,0.0,0.0,-1.0
30598378,30598266,-0.1143403,0.14957006,-0.0010656314,0.009267461,0.0,0.0,0.0,-1.0
30600011,30599864,-0.10619861,0.15558326,-0.0042271167,0.009267461,0.0,0.0,0.0,-1.0
30603975,30603864,-0.121048026,0.17820786,-0.005979126,0.009267461,0.0,0.0,0.0,-1.0
30606373,30606257,-0.13795993,0.17376164,-0.015136707,0.009267461,0.0,0.0,0.0,-1.0
30610371,30610257,-0.11253336,0.13924001,-0.025157854,0.009267461,0.0,0.0,0.0,-1.0
30614367,30614256,-0.12232895,0.17143492,-0.008975499,0.009267461,0.0,0.0,0.0,-1.0
30617558,30617457,-0.16273782,0.18852176,-0.0016582758,0.009267461,0.0,0.0,0.0,-1.0
30622397,30622290,-0.1138925,0.14117076,0.00026256288,0.021712946,0.0,0.0,0.0,-1.0
30624765,30624655,-0.08109399,0.13889706,0.0032574025,0.021712946,0.0,0.0,0.0,-1.0
30627956,30627855,-0.088539384,0.16404016,0.000950753,0.021712946,0.0,0.0,0.0,-1.0
30631966,30631855,-0.12543517,0.15596776,-0.012499711,0.021712946,0.0,0.0,0.0,-1.0
30635209,30635063,-0.11015446,0.13769238,-0.013564641,0.021712946,0.0,0.0,0.0,-1.0
30637559,30637457,-0.100222565,0.13780583,-0.012485595,0.021712946,0.0,0.0,0.0,-1.0
30641560,30641459,-0.1322473,0.16190174,-0.0077830837,0.021712946,0.0,0.0,0.0,-1.0
30645560,30645456,-0.112429924,0.13036437,-0.006268019,0.034361117,0.0,0.0,0.0,-1.0
30649583,30649472,-0.060421865,0.11359022,-0.0068472424,0.034361117,0.0,0.0,0.0,-1.0
30653597,30653490,-0.08836008,0.1327058,-0.011586495,0.034361117,0.0,0.0,0.0,-1.0
30655962,30655855,-0.10297058,0.12681979,-0.011466556,0.034361117,0.0,0.0,0.0,-1.0
30660053,30659872,-0.07827101,0.09141322,-0.008418555,0.04500707,0.0,0.0,0.0,-1.0
30663222,30663116,-0.06830048,0.101431824,-0.007061523,0.04500707,0.0,0.0,0.0,-1.0
30665559,30665455,-0.066513844,0.10116242,-0.0077019,0.04500707,0.0,0.0,0.0,-1.0
30669560,30669456,-0.085881986,0.096855044,-0.010315937,0.04500707,0.0,0.0,0.0,-1.0
30673608,30673495,-0.056937546,0.05873189,-0.011719079,0.04500707,0.0,0.0,0.0,-1.0
30677572,30677463,-0.036020372,0.06981891,0.008909626,0.04500707,0.0,0.0,0.0,-1.0
30680772,30680655,-0.028783672,0.048278444,0.01063776,0.04500707,0.0,0.0,0.0,-1.0
30683955,30683855,-0.0038263574,0.004269894,0.0050138053,0.053776614,0.0,0.0,0.0,-1.0
30687974,30687855,-0.011576348,0.014217918,-0.000260583,0.053776614,0.0,0.0,0.0,-1.0
30691163,30691055,-0.066851616,0.048650257,-0.0059962575,0.053776614,0.0,0.0,0.0,-1.0
30693569,30693456,-0.06253648,0.020911548,-0.002289953,0.053776614,0.0,0.0,0.0,-1.0
30697562,30697455,0.042218506,-0.04629275,-0.0029293257,0.053776614,0.0,0.0,0.0,-1.0
30701564,30701456,0.039667435,-0.0324974,0.016477725,0.062244844,0.0,0.0,0.0,-1.0
30705596,30705495,-0.0024110153,-0.0363806,0.01127226,0.062244844,0.0,0.0,0.0,-1.0
30709557,30709456,0.012497113,-0.082293816,0.020005565,0.062244844,0.0,0.0,0.0,-1.0
30711963,30711855,0.019500948,-0.090758905,0.014972566,0.062244844,0.0,0.0,0.0,-1.0
30716000,30715889,0.011377816,-0.05997681,0.0097262915,0.062244844,0.0,0.0,0.0,-1.0
30719173,30719057,-0.01191161,-0.04878293,0.008759339,0.062244844,0.0,0.0,0.0,-1.0
30721609,30721463,-0.00963158,-0.08643462,0.017016727,0.062244844,0.0,0.0,0.0,-1.0
30725559,30725456,0.03749883,-0.099694,0.045451876,0.072066,0.0,0.0,0.0,-1.0
30729572,30729463,0.03416606,-0.096815825,0.052122332,0.072066,0.0,0.0,0.0,-1.0
30733612,30733511,-0.018486336,-0.07751593,0.04572909,0.072066,0.0,0.0,0.0,-1.0
30736799,30736689,-0.043962874,-0.07175911,0.046706468,0.072066,0.0,0.0,0.0,-1.0
30739963,30739855,-0.028939273,-0.08772356,0.062814884,0.072066,0.0,0.0,0.0,-1.0
30744076,30743915,0.0403711,-0.11723006,0.066746734,0.0820805,0.0,0.0,0.0,-1.0
30747257,30747154,0.02577147,-0.104247846,0.05716307,0.0820805,0.0,0.0,0.0,-1.0
30749557,30749456,-0.031657778,-0.08507124,0.07240463,0.0820805,0.0,0.0,0.0,-1.0
30753563,30753455,-0.062323872,-0.0697889,0.078557335,0.0820805,0.0,0.0,0.0,-1.0
30757597,30757490,0.012494559,-0.102513485,0.077580675,0.0820805,0.0,0.0,0.0,-1.0
30761616,30761470,0.033679593,-0.097683154,0.08615794,0.0820805,0.0,0.0,0.0,-1.0
30764783,30764673,-0.027029008,-0.074296415,0.08316664,0.09098747,0.0,0.0,0.0,-1.0
30767990,30767889,-0.08950608,-0.047606643,0.072848074,0.09098747,0.0,0.0,0.0,-1.0
30771966,30771855,-0.030809643,-0.06555527,0.050383817,0.09098747,0.0,0.0,0.0,-1.0
30775162,30775061,0.06571734,-0.09413994,0.058066014,0.09098747,0.0,0.0,0.0,-1.0
30778396,30778289,0.02965348,-0.0756724,0.07186494,0.09098747,0.0,0.0,0.0,-1.0
30782426,30782278,-0.050606623,-0.042065453,0.061448928,0.09098747,0.0,0.0,0.0,-1.0
30784857,30784682,-0.078198574,-0.02373581,0.014063179,0.09871609,0.0,0.0,0.0,-1.0
30788799,30788689,0.02426325,-0.045966886,-0.012598928,0.09871609,0.0,0.0,0.0,-1.0
30792765,30792655,0.038632408,-0.024663003,0.02469567,0.09871609,0.0,0.0,0.0,-1.0
30795975,30795873,-0.02165016,-0.005523636,0.021138102,0.1561524,0.0,0.0,0.0,-1.0
30800033,30799867,-0.017217297,0.0012551108,1.0370709,0.1561524,0.0,0.0,0.0,-1.0
30803157,30803055,0.023119781,-0.0052972357,1.0650976,0.1561524,0.0,0.0,0.0,-1.0
30807162,30807058,0.003698148,0.022118205,1.0913053,0.16124077,0.0,0.0,0.0,-1.0
30810370,30810255,-0.02372854,-0.00095562264,1.0776956,0.16124077,0.0,0.0,0.0,-1.0
30812777,30812655,-0.019097954,-0.0012147354,1.0357649,0.16124077,0.0,0.0,0.0,-1.0
30816772,30816657,0.020306518,0.00064188614,0.9855152,0.16124077,0.0,0.0,0.0,-1.0
30822369,30822259,-0.024407296,0.013333779,0.98928356,0.16124077,0.0,0.0,0.0,-1.0
30824020,30823873,-0.039392505,0.018735541,0.8898494,0.16124077,0.0,0.0,0.0,-1.0
30827975,30827855,0.017807182,-0.007325058,0.80034566,0.1670304,0.0,0.0,0.0,-1.0
30831221,30831119,0.020153232,0.016924167,0.8491994,0.1670304,0.0,0.0,0.0,-1.0
30834394,30834292,-0.02812318,0.024051024,0.90844554,0.1670304,0.0,0.0,0.0,-1.0
30838380,30838257,-0.0025406491,-0.0018389481,0.8674784,0.1670304,0.0,0.0,0.0,-1.0
30840873,30840709,0.027063025,0.013503504,0.8077612,0.1670304,0.0,0.0,0.0,-1.0
30846373,30846256,-0.0151410885,0.03082877,0.90370303,0.1670304,0.0,0.0,0.0,-1.0
30848766,30848655,-0.0013973457,0.030719979,0.82673746,0.1670304,0.0,0.0,0.0,-1.0
30851957,30851855,0.030402863,0.007778605,0.7853569,0.17423742,0.0,0.0,0.0,-1.0
30855971,30855855,-0.014561048,0.033089407,0.7820238,0.17423742,0.0,0.0,0.0,-1.0
30859161,30859055,-0.0198271,0.02185042,0.7642735,0.17423742,0.0,0.0,0.0,-1.0
30862440,30862270,0.018901853,0.012803852,0.8600193,0.17423742,0.0,0.0,0.0,-1.0
30866365,30866255,-0.022370053,0.02558784,0.841983,0.17423742,0.0,0.0,0.0,-1.0
30868772,30868660,-0.051255938,0.013812302,0.75151986,0.17423742,0.0,0.0,0.0,-1.0
30872766,30872655,0.010717906,0.011751273,0.720271,0.18027964,0.0,0.0,0.0,-1.0
30876766,30876655,-0.048514582,0.057808053,0.72683626,0.18027964,0.0,0.0,0.0,-1.0
30880009,30879863,-0.05819426,0.021249376,0.6913388,0.18027964,0.0,0.0,0.0,-1.0
30883986,30883864,0.013920527,0.010253404,0.7023268,0.18027964,0.0,0.0,0.0,-1.0
30887164,30887055,-0.060301952,0.06407277,0.66839355,0.18027964,0.0,0.0,0.0,-1.0
30890372,30890258,-0.06480919,0.035204977,0.7103783,0.18027964,0.0,0.0,0.0,-1.0
30894370,30894260,-0.0039400887,0.020434255,0.71910715,0.18335752,0.0,0.0,0.0,-1.0
30896766,30896655,-0.04458306,0.032604203,0.6450302,0.18335752,0.0,0.0,0.0,-1.0
30902364,30902256,-0.027230544,0.010543445,0.67172027,0.18335752,0.0,0.0,0.0,-1.0
30903966,30903864,-0.027087713,0.019364996,0.6492649,0.18335752,0.0,0.0,0.0,-1.0
30907957,30907855,-0.08744277,0.030444749,0.612116,0.18335752,0.0,0.0,0.0,-1.0
30911975,30911855,-0.001288718,-0.030121319,0.6123099,0.18335752,0.0,0.0,0.0,-1.0
30915218,30915116,0.013501515,-0.016589385,0.61373234,0.1844399,0.0,0.0,0.0,-1.0
30918372,30918262,-0.037956845,0.0025492627,0.54453665,0.1844399,0.0,0.0,0.0,-1.0
30922372,30922255,-0.004227058,-0.010388175,0.63030374,0.1844399,0.0,0.0,0.0,-1.0
30925564,30925455,0.0004294191,-0.0003693871,0.6293687,0.1844399,0.0,0.0,0.0,-1.0
30929572,30929469,-0.0068974523,-0.02330333,0.5778315,0.1844399,0.0,0.0,0.0,-1.0
30932073,30931929,0.03831718,-0.05032259,0.52740717,0.1856474,0.0,0.0,0.0,-1.0
30936022,30935864,-0.0003892372,0.0071865194,0.50008976,0.1856474,0.0,0.0,0.0,-1.0
30940027,30939863,-0.0011694913,-0.022383103,0.47977108,0.1856474,0.0,0.0,0.0,-1.0
30943160,30943056,0.06374451,-0.053584818,0.5110284,0.1856474,0.0,0.0,0.0,-1.0
30946372,30946255,0.026527606,-0.03466474,0.47016335,0.1856474,0.0,0.0,0.0,-1.0
30952002,30951900,0.00853664,-0.036640372,0.47769958,0.1856474,0.0,0.0,0.0,-1.0
30953567,30953457,-0.0012793975,-0.02426489,0.5327886,0.1856474,0.0,0.0,0.0,-1.0
30957564,30957462,-0.032949667,-0.03480618,0.47516036,0.18813802,0.0,0.0,0.0,-1.0
30960017,30959866,0.0030124302,-0.074807666,0.44365722,0.18813802,0.0,0.0,0.0,-1.0
30963957,30963855,-0.028721765,-0.053531636,0.45044407,0.18813802,0.0,0.0,0.0,-1.0
30967972,30967858,-0.07095692,-0.04175731,0.39505208,0.18813802,0.0,0.0,0.0,-1.0
30971164,30971055,-0.025187926,-0.03323397,0.44889656,0.18813802,0.0,0.0,0.0,-1.0
30976000,30975890,-0.061821796,-0.031816225,0.42161047,0.18813802,0.0,0.0,0.0,-1.0
30978372,30978255,-0.035915915,-0.049254425,0.4199939,0.18813802,0.0,0.0,0.0,-1.0
30981581,30981462,-0.020587362,-0.03465659,0.46343055,0.19079624,0.0,0.0,0.0,-1.0
30985576,30985474,-0.08876501,-0.0072109737,0.41873446,0.19079624,0.0,0.0,0.0,-1.0
30987957,30987855,-0.07491665,-0.009654196,0.37045354,0.19079624,0.0,0.0,0.0,-1.0
30991976,30991870,-0.02343611,-0.011091748,0.37892467,0.19079624,0.0,0.0,0.0,-1.0
30995975,30995855,-0.040824242,-0.015457937,0.29630986,0.19270104,0.0,0.0,0.0,-1.0
30999967,30999856,-0.013310862,0.009407814,0.32191846,0.19270104,0.0,0.0,0.0,-1.0
31002454,31002286,-0.036883708,0.02714705,0.31351423,0.19270104,0.0,0.0,0.0,-1.0
31007962,31007858,-0.019084772,0.0073114894,0.22174758,0.19270104,0.0,0.0,0.0,-1.0
31009564,31009455,-0.01677184,0.0015447927,0.30519408,0.19270104,0.0,0.0,0.0,-1.0
31013573,31013462,-0.039785106,0.012701409,0.2748222,0.19270104,0.0,0.0,0.0,-1.0
31016004,31015900,-0.035584167,0.02126438,0.20609939,0.19270104,0.0,0.0,0.0,-1.0
31020020,31019871,-0.029807301,0.04743416,0.20839956,0.19485871,0.0,0.0,0.0,-1.0
31023968,31023857,-0.01620818,0.013075428,0.13192746,0.19485871,0.0,0.0,0.0,-1.0
31027157,31027055,0.01387489,0.009087098,0.12831385,0.19485871,0.0,0.0,0.0,-1.0
31031960,31031856,-0.0127273295,0.048871413,0.16191441,0.19485871,0.0,0.0,0.0,-1.0
31034477,31034280,-0.008559473,0.037664086,0.15963191,0.19485871,0.0,0.0,0.0,-1.0
31037557,31037455,-0.012026369,0.030703688,0.19352221,0.19485871,0.0,0.0,0.0,-1.0
31041641,31041469,0.0062140143,0.01941716,0.17536736,0.19485871,0.0,0.0,0.0,-1.0
31044764,31044655,0.024402361,0.008937915,0.14195213,0.19768044,0.0,0.0,0.0,-1.0
31047171,31047056,0.000910664,0.029750282,0.101969905,0.19768044,0.0,0.0,0.0,-1.0
31051159,31051057,-0.0030835783,-0.007621237,0.118549526,0.19768044,0.0,0.0,0.0,-1.0
31055181,31055057,0.022868257,-0.0124337915,0.07860664,0.19768044,0.0,0.0,0.0,-1.0
31058375,31058257,0.006046772,-0.011828417,0.059675902,0.19768044,0.0,0.0,0.0,-1.0
31063167,31063056,0.03450741,-0.04846167,0.06309974,0.19985187,0.0,0.0,0.0,-1.0
31065564,31065455,0.0071529057,-0.022222951,0.08083528,0.19985187,0.0,0.0,0.0,-1.0
31069629,31069517,0.008163828,-0.051960923,0.11005668,0.19985187,0.0,0.0,0.0,-1.0
31072766,31072655,0.044662286,-0.049764905,0.11679551,0.19985187,0.0,0.0,0.0,-1.0
31075157,31075055,0.0135557065,-0.03377152,0.10839492,0.19985187,0.0,0.0,0.0,-1.0
31079158,31079056,0.00026447105,-0.063192956,0.16167149,0.19985187,0.0,0.0,0.0,-1.0
31083245,31083136,0.005102365,-0.031770054,0.17512944,0.19985187,0.0,0.0,0.0,-1.0
31087219,31087116,-0.019197876,-0.049494363,0.10929671,0.20038378,0.0,0.0,0.0,-1.0
31090427,31090297,0.0336429,-0.07270864,0.091518685,0.20038378,0.0,0.0,0.0,-1.0
31093570,31093455,0.011493632,-0.02546803,0.060491733,0.20038378,0.0,0.0,0.0,-1.0
31097582,31097480,-0.034863856,-0.016342117,0.05943888,0.20038378,0.0,0.0,0.0,-1.0
31100863,31100712,0.011878797,-0.04973831,0.052449707,0.20038378,0.0,0.0,0.0,-1.0
31103172,31103070,-0.016812388,-0.009701898,-0.012405995,0.20038378,0.0,0.0,0.0,-1.0
31107168,31107055,-0.04415895,0.0010413018,0.013507638,0.20038378,0.0,0.0,0.0,-1.0
31111196,31111090,-0.017923854,-0.0075619216,0.0688287,0.19987309,0.0,0.0,0.0,-1.0
31114379,31114258,-0.063789114,0.022571977,0.07245372,0.19987309,0.0,0.0,0.0,-1.0
31119171,31119056,-0.020902496,-0.013627581,0.11912653,0.19987309,0.0,0.0,0.0,-1.0
31121675,31121509,-0.024663487,0.017942954,0.13253208,0.19987309,0.0,0.0,0.0,-1.0
31125564,31125462,-0.07833299,0.0429354,0.15065423,0.19915716,0.0,0.0,0.0,-1.0
31128772,31128669,0.0016604988,-0.030434437,0.11841698,0.19915716,0.0,0.0,0.0,-1.0
31131157,31131055,0.008907223,-0.0023347149,0.10386482,0.19915716,0.0,0.0,0.0,-1.0
31135165,31135056,-0.08988555,0.057001337,0.04167656,0.19915716,0.0,0.0,0.0,-1.0
31139181,31139079,0.010665068,-0.006435168,0.020696905,0.19915716,0.0,0.0,0.0,-1.0
31143159,31143056,-0.0024075564,0.02930021,-0.054825947,0.19915716,0.0,0.0,0.0,-1.0
31146375,31146257,-0.060666904,0.034350194,-0.06330433,0.19915716,0.0,0.0,0.0,-1.0
31149565,31149463,-0.020435799,0.021713804,-0.020798791,0.19828749,0.0,0.0,0.0,-1.0
31153560,31153458,-0.02707525,0.05097046,-0.008939214,0.19828749,0.0,0.0,0.0,-1.0
31156769,31156667,-0.015025553,0.0013649845,0.030334154,0.19828749,0.0,0.0,0.0,-1.0
31159165,31159056,0.014976177,-0.006921695,0.08487037,0.19828749,0.0,0.0,0.0,-1.0
31163202,31163093,-0.05578032,0.07508142,0.12141855,0.19828749,0.0,0.0,0.0,-1.0
31167235,31167127,0.03981821,-0.027927026,0.14620033,0.19782427,0.0,0.0,0.0,-1.0
31170427,31170303,0.08644856,-0.022512622,0.15638506,0.19782427,0.0,0.0,0.0,-1.0
31175158,31175056,-0.06066666,0.045816213,0.0710589,0.19782427,0.0,0.0,0.0,-1.0
31177567,31177457,-0.004002311,-0.008596638,0.051991932,0.19782427,0.0,0.0,0.0,-1.0
31181592,31181471,0.08755967,-0.041275673,0.0076749697,0.19782427,0.0,0.0,0.0,-1.0
31184772,31184666,-0.04291671,-0.011337492,-0.086055115,0.19852851,0.0,0.0,0.0,-1.0
31187181,31187071,-0.037557323,-0.030209325,-0.087751135,0.19852851,0.0,0.0,0.0,-1.0
31191179,31191075,0.05188822,-0.05001609,-0.061022874,0.19852851,0.0,0.0,0.0,-1.0
31194418,31194301,-0.011832682,-0.042026915,-0.07792708,0.19852851,0.0,0.0,0.0,-1.0
31199962,31199856,-0.0054704607,-0.02271671,0.032112613,0.19852851,0.0,0.0,0.0,-1.0
31202437,31202263,-0.047644973,-0.001737963,0.09326792,0.19852851,0.0,0.0,0.0,-1.0
31205564,31205455,-0.07280244,-0.031669945,0.10773781,0.19852851,0.0,0.0,0.0,-1.0
31209564,31209462,-0.018334927,-0.08287185,0.15001436,0.20000763,0.0,0.0,0.0,-1.0
31212757,31212655,-0.07367486,-0.015863728,0.16407081,0.20000763,0.0,0.0,0.0,-1.0
31215958,31215855,-0.0585605,-0.045629304,0.062736414,0.20000763,0.0,0.0,0.0,-1.0
31220028,31219865,0.013568261,-0.06976467,0.043257512,0.20000763,0.0,0.0,0.0,-1.0
31222378,31222260,-0.05922574,-0.008738471,0.015540706,0.20000763,0.0,0.0,0.0,-1.0
31226375,31226258,-0.11127904,0.003036634,-0.08496782,0.20000763,0.0,0.0,0.0,-1.0
31230382,31230257,0.04696975,-0.08402257,-0.08857322,0.20140347,0.0,0.0,0.0,-1.0
31233557,31233455,-0.06833389,-0.017916363,-0.09639643,0.20140347,0.0,0.0,0.0,-1.0
31237577,31237475,-0.13189463,-0.0011503259,-0.10643091,0.20140347,0.0,0.0,0.0,-1.0
31240771,31240669,0.023702588,-0.055213396,-0.013754062,0.20140347,0.0,0.0,0.0,-1.0
31243957,31243855,-0.018043919,-0.038590893,0.034990095,0.20140347,0.0,0.0,0.0,-1.0
31247976,31247855,-0.09050125,-0.006046295,0.043379787,0.20140347,0.0,0.0,0.0,-1.0
31250389,31250265,-0.012546383,-0.019473262,0.12208298,0.20140347,0.0,0.0,0.0,-1.0
31254382,31254264,0.020280542,-0.044716094,0.14224157,0.2021937,0.0,0.0,0.0,-1.0
31258375,31258257,-0.09319098,-0.014618701,0.056315944,0.2021937,0.0,0.0,0.0,-1.0
31261588,31261462,-0.03547414,-0.0006477516,0.017898994,0.2021937,0.0,0.0,0.0,-1.0
31265564,31265462,0.02916943,-0.01936549,-0.021549333,0.2021937,0.0,0.0,0.0,-1.0
31268764,31268655,-0.032949172,0.0011084946,-0.09364426,0.2021937,0.0,0.0,0.0,-1.0
31271963,31271858,-0.051592376,0.029766086,-0.07795462,0.2021937,0.0,0.0,0.0,-1.0
31275967,31275855,0.012129493,0.0076251226,-0.072403125,0.20249446,0.0,0.0,0.0,-1.0
31279958,31279856,0.009240357,0.012517291,-0.06013711,0.20249446,0.0,0.0,0.0,-1.0
31282438,31282275,-0.0067229066,0.07604812,-0.042578965,0.20249446,0.0,0.0,0.0,-1.0
31286375,31286257,0.02709282,0.049327414,0.03738161,0.20249446,0.0,0.0,0.0,-1.0
31289557,31289455,0.05980561,0.014811003,0.09457487,0.20249446,0.0,0.0,0.0,-1.0
31293564,31293462,0.008285661,0.07902642,0.12596177,0.20249446,0.0,0.0,0.0,-1.0
31296757,31296655,0.052514765,0.068918064,0.12292042,0.20273288,0.0,0.0,0.0,-1.0
31300813,31300663,0.13614285,0.0057261162,0.12844947,0.20273288,0.0,0.0,0.0,-1.0
31303972,31303856,0.036296647,0.06517119,0.033426348,0.20273288,0.0,0.0,0.0,-1.0
31306376,31306259,-0.016941737,0.09804016,-0.00760556,0.20273288,0.0,0.0,0.0,-1.0
31310382,31310258,0.08180406,0.008172324,-0.047691204,0.20273288,0.0,0.0,0.0,-1.0
31314377,31314257,0.02083537,0.0666892,-0.09262414,0.20273288,0.0,0.0,0.0,-1.0
31317557,31317455,-0.014225152,0.076085284,-0.15748256,0.20304415,0.0,0.0,0.0,-1.0
31321646,31321490,0.09411783,-0.015172186,-0.11231789,0.20304415,0.0,0.0,0.0,-1.0
31324757,31324655,0.04057379,0.035055622,-0.06271592,0.20304415,0.0,0.0,0.0,-1.0
31328769,31328656,-0.059462056,0.060577832,-0.026056,0.20304415,0.0,0.0,0.0,-1.0
31331984,31331855,0.054364964,-0.008696028,0.011271272,0.20304415,0.0,0.0,0.0,-1.0
31335227,31335125,0.04523978,0.021069758,0.057039272,0.20304415,0.0,0.0,0.0,-1.0
31337568,31337457,-0.072675176,0.046048928,0.1406618,0.20304415,0.0,0.0,0.0,-1.0
31341611,31341464,-0.0017178925,-0.026080763,0.11075888,0.20339453,0.0,0.0,0.0,-1.0
31345622,31345463,0.037018623,-0.024641853,0.11121078,0.20339453,0.0,0.0,0.0,-1.0
31349563,31349462,-0.1080824,0.021754734,0.046690844,0.20339453,0.0,0.0,0.0,-1.0
31353567,31353456,0.0032106107,-0.060340665,-0.039481714,0.20339453,0.0,0.0,0.0,-1.0
31355979,31355855,0.041097455,-0.06447079,-0.067556754,0.20339453,0.0,0.0,0.0,-1.0
31360792,31360690,-0.12002591,0.025983982,-0.112861186,0.20339453,0.0,0.0,0.0,-1.0
31363206,31363061,-0.051866986,-0.0013103434,-0.09576824,0.20339453,0.0,0.0,0.0,-1.0
31365568,31365455,0.00054713245,-0.051134624,-0.15839067,0.20402715,0.0,0.0,0.0,-1.0
31369568,31369464,-0.091810785,0.00020780927,-0.087414905,0.20402715,0.0,0.0,0.0,-1.0
31381600,31381498,-0.0871926,0.015743252,0.14227442,0.20402715,0.0,0.0,0.0,-1.0
31384765,31384656,-0.078739166,-0.0004498579,0.15765804,0.20402715,0.0,0.0,0.0,-1.0
31387986,31387855,0.021864291,-0.04712223,0.1594103,0.20402715,0.0,0.0,0.0,-1.0
31419354,31419191,0.0003106402,0.016080227,-0.044067606,0.21069306,0.0,0.0,0.0,-1.0
31421568,31421457,0.05001016,0.016339788,0.060744215,0.21069306,0.0,0.0,0.0,-1.0
31425559,31425457,-0.09028908,0.08646276,0.112689316,0.21069306,0.0,0.0,0.0,-1.0
31429569,31429458,0.040426463,0.035168074,0.11140147,0.21482852,0.0,0.0,0.0,-1.0
31433670,31433519,0.034921005,0.042048458,0.08946227,0.21482852,0.0,0.0,0.0,-1.0
31436764,31436655,-0.06129769,0.062121525,0.05450797,0.21482852,0.0,0.0,0.0,-1.0
31440778,31440676,0.07521577,-0.018410962,-0.018945323,0.21482852,0.0,0.0,0.0,-1.0
31444096,31443910,0.09217368,-0.015227512,-0.064226374,0.21482852,0.0,0.0,0.0,-1.0
31447164,31447055,-0.04353005,0.029982518,-0.11003016,0.21482852,0.0,0.0,0.0,-1.0
31449566,31449456,-0.005654782,-0.0166025,-0.14897475,0.21482852,0.0,0.0,0.0,-1.0
31453557,31453455,0.10136957,-0.060128376,-0.1576366,0.21747227,0.0,0.0,0.0,-1.0
31457564,31457455,-0.080828525,-0.0037881031,-0.1180021,0.21747227,0.0,0.0,0.0,-1.0
31461660,31461511,0.037039537,-0.057084657,-0.026041761,0.21747227,0.0,0.0,0.0,-1.0
31464796,31464692,0.09250619,-0.060032725,0.04807903,0.21747227,0.0,0.0,0.0,-1.0
31467987,31467868,-0.040526766,-0.009161182,0.09353657,0.21747227,0.0,0.0,0.0,-1.0
31472769,31472667,0.041552797,-0.06163682,0.1144301,0.21947272,0.0,0.0,0.0,-1.0
31478373,31478261,-0.016585961,-0.025283916,0.02462101,0.21947272,0.0,0.0,0.0,-1.0
31482464,31482291,-0.007199968,-0.030719176,-0.017490223,0.21947272,0.0,0.0,0.0,-1.0
31484757,31484655,0.10231754,-0.061417602,0.0046855025,0.21947272,0.0,0.0,0.0,-1.0
31489615,31489495,-0.043869033,0.009750411,-0.05443047,0.21947272,0.0,0.0,0.0,-1.0
31492792,31492690,-0.009998462,-0.01726711,-0.109152995,0.21947272,0.0,0.0,0.0,-1.0
31496765,31496656,0.0939028,-0.04403989,-0.1243278,0.22096343,0.0,0.0,0.0,-1.0
31500779,31500677,-0.053622518,0.033589933,-0.0945753,0.22096343,0.0,0.0,0.0,-1.0
31503249,31503145,-0.035959527,0.013180228,-0.095990404,0.22096343,0.0,0.0,0.0,-1.0
31506411,31506309,0.071439736,-0.035066877,-0.05378711,0.22096343,0.0,0.0,0.0,-1.0
31510372,31510257,-0.012117719,0.0049883006,0.00668245,0.22096343,0.0,0.0,0.0,-1.0
31512769,31512656,-0.05831403,0.032002408,0.08654786,0.22096343,0.0,0.0,0.0,-1.0
31516800,31516689,0.08019902,-0.03674951,0.12870651,0.22096343,0.0,0.0,0.0,-1.0
31520766,31520656,-0.0015927855,0.0135529945,0.16828786,0.22225077,0.0,0.0,0.0,-1.0
31523972,31523860,-0.05138029,0.026686916,0.099528074,0.22225077,0.0,0.0,0.0,-1.0
31528762,31528656,0.07593795,-0.038988564,0.0132755395,0.22225077,0.0,0.0,0.0,-1.0
31531168,31531062,0.01401533,-0.0062596058,-0.003996117,0.22225077,0.0,0.0,0.0,-1.0
31534455,31534293,-0.041031525,0.0025347935,-0.07433033,0.22412683,0.0,0.0,0.0,-1.0
31538365,31538255,0.0606981,-0.052263606,-0.10113283,0.22412683,0.0,0.0,0.0,-1.0
31540823,31540666,0.03894686,-0.023064869,-0.10727639,0.22412683,0.0,0.0,0.0,-1.0
31544783,31544675,-0.076363996,0.038029235,-0.095901825,0.22412683,0.0,0.0,0.0,-1.0
31548764,31548658,0.050531767,-0.049449034,-0.036763094,0.22412683,0.0,0.0,0.0,-1.0
31552762,31552656,-0.012091172,0.014782013,0.07199715,0.22412683,0.0,0.0,0.0,-1.0
31555977,31555855,-0.0517161,0.046055418,0.09976688,0.22412683,0.0,0.0,0.0,-1.0
31559157,31559055,0.06883303,-0.05508653,0.122335695,0.22640131,0.0,0.0,0.0,-1.0
31562423,31562267,0.048266806,-0.034542102,0.08377038,0.22640131,0.0,0.0,0.0,-1.0
31566363,31566255,-0.038497165,0.025581282,0.07052697,0.22640131,0.0,0.0,0.0,-1.0
31568807,31568690,0.033637527,-0.023844967,0.0823187,0.22640131,0.0,0.0,0.0,-1.0
31572757,31572655,0.07659443,-0.030021507,0.054107748,0.22640131,0.0,0.0,0.0,-1.0
31576762,31576656,-0.03783397,0.024703898,-0.052442927,0.22828466,0.0,0.0,0.0,-1.0
31580023,31579854,0.055537,-0.054200407,-0.12136778,0.22828466,0.0,0.0,0.0,-1.0
31584776,31584656,0.02077986,-0.021491155,-0.103174254,0.22828466,0.0,0.0,0.0,-1.0
31587233,31587125,-0.04782992,0.01651046,-0.1041968,0.22828466,0.0,0.0,0.0,-1.0
31590387,31590271,0.019397225,-0.050234817,-0.076604635,0.22828466,0.0,0.0,0.0,-1.0
31594374,31594255,0.02426016,-0.055459663,-0.017390778,0.22828466,0.0,0.0,0.0,-1.0
31596763,31596657,-0.07828477,0.019635476,0.03810575,0.22828466,0.0,0.0,0.0,-1.0
31600767,31600657,0.009490706,-0.054734092,0.09071818,0.22980443,0.0,0.0,0.0,-1.0
31604012,31603901,0.09308987,-0.08616868,0.14651269,0.22980443,0.0,0.0,0.0,-1.0
31607966,31607855,-0.053173892,0.032776933,0.14550442,0.22980443,0.0,0.0,0.0,-1.0
31611976,31611855,0.016401436,-0.03258623,0.09194364,0.22980443,0.0,0.0,0.0,-1.0
31615179,31615060,0.066443846,-0.051569693,0.090258084,0.22980443,0.0,0.0,0.0,-1.0
31618377,31618264,-0.040652063,0.022760581,0.018485412,0.23126644,0.0,0.0,0.0,-1.0
31622363,31622255,-0.014886858,-0.03973025,-0.04528857,0.23126644,0.0,0.0,0.0,-1.0
31625558,31625455,0.026127055,-0.05978416,-0.04515645,0.23126644,0.0,0.0,0.0,-1.0
31629564,31629462,-0.09092188,0.022304112,-0.07864451,0.23126644,0.0,0.0,0.0,-1.0
31631965,31631855,-0.12980716,0.023477674,-0.11457604,0.23126644,0.0,0.0,0.0,-1.0
31635983,31635872,-0.029484076,-0.031948768,-0.015561011,0.23126644,0.0,0.0,0.0,-1.0
31639977,31639855,-0.1847643,0.059748057,0.016008,0.23235524,0.0,0.0,0.0,-1.0
31643209,31643063,-0.17233047,0.021362774,0.066979215,0.23235524,0.0,0.0,0.0,-1.0
31646363,31646255,-0.060503926,-0.0290398,0.15706977,0.23235524,0.0,0.0,0.0,-1.0
31650370,31650255,-0.18384627,0.06176975,0.15843323,0.23235524,0.0,0.0,0.0,-1.0
31653557,31653455,-0.16062506,0.028485809,0.08482005,0.23235524,0.0,0.0,0.0,-1.0
31657590,31657476,-0.059019245,-0.0012085158,0.09853332,0.23235524,0.0,0.0,0.0,-1.0
31660030,31659864,-0.16056378,0.05636923,0.090102255,0.23331742,0.0,0.0,0.0,-1.0
31663966,31663855,-0.19695598,0.049619205,-0.009154252,0.23331742,0.0,0.0,0.0,-1.0
31667984,31667855,-0.025012273,-0.0077091097,-0.0048614983,0.23331742,0.0,0.0,0.0,-1.0
31671227,31671125,-0.13470376,0.07076479,-0.047552854,0.23331742,0.0,0.0,0.0,-1.0
31674378,31674276,-0.16921553,0.07451719,-0.09324749,0.23331742,0.0,0.0,0.0,-1.0
31678363,31678255,0.026373215,-0.00032076798,-0.00068978406,0.23331742,0.0,0.0,0.0,-1.0
31681623,31681464,-0.09034763,0.06078923,0.023758672,0.23331742,0.0,0.0,0.0,-1.0
31685563,31685462,-0.089909256,0.013158357,0.017091125,0.23430592,0.0,0.0,0.0,-1.0
31688008,31687897,0.06440849,-0.04233827,0.11775636,0.23430592,0.0,0.0,0.0,-1.0
31691970,31691855,0.0014984208,0.016910465,0.15904753,0.23430592,0.0,0.0,0.0,-1.0
31695980,31695855,-0.002033993,-0.03545434,0.111323416,0.23430592,0.0,0.0,0.0,-1.0
31699185,31699069,0.11153548,-0.07421121,0.13288116,0.23430592,0.0,0.0,0.0,-1.0
31702363,31702255,0.04919647,-0.038373955,0.10135889,0.2346238,0.0,0.0,0.0,-1.0
31706366,31706257,0.03617065,-0.04218738,0.010553706,0.2346238,0.0,0.0,0.0,-1.0
31709560,31709458,0.080770664,-0.06025774,0.005341554,0.2346238,0.0,0.0,0.0,-1.0
31713565,31713462,0.01752282,-0.04406946,-0.024137728,0.2346238,0.0,0.0,0.0,-1.0
31715966,31715855,0.038458668,-0.055714358,-0.069149576,0.2346238,0.0,0.0,0.0,-1.0
31719969,31719857,0.090114675,-0.06625555,-0.04375567,0.2346238,0.0,0.0,0.0,-1.0
31723977,31723855,0.05402443,-0.097191975,0.008876396,0.23468873,0.0,0.0,0.0,-1.0
31727157,31727055,0.04557631,-0.06326717,0.04185074,0.23468873,0.0,0.0,0.0,-1.0
31730373,31730258,0.051785547,-0.054155786,0.07276364,0.23468873,0.0,0.0,0.0,-1.0
31734427,31734263,0.08344289,-0.0815885,0.14744666,0.23468873,0.0,0.0,0.0,-1.0
31737565,31737457,0.03316801,-0.028362675,0.10814293,0.23468873,0.0,0.0,0.0,-1.0
31741676,31741494,0.000255083,-0.022297425,0.11897124,0.23468873,0.0,0.0,0.0,-1.0
31745601,31745490,0.0711832,-0.043725833,0.12772651,0.23468873,0.0,0.0,0.0,-1.0
31747218,31747068,0.039632402,0.010135587,0.10017743,0.23468873,0.0,0.0,0.0,-1.0
31751161,31751058,-0.023305995,0.022971816,-0.00021973532,0.23549661,0.0,0.0,0.0,-1.0
31755242,31755131,0.095348254,-0.04796827,0.007867287,0.23549661,0.0,0.0,0.0,-1.0
31758370,31758268,-0.007687318,0.033877518,-0.028308507,0.23549661,0.0,0.0,0.0,-1.0
31763183,31763080,-0.02951094,0.025730789,-0.0389993,0.23549661,0.0,0.0,0.0,-1.0
31765577,31765455,0.046372272,-0.013643864,0.020093579,0.23549661,0.0,0.0,0.0,-1.0
31771162,31771058,-0.16027384,0.07641333,0.03539972,0.23676959,0.0,0.0,0.0,-1.0
31772764,31772655,-0.081353895,0.02879774,0.03291476,0.23676959,0.0,0.0,0.0,-1.0
31775170,31775067,0.018822325,-0.0037382971,0.13473843,0.23676959,0.0,0.0,0.0,-1.0
31779169,31779057,-0.03477046,0.068488926,0.17241724,0.23676959,0.0,0.0,0.0,-1.0
31783216,31783100,-0.12600449,0.08200568,0.132794,0.23676959,0.0,0.0,0.0,-1.0
31787195,31787091,0.02200894,0.03999891,0.16788815,0.23676959,0.0,0.0,0.0,-1.0
31790376,31790258,-0.05236698,0.10128715,0.12487433,0.23676959,0.0,0.0,0.0,-1.0
31794368,31794259,-0.05901515,0.06684539,0.007032277,0.2377869,0.0,0.0,0.0,-1.0
31797607,31797495,0.043508615,0.041088726,0.00908675,0.2377869,0.0,0.0,0.0,-1.0
31800824,31800668,-0.017522505,0.08749376,-0.008376064,0.2377869,0.0,0.0,0.0,-1.0
31803168,31803056,-0.050876603,0.07477179,-0.07706265,0.2377869,0.0,0.0,0.0,-1.0
31807170,31807055,0.043621108,0.018934838,-0.073299006,0.2394648,0.0,0.0,0.0,-1.0
31811170,31811059,0.0037454693,0.066838324,-0.015565174,0.2394648,0.0,0.0,0.0,-1.0
31814373,31814258,0.017398281,0.015295603,0.0136638405,0.2394648,0.0,0.0,0.0,-1.0
31818399,31818290,0.07289913,-0.008832454,0.08179855,0.2394648,0.0,0.0,0.0,-1.0
31822415,31822313,0.017856179,0.015804205,0.14055485,0.2394648,0.0,0.0,0.0,-1.0
31827158,31827056,0.09210308,-0.024386737,0.17220736,0.2394648,0.0,0.0,0.0,-1.0
31828792,31828689,0.062296163,0.0067302114,0.1095541,0.2394648,0.0,0.0,0.0,-1.0
31831157,31831055,0.03521596,-0.034515124,0.105861925,0.24312916,0.0,0.0,0.0,-1.0
31835172,31835057,0.05584255,-0.049558192,0.07157046,0.24312916,0.0,0.0,0.0,-1.0
31839278,31839166,0.029509412,-0.0075526037,-0.0015871385,0.24312916,0.0,0.0,0.0,-1.0
31842375,31842262,0.041656964,-0.0369151,-0.046517983,0.24312916,0.0,0.0,0.0,-1.0
31846374,31846265,0.08929232,-0.04629656,-0.041836653,0.24312916,0.0,0.0,0.0,-1.0
31851158,31851056,-0.02869834,0.018983006,-0.07290557,0.24312916,0.0,0.0,0.0,-1.0
31853580,31853462,0.029929727,-0.028476967,-0.04204509,0.24312916,0.0,0.0,0.0,-1.0
31856775,31856673,0.070071965,-0.031493958,-0.019786615,0.24810329,0.0,0.0,0.0,-1.0
31859246,31859089,-0.027194425,0.031465195,0.021294527,0.24810329,0.0,0.0,0.0,-1.0
31863164,31863055,-0.017602583,0.0010614665,0.06498328,0.24810329,0.0,0.0,0.0,-1.0
31867164,31867060,0.09363571,-0.02415838,0.16888319,0.24810329,0.0,0.0,0.0,-1.0
31870404,31870289,-0.048714153,0.057517692,0.15081382,0.24810329,0.0,0.0,0.0,-1.0
31875158,31875056,0.08698755,-0.0312002,0.10774787,0.2537366,0.0,0.0,0.0,-1.0
31877584,31877473,0.13657567,-0.03424379,0.11214852,0.2537366,0.0,0.0,0.0,-1.0
31882366,31882256,-0.08177286,0.067808256,-0.025461974,0.2537366,0.0,0.0,0.0,-1.0
31884757,31884655,-0.01642152,0.025666635,-0.05537664,0.2537366,0.0,0.0,0.0,-1.0
31887975,31887873,0.12882906,-0.02237197,-0.04142136,0.2537366,0.0,0.0,0.0,-1.0
31891196,31891090,-0.02563838,0.057683326,-0.0922364,0.2537366,0.0,0.0,0.0,-1.0
31894366,31894255,-0.05782149,0.047050864,-0.10231474,0.2537366,0.0,0.0,0.0,-1.0
31898374,31898266,0.10255432,-0.032227736,-0.052025825,0.259921,0.0,0.0,0.0,-1.0
31902363,31902255,-0.09004478,0.041056857,-0.0043346705,0.259921,0.0,0.0,0.0,-1.0
31906412,31906302,-0.019562235,-0.023095913,0.044694696,0.259921,0.0,0.0,0.0,-1.0
31909578,31909467,0.07243722,-0.04525066,0.104170635,0.259921,0.0,0.0,0.0,-1.0
31912764,31912653,-0.06171802,0.017606473,0.13584787,0.259921,0.0,0.0,0.0,-1.0
31915962,31915855,-0.05956198,0.0025299974,0.069368996,0.259921,0.0,0.0,0.0,-1.0
31920040,31919864,0.042613786,-0.03815182,0.048701104,0.265757,0.0,0.0,0.0,-1.0
31923232,31923126,-0.08776255,0.012192245,0.06396829,0.265757,0.0,0.0,0.0,-1.0
31926387,31926285,-0.097988114,-0.010986118,0.0014967085,0.265757,0.0,0.0,0.0,-1.0
31930371,31930256,0.04585764,-0.061591975,-0.05909622,0.265757,0.0,0.0,0.0,-1.0
31934372,31934270,-0.07464483,0.026858557,-0.09719688,0.265757,0.0,0.0,0.0,-1.0
31938373,31938263,0.029386653,-0.029331598,-0.09964661,0.265757,0.0,0.0,0.0,-1.0
31940831,31940667,0.08013387,-0.04365759,-0.11278242,0.27022812,0.0,0.0,0.0,-1.0
31943957,31943855,-0.030470353,0.013854873,-0.060553253,0.27022812,0.0,0.0,0.0,-1.0
31947969,31947855,-0.023261147,0.011917878,-0.01118738,0.27022812,0.0,0.0,0.0,-1.0
31950387,31950264,0.069164105,-0.022309855,0.0858934,0.27022812,0.0,0.0,0.0,-1.0
31954371,31954256,-0.009964472,0.025725905,0.16580018,0.27022812,0.0,0.0,0.0,-1.0
31958366,31958257,-0.012135748,0.026389338,0.19114642,0.27022812,0.0,0.0,0.0,-1.0
31962372,31962269,0.034868,0.045779154,0.15431474,0.27257085,0.0,0.0,0.0,-1.0
31965576,31965464,-0.039102204,0.08025423,0.11246066,0.27257085,0.0,0.0,0.0,-1.0
31968757,31968655,-0.035805944,0.07453222,0.056838132,0.27257085,0.0,0.0,0.0,-1.0
31971958,31971855,0.015610429,0.05112903,-0.019062746,0.27257085,0.0,0.0,0.0,-1.0
31975967,31975855,-0.056108695,0.081090115,-0.05979666,0.27257085,0.0,0.0,0.0,-1.0
31978364,31978256,-0.06339622,0.07796024,-0.11273348,0.27257085,0.0,0.0,0.0,-1.0
31982425,31982270,0.011883168,0.05197684,-0.11781384,0.27257085,0.0,0.0,0.0,-1.0
31986364,31986256,-0.093920015,0.15916027,-0.069462396,0.27284306,0.0,0.0,0.0,-1.0
31989570,31989455,-0.07207556,0.1403612,-0.0026267865,0.27284306,0.0,0.0,0.0,-1.0
31994364,31994256,-0.038957797,0.110527426,0.08104122,0.27284306,0.0,0.0,0.0,-1.0
31996761,31996659,-0.060455505,0.10623709,0.120012745,0.27284306,0.0,0.0,0.0,-1.0
32000014,31999870,-0.057205923,0.24525467,0.09597846,0.2723439,0.0,0.0,0.0,-1.0
32003975,32003855,-0.051701937,0.2206763,0.079248786,0.2723439,0.0,0.0,0.0,-1.0
32006363,32006255,-0.054593448,0.16985369,0.12167244,0.2723439,0.0,0.0,0.0,-1.0
32010375,32010258,0.011131146,0.15546215,0.1005059,0.2723439,0.0,0.0,0.0,-1.0
32014366,32014258,-0.013062598,0.15038978,0.0031910506,0.2723439,0.0,0.0,0.0,-1.0
32019973,32019868,0.0049289064,0.1419848,0.027848229,0.2723439,0.0,0.0,0.0,-1.0
32021637,32021474,0.045876645,0.10434147,0.016136937,0.2723439,0.0,0.0,0.0,-1.0
32024757,32024655,0.017057907,0.19300313,-0.0661074,0.27210614,0.0,0.0,0.0,-1.0
32027957,32027855,-0.0032527735,0.189347,-0.024722844,0.27210614,0.0,0.0,0.0,-1.0
32031967,32031855,0.08176854,0.12736173,0.036609113,0.27210614,0.0,0.0,0.0,-1.0
32035165,32035055,-0.0044806413,0.17457384,0.0033289595,0.27210614,0.0,0.0,0.0,-1.0
32037578,32037457,-0.0050767213,0.07722301,0.047720764,0.27210614,0.0,0.0,0.0,-1.0
32041619,32041463,0.10614574,0.080623314,0.14841054,0.27126986,0.0,0.0,0.0,-1.0
32045566,32045455,-0.015848566,0.11738314,0.1034519,0.27126986,0.0,0.0,0.0,-1.0
32049573,32049462,0.08832303,-0.0074014515,0.13137151,0.27126986,0.0,0.0,0.0,-1.0
32052757,32052655,0.116158105,0.0016149767,0.13688934,0.27126986,0.0,0.0,0.0,-1.0
32055957,32055855,-0.04085702,0.021463253,0.07404865,0.27126986,0.0,0.0,0.0,-1.0
32060019,32059865,0.09598145,-0.1269648,0.057666678,0.27126986,0.0,0.0,0.0,-1.0
32063157,32063055,0.10191498,-0.0379289,0.039519947,0.27126986,0.0,0.0,0.0,-1.0
32065575,32065457,-0.042957664,-0.0721803,0.010337146,0.26861003,0.0,0.0,0.0,-1.0
32069566,32069455,0.053474054,-0.19469571,0.013771417,0.26861003,0.0,0.0,0.0,-1.0
32073566,32073455,0.06466794,-0.18314831,0.014707817,0.26861003,0.0,0.0,0.0,-1.0
32077600,32077481,-0.030380933,-0.19215262,0.05624694,0.26861003,0.0,0.0,0.0,-1.0
32080836,32080675,0.0670119,-0.24012701,0.11664846,0.26861003,0.0,0.0,0.0,-1.0
32083957,32083855,0.01291445,-0.23344633,0.12606484,0.26440635,0.0,0.0,0.0,-1.0
32087975,32087855,-0.013623312,-0.25154164,0.16387485,0.26440635,0.0,0.0,0.0,-1.0
32091233,32091127,0.046603587,-0.19868009,0.15477674,0.26440635,0.0,0.0,0.0,-1.0
32093566,32093455,-0.04252302,-0.17623407,0.1999276,0.26440635,0.0,0.0,0.0,-1.0
32097576,32097465,0.0024440403,-0.21772802,0.18864574,0.26440635,0.0,0.0,0.0,-1.0
32101630,32101461,0.057545397,-0.18281803,0.2380056,0.26440635,0.0,0.0,0.0,-1.0
32105583,32105464,-0.10629637,-0.12176472,0.16674048,0.26440635,0.0,0.0,0.0,-1.0
32108757,32108655,0.0059216092,-0.18233295,0.21170264,0.2575919,0.0,0.0,0.0,-1.0
32111957,32111855,0.05197639,-0.1527443,0.22631916,0.2575919,0.0,0.0,0.0,-1.0
32115965,32115855,-0.09715536,-0.07553013,0.14567918,0.2575919,0.0,0.0,0.0,-1.0
32119157,32119055,0.0309741,-0.1526912,0.1587438,0.2575919,0.0,0.0,0.0,-1.0
32123973,32123867,-0.019709792,-0.031400375,0.1290961,0.2575919,0.0,0.0,0.0,-1.0
32125573,32125455,-0.09510099,0.0038530156,0.08646798,0.2575919,0.0,0.0,0.0,-1.0
32129572,32129457,0.020626286,-0.045880996,0.1091598,0.24743555,0.0,0.0,0.0,-1.0
32133584,32133462,0.013966319,0.0054205293,0.077953435,0.24743555,0.0,0.0,0.0,-1.0
32136764,32136655,-0.04276709,0.028759964,0.03963621,0.24743555,0.0,0.0,0.0,-1.0
32140031,32139866,0.0026001236,0.008962299,0.07191321,0.24743555,0.0,0.0,0.0,-1.0
32143975,32143855,0.009098349,0.053962275,0.07505247,0.24743555,0.0,0.0,0.0,-1.0
32147165,32147056,0.031829257,-0.026011273,0.095119,0.24743555,0.0,0.0,0.0,-1.0
32149566,32149455,0.055534612,0.0015142229,0.1070675,0.24743555,0.0,0.0,0.0,-1.0
32153566,32153455,-0.0038318876,0.056925893,0.097292215,0.23782474,0.0,0.0,0.0,-1.0
32156756,32156655,0.04588813,0.0059425947,0.09886241,0.23782474,0.0,0.0,0.0,-1.0
32161690,32161543,0.04054595,0.014717491,0.11093162,0.23782474,0.0,0.0,0.0,-1.0
32164774,32164663,-0.0057165595,0.050673135,0.076325946,0.23782474,0.0,0.0,0.0,-1.0
32167967,32167857,0.079062894,-0.017130392,0.07604937,0.23782474,0.0,0.0,0.0,-1.0
32172763,32172656,0.03474906,0.051189363,0.08093074,0.23782474,0.0,0.0,0.0,-1.0
32175258,32175134,-0.027040051,0.06986809,0.055739447,0.23782474,0.0,0.0,0.0,-1.0
32178385,32178276,0.044076387,-0.01140516,0.042895503,0.23132625,0.0,0.0,0.0,-1.0
32182511,32182337,0.069620535,0.001286245,0.06263792,0.23132625,0.0,0.0,0.0,-1.0
32184761,32184655,0.02543669,0.04388477,0.032644436,0.23132625,0.0,0.0,0.0,-1.0
32188777,32188661,0.060070366,-0.0062422617,0.01006463,0.23132625,0.0,0.0,0.0,-1.0
32192791,32192689,0.050503172,0.0031729196,0.009040204,0.22699925,0.0,0.0,0.0,-1.0
32196782,32196679,0.016113238,-0.009726367,0.007778451,0.22699925,0.0,0.0,0.0,-1.0
32199996,32199884,0.027338943,-0.01710179,0.0052838866,0.22699925,0.0,0.0,0.0,-1.0
32203962,32203859,0.015291004,-0.011410769,0.06864248,0.22699925,0.0,0.0,0.0,-1.0
32206370,32206255,0.03493934,-0.024169914,0.038478486,0.22699925,0.0,0.0,0.0,-1.0
32210379,32210265,0.024045253,-0.020334186,0.018784227,0.22699925,0.0,0.0,0.0,-1.0
32212776,32212660,-0.009523916,-0.01061379,0.05689865,0.22699925,0.0,0.0,0.0,-1.0
32216766,32216655,0.03073361,-0.053062633,-0.041649662,0.22399333,0.0,0.0,0.0,-1.0
32220778,32220675,0.010397558,-0.024744669,-0.08124545,0.22399333,0.0,0.0,0.0,-1.0
32223991,32223889,-0.019409344,-0.016768357,-0.08247193,0.22399333,0.0,0.0,0.0,-1.0
32228773,32228670,0.034456417,-0.04168762,-0.08722709,0.22399333,0.0,0.0,0.0,-1.0
32231184,32231073,0.030349506,-0.023341592,-0.085988335,0.22399333,0.0,0.0,0.0,-1.0
32234470,32234320,0.0032076095,-0.029298086,-0.21032858,0.22133249,0.0,0.0,0.0,-1.0
32238378,32238257,0.009576378,-0.03374688,-0.17036706,0.22133249,0.0,0.0,0.0,-1.0
32240829,32240670,0.010247619,-0.0052633868,-0.09685386,0.22133249,0.0,0.0,0.0,-1.0
32244798,32244694,-0.007826435,-0.025458023,-0.06465186,0.22133249,0.0,0.0,0.0,-1.0
32248773,32248664,-0.004800909,-0.024142565,-0.017774334,0.22133249,0.0,0.0,0.0,-1.0
32251978,32251875,0.01680239,0.001264752,0.019035334,0.22133249,0.0,0.0,0.0,-1.0
32255978,32255858,-0.0052528335,-0.02106094,0.049519546,0.22133249,0.0,0.0,0.0,-1.0
32259958,32259856,-0.0228185,-0.014945033,-0.08316967,0.2188225,0.0,0.0,0.0,-1.0
32262509,32262359,0.0144256,-0.016110348,-0.18936986,0.2188225,0.0,0.0,0.0,-1.0
32266369,32266261,0.01306868,-0.02209111,-0.19497603,0.2188225,0.0,0.0,0.0,-1.0
32268765,32268656,-0.020890059,-0.014873206,-0.1764341,0.2188225,0.0,0.0,0.0,-1.0
32272776,32272667,0.014724579,-0.025312392,-0.18663915,0.2188225,0.0,0.0,0.0,-1.0
32276760,32276658,0.01141774,-0.020094195,-0.100609235,0.2188225,0.0,0.0,0.0,-1.0
32280016,32279864,-0.04250791,-0.009813297,-0.086645246,0.2188225,0.0,0.0,0.0,-1.0
32283984,32283870,0.02199873,-0.030920655,-0.15329894,0.21545455,0.0,0.0,0.0,-1.0
32287166,32287055,0.025551857,-0.03068152,-0.07858701,0.21545455,0.0,0.0,0.0,-1.0
32290372,32290258,-0.030405324,-0.010766905,-0.15222576,0.21545455,0.0,0.0,0.0,-1.0
32294370,32294257,0.03438811,-0.047273535,-0.15336095,0.21545455,0.0,0.0,0.0,-1.0
32296808,32296689,0.054401726,-0.04598827,-0.095871314,0.20948365,0.0,0.0,0.0,-1.0
32300775,32300663,-0.035907723,-0.007817166,-0.047125697,0.20948365,0.0,0.0,0.0,-1.0
32303985,32303869,0.01662013,-0.044177566,-0.071539044,0.20948365,0.0,0.0,0.0,-1.0
32307958,32307856,0.036065478,-0.044677444,-0.103584506,0.20948365,0.0,0.0,0.0,-1.0
32311970,32311858,-0.007823326,-0.004059195,-0.09719148,0.20948365,0.0,0.0,0.0,-1.0
32315958,32315856,0.05137391,-0.034628488,-0.11375238,0.20948365,0.0,0.0,0.0,-1.0
32318366,32318257,0.018258417,-0.021792822,-0.11198222,0.20948365,0.0,0.0,0.0,-1.0
32322421,32322275,0.008870633,0.010941079,-0.120827325,0.20342404,0.0,0.0,0.0,-1.0
32325557,32325455,0.057523824,-0.015149752,-0.14524978,0.20342404,0.0,0.0,0.0,-1.0
32329574,32329472,-0.014287708,-0.0044295536,-0.1550091,0.20342404,0.0,0.0,0.0,-1.0
32331958,32331856,0.005653932,0.015310208,-0.087838344,0.20342404,0.0,0.0,0.0,-1.0
32335964,32335855,0.09862703,-0.0002681847,-0.012557175,0.20342404,0.0,0.0,0.0,-1.0
32339976,32339856,-0.010123492,0.01878675,-0.04302087,0.20342404,0.0,0.0,0.0,-1.0
32343338,32343165,0.0374103,-0.00041552226,-0.06791079,0.20342404,0.0,0.0,0.0,-1.0
32346382,32346280,0.09846985,-0.010106053,-0.093109,0.20080277,0.0,0.0,0.0,-1.0
32350373,32350255,0.01276202,0.020686416,-0.088279106,0.20080277,0.0,0.0,0.0,-1.0
32353564,32353455,0.04308177,-0.019061059,-0.15006514,0.20080277,0.0,0.0,0.0,-1.0
32357565,32357462,0.059806112,-0.020737726,-0.18397573,0.20080277,0.0,0.0,0.0,-1.0
32360036,32359920,0.03619174,0.00032362016,-0.1761578,0.20080277,0.0,0.0,0.0,-1.0
32363958,32363856,0.06767736,-0.016468426,-0.14478669,0.20102072,0.0,0.0,0.0,-1.0
32367977,32367858,0.007763125,-0.022735115,-0.15763055,0.20102072,0.0,0.0,0.0,-1.0
32371958,32371856,0.042714156,-0.024841625,-0.09393898,0.20102072,0.0,0.0,0.0,-1.0
32374363,32374255,0.09298006,-0.03538714,-0.049801122,0.20102072,0.0,0.0,0.0,-1.0
32378371,32378269,0.0038689685,-0.028205082,-0.027988762,0.20102072,0.0,0.0,0.0,-1.0
32381559,32381458,0.010895876,-0.023558836,-0.080007225,0.20102072,0.0,0.0,0.0,-1.0
32385564,32385462,0.09973728,-0.048854787,-0.060085576,0.20217863,0.0,0.0,0.0,-1.0
32387958,32387856,0.059171196,-0.030668553,0.015655752,0.20217863,0.0,0.0,0.0,-1.0
32391961,32391858,-0.002411876,-0.034314495,-0.0070512965,0.20217863,0.0,0.0,0.0,-1.0
32395969,32395857,0.03645057,-0.055442393,-0.070931196,0.20217863,0.0,0.0,0.0,-1.0
32399173,32399055,0.024261888,-0.027884014,-0.100012966,0.20217863,0.0,0.0,0.0,-1.0
32402416,32402261,0.043096185,-0.042655416,-0.1161806,0.20217863,0.0,0.0,0.0,-1.0
32406366,32406257,0.021466035,-0.06702796,-0.15946195,0.20397405,0.0,0.0,0.0,-1.0
32409557,32409455,-0.0026839187,-0.040863506,-0.15525047,0.20397405,0.0,0.0,0.0,-1.0
32413581,32413477,0.06401413,-0.067231745,-0.1126998,0.20397405,0.0,0.0,0.0,-1.0
32415959,32415857,0.041259732,-0.079099,-0.08321467,0.20397405,0.0,0.0,0.0,-1.0
32419958,32419856,-0.072101824,-0.056928597,-0.030545995,0.20397405,0.0,0.0,0.0,-1.0
32423979,32423855,0.018498462,-0.086499274,0.04578547,0.20397405,0.0,0.0,0.0,-1.0
32427971,32427856,0.0015701109,-0.06436959,0.07686034,0.20680816,0.0,0.0,0.0,-1.0
32430385,32430273,-0.027321868,-0.04522314,0.08243259,0.20680816,0.0,0.0,0.0,-1.0
32434370,32434261,0.010592304,-0.079736255,0.09517209,0.20680816,0.0,0.0,0.0,-1.0
32437625,32437467,-0.003350083,-0.049474556,-0.020202357,0.20680816,0.0,0.0,0.0,-1.0
32441622,32441470,-0.055909984,0.001531907,-0.06024002,0.20680816,0.0,0.0,0.0,-1.0
32444006,32443902,-0.008786427,-0.031537037,-0.086131796,0.20680816,0.0,0.0,0.0,-1.0
32447179,32447067,0.0045106914,-0.041269742,-0.1354228,0.21046534,0.0,0.0,0.0,-1.0
32451166,32451055,-0.05993299,0.0064092292,-0.19020325,0.21046534,0.0,0.0,0.0,-1.0
32455166,32455055,-0.002340274,-0.0031024767,-0.14236069,0.21046534,0.0,0.0,0.0,-1.0
32458365,32458257,-0.031931147,0.008716343,-0.10207172,0.21046534,0.0,0.0,0.0,-1.0
32462435,32462263,-0.082068615,0.018409355,-0.040168613,0.21046534,0.0,0.0,0.0,-1.0
32465561,32465455,-0.01084854,-0.003910633,0.04037859,0.21394123,0.0,0.0,0.0,-1.0
32469571,32469462,-0.021379704,0.010366481,0.13335301,0.21394123,0.0,0.0,0.0,-1.0
32472757,32472655,-0.06590508,0.0011871688,0.078740776,0.21394123,0.0,0.0,0.0,-1.0
32475166,32475055,-0.020770261,-0.016497115,0.14157593,0.21394123,0.0,0.0,0.0,-1.0
32479166,32479055,0.036738016,-0.015667185,0.10127299,0.21394123,0.0,0.0,0.0,-1.0
32484771,32484656,-0.022707272,-0.019388085,-0.0036083125,0.21394123,0.0,0.0,0.0,-1.0
32486366,32486258,0.018903544,-0.04084717,-0.072639704,0.21394123,0.0,0.0,0.0,-1.0
32490392,32490270,0.025869878,-0.019571735,-0.13925275,0.21634284,0.0,0.0,0.0,-1.0
32493557,32493455,-0.030040842,0.017026022,-0.15002008,0.21634284,0.0,0.0,0.0,-1.0
32497585,32497472,0.055679902,-0.028690642,-0.18591593,0.21634284,0.0,0.0,0.0,-1.0
32500837,32500675,0.036614727,-0.01948839,-0.10012536,0.21634284,0.0,0.0,0.0,-1.0
32503210,32503061,-0.020124706,0.014619142,-0.06817342,0.21634284,0.0,0.0,0.0,-1.0
32507166,32507055,0.005901921,-0.024317995,0.018537711,0.21634284,0.0,0.0,0.0,-1.0
32511250,32511125,0.0438497,-0.042336933,0.10980767,0.21852398,0.0,0.0,0.0,-1.0
32514375,32514273,-0.023802202,0.010069167,0.1809847,0.21852398,0.0,0.0,0.0,-1.0
32518373,32518261,0.0014655803,-0.04622824,0.1765185,0.21852398,0.0,0.0,0.0,-1.0
32521566,32521455,0.026898434,-0.08107727,0.15038157,0.21852398,0.0,0.0,0.0,-1.0
32525604,32525495,-0.036278617,-0.012425304,0.0852343,0.21852398,0.0,0.0,0.0,-1.0
32528764,32528655,-0.002555212,-0.04507923,0.016304962,0.21852398,0.0,0.0,0.0,-1.0
32531238,32531083,0.0013567421,-0.08164265,-0.06257725,0.2213981,0.0,0.0,0.0,-1.0
32535234,32535060,-0.08363464,-0.010099573,-0.14054951,0.2213981,0.0,0.0,0.0,-1.0
32539174,32539055,-0.033245735,-0.03842324,-0.15000059,0.2213981,0.0,0.0,0.0,-1.0
32542430,32542264,-0.030479187,-0.07033458,-0.14437707,0.2213981,0.0,0.0,0.0,-1.0
32546420,32546318,-0.114881806,0.013562096,-0.07659912,0.2213981,0.0,0.0,0.0,-1.0
32549569,32549455,-0.08053446,0.0106089655,0.014400154,0.22443047,0.0,0.0,0.0,-1.0
32553574,32553472,-0.030342765,-0.03790638,0.111518174,0.22443047,0.0,0.0,0.0,-1.0
32556817,32556714,-0.081814125,0.021503955,0.102321774,0.22443047,0.0,0.0,0.0,-1.0
32559166,32559055,-0.0946763,0.07293861,0.22190349,0.22443047,0.0,0.0,0.0,-1.0
32563196,32563061,-0.002675852,-0.015560932,0.22945799,0.22443047,0.0,0.0,0.0,-1.0
32567225,32567110,-0.034154665,0.037453406,0.13503487,0.22443047,0.0,0.0,0.0,-1.0
32571182,32571071,-0.016014112,0.038356867,0.06302428,0.22443047,0.0,0.0,0.0,-1.0
32574376,32574274,0.035553403,-0.006266341,-0.02068483,0.22710355,0.0,0.0,0.0,-1.0
32577604,32577502,-0.028306026,0.03593197,-0.112024695,0.22710355,0.0,0.0,0.0,-1.0
32582370,32582260,-0.0028668102,0.025058817,-0.14912233,0.22710355,0.0,0.0,0.0,-1.0
32584775,32584673,0.0597581,-0.020955017,-0.14778045,0.22710355,0.0,0.0,0.0,-1.0
32588767,32588657,-0.03420431,0.022060884,-0.1454839,0.22710355,0.0,0.0,0.0,-1.0
32591987,32591858,-0.054188978,0.038489196,-0.040623244,0.22710355,0.0,0.0,0.0,-1.0
32595241,32595137,0.05036518,-0.033510093,0.04033285,0.22918981,0.0,0.0,0.0,-1.0
32598424,32598322,-0.023832574,-0.00936022,0.08147392,0.22918981,0.0,0.0,0.0,-1.0
32602428,32602261,-0.06819875,-0.0023398597,0.1297073,0.22918981,0.0,0.0,0.0,-1.0
32606364,32606256,0.07185548,-0.08124012,0.2001151,0.22918981,0.0,0.0,0.0,-1.0
32609591,32609475,-0.013270232,-0.028030071,0.15114348,0.22918981,0.0,0.0,0.0,-1.0
32613558,32613456,-0.037160464,-0.019029325,0.06567683,0.22918981,0.0,0.0,0.0,-1.0
32615967,32615865,0.042021986,-0.055951897,0.050436743,0.22918981,0.0,0.0,0.0,-1.0
32619967,32619855,0.0028085685,-0.019538382,-0.0091317855,0.23127061,0.0,0.0,0.0,-1.0
32622440,32622278,-0.050391905,-0.004912788,-0.11461422,0.23127061,0.0,0.0,0.0,-1.0
32626373,32626268,0.095692225,-0.08619531,-0.11251253,0.23127061,0.0,0.0,0.0,-1.0
32630375,32630259,0.041402124,-0.015003989,-0.11869708,0.23127061,0.0,0.0,0.0,-1.0
32633575,32633473,-0.016991785,0.014406852,-0.10782871,0.23127061,0.0,0.0,0.0,-1.0
32637569,32637467,0.13684683,-0.053585425,0.04893106,0.23127061,0.0,0.0,0.0,-1.0
32640779,32640657,0.079752006,-0.00464398,0.12073759,0.23127061,0.0,0.0,0.0,-1.0
32643961,32643855,-0.03294296,-0.020754538,0.074493475,0.23416941,0.0,0.0,0.0,-1.0
32647971,32647855,0.094636,-0.07392537,0.15977177,0.23416941,0.0,0.0,0.0,-1.0
32650421,32650319,0.092795305,-0.043995537,0.23443215,0.23416941,0.0,0.0,0.0,-1.0
32654384,32654282,-0.025994781,-0.026061237,0.1342359,0.23416941,0.0,0.0,0.0,-1.0
32658366,32658257,0.11466227,-0.14786674,0.13007726,0.23779461,0.0,0.0,0.0,-1.0
32661558,32661456,0.06933401,-0.100053385,0.042563662,0.23779461,0.0,0.0,0.0,-1.0
32665575,32665472,-0.05903511,-0.088818595,-0.09122359,0.23779461,0.0,0.0,0.0,-1.0
32669558,32669456,0.088462465,-0.13112032,-0.06474133,0.23779461,0.0,0.0,0.0,-1.0
32671957,32671855,0.053718235,-0.09298952,-0.021845002,0.23779461,0.0,0.0,0.0,-1.0
32675985,32675855,-0.03401494,-0.082495496,-0.05147062,0.23779461,0.0,0.0,0.0,-1.0
32678385,32678270,0.012502541,-0.098925345,-0.039795447,0.23779461,0.0,0.0,0.0,-1.0
32682369,32682260,-0.009130033,-0.117207,0.053095765,0.24166909,0.0,0.0,0.0,-1.0
32686414,32686264,-0.07257709,-0.12016772,0.07925834,0.24166909,0.0,0.0,0.0,-1.0
32689567,32689457,0.019571703,-0.132422,0.1746763,0.24166909,0.0,0.0,0.0,-1.0
32693578,32693476,-0.022088096,-0.070668206,0.19344893,0.24166909,0.0,0.0,0.0,-1.0
32696770,32696659,-0.06469484,-0.06606543,0.15008096,0.24166909,0.0,0.0,0.0,-1.0
32699957,32699855,-0.0050049326,-0.09785032,0.11465593,0.24166909,0.0,0.0,0.0,-1.0
32704026,32703863,-0.032796383,-0.042526722,0.070202544,0.24166909,0.0,0.0,0.0,-1.0
32706373,32706257,-0.04170014,-0.06831713,0.015268743,0.24521141,0.0,0.0,0.0,-1.0
32710374,32710257,0.0019423501,-0.09005028,-0.024418373,0.24521141,0.0,0.0,0.0,-1.0
32714363,32714255,-0.045312636,-0.03374636,-0.068009935,0.24521141,0.0,0.0,0.0,-1.0
32717568,32717456,-0.016796159,-0.063978404,-0.07618832,0.24521141,0.0,0.0,0.0,-1.0
32721565,32721463,-0.015815781,-0.057352804,-0.05002586,0.24521141,0.0,0.0,0.0,-1.0
32725558,32725456,-0.08700995,-0.03287609,-0.004652586,0.2483001,0.0,0.0,0.0,-1.0
32727957,32727855,-0.042165786,-0.066032246,0.04139272,0.2483001,0.0,0.0,0.0,-1.0
32731967,32731855,0.011162032,-0.09781927,0.12368584,0.2483001,0.0,0.0,0.0,-1.0
32735248,32735079,-0.07685045,-0.032597885,0.09858343,0.2483001,0.0,0.0,0.0,-1.0
32737563,32737457,-0.07073533,-0.028809357,0.13962108,0.2483001,0.0,0.0,0.0,-1.0
32741558,32741456,0.042733192,-0.06992542,0.17587613,0.2483001,0.0,0.0,0.0,-1.0
32745557,32745455,-0.08921116,0.026378388,0.06694707,0.2483001,0.0,0.0,0.0,-1.0
32749576,32749474,-0.020926667,-0.056457765,0.0362405,0.25100416,0.0,0.0,0.0,-1.0
32752766,32752655,0.03397265,-0.054729104,0.017352786,0.25100416,0.0,0.0,0.0,-1.0
32755971,32755860,-0.08296253,0.0054261237,-0.025851373,0.25100416,0.0,0.0,0.0,-1.0
32759975,32759855,-0.04431503,-0.012944279,-0.085630834,0.25100416,0.0,0.0,0.0,-1.0
32763241,32763135,0.026047954,-0.02214476,0.011441793,0.25100416,0.0,0.0,0.0,-1.0
32765561,32765457,-0.017592857,0.021564156,-0.05050465,0.25100416,0.0,0.0,0.0,-1.0
32769557,32769455,-0.03396871,0.0018008575,-0.008912176,0.25100416,0.0,0.0,0.0,-1.0
32773565,32773456,0.017050738,-0.00026103482,0.120625615,0.25309086,0.0,0.0,0.0,-1.0
32777564,32777462,-0.037205245,0.020628914,0.102506,0.25309086,0.0,0.0,0.0,-1.0
32781567,32781456,0.051153474,-0.01517265,0.18329096,0.25309086,0.0,0.0,0.0,-1.0
32784018,32783861,0.038222197,0.016358314,0.19477849,0.25309086,0.0,0.0,0.0,-1.0
32787971,32787855,0.007920404,0.030240003,0.11068691,0.25460166,0.0,0.0,0.0,-1.0
32791158,32791055,0.036204275,-0.022693304,0.09556523,0.25460166,0.0,0.0,0.0,-1.0
32793564,32793455,0.03750465,0.004853023,0.072586685,0.25460166,0.0,0.0,0.0,-1.0
32797558,32797456,-0.019322708,0.027688961,-0.068810396,0.25460166,0.0,0.0,0.0,-1.0
32801566,32801464,0.056808688,-0.050276585,-0.074893236,0.25460166,0.0,0.0,0.0,-1.0
32805565,32805463,-0.061040558,0.035704743,-0.095792055,0.25460166,0.0,0.0,0.0,-1.0
32808766,32808655,-0.03108147,0.0029781284,-0.100973174,0.25460166,0.0,0.0,0.0,-1.0
32811960,32811858,0.06932395,-0.06432657,0.003648229,0.25587952,0.0,0.0,0.0,-1.0
32815967,32815855,-0.06298831,0.020228095,0.043940753,0.25587952,0.0,0.0,0.0,-1.0
32819157,32819055,-0.04268059,-0.020674095,0.06702046,0.25587952,0.0,0.0,0.0,-1.0
32821558,32821456,0.06451528,-0.08645418,0.18440291,0.25587952,0.0,0.0,0.0,-1.0
32825573,32825471,-0.07003672,0.009434009,0.16449417,0.25587952,0.0,0.0,0.0,-1.0
32829560,32829456,-0.057431605,-0.0442626,0.10749094,0.25587952,0.0,0.0,0.0,-1.0
32833589,32833476,0.045503117,-0.069478355,0.12394741,0.25587952,0.0,0.0,0.0,-1.0
32837614,32837503,-0.10691333,-0.0070933597,-0.0037826374,0.2574661,0.0,0.0,0.0,-1.0
32840030,32839866,-0.06727861,-0.042347897,-0.0373508,0.2574661,0.0,0.0,0.0,-1.0
32843981,32843855,0.059484832,-0.083072826,-0.023327678,0.2574661,0.0,0.0,0.0,-1.0
32847230,32847116,-0.07692204,-0.017387833,-0.040017966,0.2574661,0.0,0.0,0.0,-1.0
32849571,32849469,-0.07976078,-0.050879262,-0.11888677,0.2574661,0.0,0.0,0.0,-1.0
32853558,32853456,0.03962187,-0.08915899,-0.006333135,0.2593534,0.0,0.0,0.0,-1.0
32856766,32856655,-0.054096635,-0.059159093,0.001365874,0.2593534,0.0,0.0,0.0,-1.0
32860828,32860660,-0.0430725,-0.07286832,0.052403007,0.2593534,0.0,0.0,0.0,-1.0
32864785,32864655,0.0218408,-0.07971108,0.15584639,0.2593534,0.0,0.0,0.0,-1.0
32867961,32867855,-0.040548556,-0.06945947,0.14326206,0.2593534,0.0,0.0,0.0,-1.0
32871981,32871855,0.0040763672,-0.0696688,0.15117332,0.2593534,0.0,0.0,0.0,-1.0
32875171,32875055,0.013894505,-0.07745891,0.14993457,0.26115036,0.0,0.0,0.0,-1.0
32878367,32878257,-0.017669499,-0.06913409,0.06972726,0.26115036,0.0,0.0,0.0,-1.0
32882372,32882255,0.010654729,-0.06342146,0.040796913,0.26115036,0.0,0.0,0.0,-1.0
32884827,32884664,0.008896356,-0.067427486,-0.01013425,0.26115036,0.0,0.0,0.0,-1.0
32889625,32889513,-0.01774577,-0.09727347,-0.07824387,0.26115036,0.0,0.0,0.0,-1.0
32892773,32892655,-0.008706352,-0.06695415,-0.075328335,0.26115036,0.0,0.0,0.0,-1.0
32895973,32895864,-0.031038366,-0.06266049,-0.061267044,0.26299608,0.0,0.0,0.0,-1.0
32900099,32899936,-0.00026464043,-0.08367332,0.0043078214,0.26299608,0.0,0.0,0.0,-1.0
32903164,32903055,0.0024880418,-0.056507386,0.06381971,0.26299608,0.0,0.0,0.0,-1.0
32906373,32906257,-0.026773632,-0.029914964,0.083118394,0.26299608,0.0,0.0,0.0,-1.0
32910427,32910323,0.0059499783,-0.03558464,0.13952297,0.26299608,0.0,0.0,0.0,-1.0
32912775,32912655,0.016630229,0.004588303,0.21381786,0.26299608,0.0,0.0,0.0,-1.0
32918366,32918256,-0.037464444,-0.023395807,0.12240717,0.26473647,0.0,0.0,0.0,-1.0
32920910,32920746,0.014345463,-0.009458926,0.13524929,0.26473647,0.0,0.0,0.0,-1.0
32923964,32923855,0.03422804,0.023685876,0.08345199,0.26473647,0.0,0.0,0.0,-1.0
32927985,32927865,-0.02009714,-0.0018028133,-0.04653477,0.26473647,0.0,0.0,0.0,-1.0
32931278,32931164,0.026678173,0.009503295,-0.03828827,0.26473647,0.0,0.0,0.0,-1.0
32935220,32935064,0.057851538,0.03731826,-0.09115528,0.26473647,0.0,0.0,0.0,-1.0
32938374,32938272,-0.012761355,-0.009769617,-0.05410584,0.26473647,0.0,0.0,0.0,-1.0
32940830,32940661,-0.00963287,0.010599057,-0.04312008,0.26600534,0.0,0.0,0.0,-1.0
32944775,32944655,0.023441954,0.031213833,0.0139947925,0.26600534,0.0,0.0,0.0,-1.0
32950381,32950261,0.0039361087,-0.01648974,0.09267867,0.26600534,0.0,0.0,0.0,-1.0
32952009,32951906,-0.006554478,0.01808476,0.15270296,0.26600534,0.0,0.0,0.0,-1.0
32955975,32955855,0.023171492,-0.010749957,0.16531344,0.26600534,0.0,0.0,0.0,-1.0
32959167,32959065,0.07014282,-0.0873081,0.18481717,0.26697955,0.0,0.0,0.0,-1.0
32962493,32962346,0.008995749,0.0044321828,0.1454621,0.26697955,0.0,0.0,0.0,-1.0
32966365,32966255,0.012444118,-0.038893953,0.07502915,0.26697955,0.0,0.0,0.0,-1.0
32968773,32968655,0.07685132,-0.118049555,0.035689745,0.26697955,0.0,0.0,0.0,-1.0
32974364,32974256,-0.023678789,0.019445168,-0.00666753,0.26697955,0.0,0.0,0.0,-1.0
32976769,32976657,-0.015992053,-0.056864306,-0.12609506,0.26697955,0.0,0.0,0.0,-1.0
32979967,32979865,0.055158798,-0.121963054,-0.083426006,0.26793724,0.0,0.0,0.0,-1.0
32984021,32983861,-0.044249028,0.014297819,-0.06567934,0.26793724,0.0,0.0,0.0,-1.0
32987157,32987055,-0.059242778,-0.008485855,-0.067995474,0.26793724,0.0,0.0,0.0,-1.0
32990381,32990268,0.021857038,-0.06710788,0.05436591,0.26793724,0.0,0.0,0.0,-1.0
32994366,32994257,-0.0342648,0.0053147534,0.09173785,0.26793724,0.0,0.0,0.0,-1.0
32999167,32999062,-0.005763748,-0.028410561,0.17679314,0.26793724,0.0,0.0,0.0,-1.0
33000778,33000676,0.034609985,-0.059760712,0.22735576,0.26793724,0.0,0.0,0.0,-1.0
33004829,33004678,-0.01841875,-0.010187091,0.16809838,0.26922855,0.0,0.0,0.0,-1.0
33007965,33007857,-0.014481805,-0.0031874801,0.08445799,0.26922855,0.0,0.0,0.0,-1.0
33011991,33011855,0.03484878,-0.027741436,0.07183918,0.26922855,0.0,0.0,0.0,-1.0
33015223,33015121,0.0135957915,-0.008696079,-0.032002058,0.26922855,0.0,0.0,0.0,-1.0
33018383,33018265,0.001866777,0.0057807737,-0.10762846,0.26922855,0.0,0.0,0.0,-1.0
33023958,33023856,0.019209946,-0.008965912,-0.081704326,0.26922855,0.0,0.0,0.0,-1.0
33024811,33024705,0.012494072,-0.007868483,-0.090359434,0.26922855,0.0,0.0,0.0,-1.0
33029564,33029462,-0.012858658,0.017744578,-0.02993729,0.2703643,0.0,0.0,0.0,-1.0
33032073,33031935,-0.0031075212,0.0071283006,0.016421856,0.2703643,0.0,0.0,0.0,-1.0
33036011,33035865,0.024841841,-0.02753131,0.05685765,0.2703643,0.0,0.0,0.0,-1.0
33040023,33039864,-0.014538404,0.0099445125,0.12086578,0.2703643,0.0,0.0,0.0,-1.0
33043164,33043055,-0.010513857,-0.007319115,0.1800644,0.2703643,0.0,0.0,0.0,-1.0
33047958,33047856,0.03909162,-0.03209799,0.12955417,0.2703643,0.0,0.0,0.0,-1.0
33050389,33050255,0.013263539,-0.015736885,0.11903809,0.2703643,0.0,0.0,0.0,-1.0
33053564,33053462,0.0016840422,-0.009701722,0.076309085,0.27123627,0.0,0.0,0.0,-1.0
33057564,33057462,0.026621688,-0.039991613,0.014174115,0.27123627,0.0,0.0,0.0,-1.0
33060011,33059864,-0.009468928,-0.04239396,-0.049913518,0.27123627,0.0,0.0,0.0,-1.0
33063995,33063892,-0.026992647,-0.044955507,-0.088487424,0.27123627,0.0,0.0,0.0,-1.0
33067967,33067855,0.03392351,-0.0697573,-0.11294433,0.27302837,0.0,0.0,0.0,-1.0
33071958,33071856,-0.038720176,-0.055138864,-0.10021668,0.27302837,0.0,0.0,0.0,-1.0
33074372,33074255,-0.05282595,-0.06330981,-0.0852358,0.27302837,0.0,0.0,0.0,-1.0
33078375,33078257,-0.010591399,-0.068015456,0.022891141,0.27302837,0.0,0.0,0.0,-1.0
33081608,33081460,-0.031940363,-0.05094844,0.05083115,0.27302837,0.0,0.0,0.0,-1.0
33085580,33085474,-0.05083761,-0.07609282,0.073172174,0.27302837,0.0,0.0,0.0,-1.0
33087961,33087857,-0.030035904,-0.08163296,0.1764444,0.27302837,0.0,0.0,0.0,-1.0
