timestamp,timestamp_last_signal,channel_count,rssi,rc_lost_frame_count,rc_total_frame_count,rc_ppm_frame_length,values[0],values[1],values[2],values[3],values[4],values[5],values[6],values[7],values[8],values[9],values[10],values[11],values[12],values[13],values[14],values[15],values[16],values[17],rc_failsafe,rc_lost,input_source
30358460,30358460,8,41,0,0,20003,1497,1517,1116,1113,1012,1512,1512,1513,0,0,0,0,0,0,0,0,0,0,0,0,2
30571766,30571766,8,41,0,0,20003,1496,1516,1132,1119,1012,1512,1512,1512,0,0,0,0,0,0,0,0,0,0,0,0,2
30760463,30760463,8,41,0,0,20004,1497,1516,1234,1203,1012,1512,1512,1513,0,0,0,0,0,0,0,0,0,0,0,0,2
30972075,30972075,8,41,0,0,20003,1497,1516,1286,1269,1012,1512,1512,1513,0,0,0,0,0,0,0,0,0,0,0,0,2
31182492,31182492,8,41,0,0,20004,1529,1511,1298,1284,1012,1513,1512,1512,0,0,0,0,0,0,0,0,0,0,0,0,2
31380926,31380926,8,41,0,0,20003,1539,1493,1315,1327,1012,1512,1513,1512,0,0,0,0,0,0,0,0,0,0,0,0,2
31570219,31570219,8,41,0,0,20003,1552,1484,1341,1371,1013,1512,1512,1512,0,0,0,0,0,0,0,0,0,0,0,0,2
31783315,31783315,8,41,0,0,20003,1589,1486,1354,1398,1012,1512,1513,1512,0,0,0,0,0,0,0,0,0,0,0,0,2
31973989,31973989,8,41,0,0,20004,1539,1514,1403,1499,1012,1512,1512,1513,0,0,0,0,0,0,0,0,0,0,0,0,2
32189556,32189556,8,41,0,0,20004,1498,1514,1334,1582,1012,1512,1512,1512,0,0,0,0,0,0,0,0,0,0,0,0,2
32380194,32380194,8,41,0,0,20003,1497,1514,1303,1742,1012,1512,1512,1513,0,0,0,0,0,0,0,0,0,0,0,0,2
32591830,32591830,8,41,0,0,20004,1498,1515,1343,1729,1012,1512,1512,1513,0,0,0,0,0,0,0,0,0,0,0,0,2
32805818,32805818,8,41,0,0,20004,1574,1514,1382,1701,1012,1512,1512,1513,0,0,0,0,0,0,0,0,0,0,0,0,2
33000077,33000077,8,41,0,0,20003,1582,1514,1402,1679,1012,1512,1513,1512,0,0,0,0,0,0,0,0,0,0,0,0,2
33194504,33194504,8,41,0,0,20004,1576,1514,1407,1677,1013,1512,1512,1512,0,0,0,0,0,0,0,0,0,0,0,0,2
33405992,33405992,8,41,0,0,20004,1502,1514,1459,1538,1013,1512,1512,1512,0,0,0,0,0,0,0,0,0,0,0,0,2
33615776,33615776,8,41,0,0,20003,1527,1514,1499,1503,1012,1512,1513,1512,0,0,0,0,0,0,0,0,0,0,0,0,2
33808112,33808112,8,41,0,0,20003,1554,1514,1510,1472,1012,1512,1512,1512,0,0,0,0,0,0,0,0,0,0,0,0,2
34021688,34021688,8,41,0,0,20003,1569,1515,1517,1477,1012,1513,1512,1512,0,0,0,0,0,0,0,0,0,0,0,0,2
34212573,34212573,8,41,0,0,20004,1550,1514,1527,1492,1012,1512,1512,1513,0,0,0,0,0,0,0,0,0,0,0,0,2
34424021,34424021,8,41,0,0,20004,1543,1467,1527,1475,1012,1512,1512,1513,0,0,0,0,0,0,0,0,0,0,0,0,2
34615418,34615418,8,41,0,0,20003,1523,1433,1526,1408,1012,1512,1512,1531,0,0,0,0,0,0,0,0,0,0,0,0,2
34826977,34826977,8,41,0,0,20004,1498,1429,1526,1407,1012,1512,1512,1513,0,0,0,0,0,0,0,0,0,0,0,0,2
35016451,35016451,8,41,0,0,20003,1502,1447,1539,1410,1012,1512,1513,1522,0,0,0,0,0,0,0,0,0,0,0,0,2
35228396,35228396,8,41,0,0,20004,1550,1449,1586,1428,1012,1512,1513,1512,0,0,0,0,0,0,0,0,0,0,0,0,2
35437727,35437727,8,41,0,0,20003,1553,1491,1667,1459,1012,1512,1512,1512,0,0,0,0,0,0,0,0,0,0,0,0,2
35629408,35629408,8,41,0,0,20003,1554,1501,1819,1427,1012,1513,1512,1512,0,0,0,0,0,0,0,0,0,0,0,0,2
35821582,35821582,8,41,0,0,20003,1575,1489,1741,1317,1013,1512,1512,1512,0,0,0,0,0,0,0,0,0,0,0,0,2
36035571,36035571,8,41,0,0,20004,1556,1488,1344,1369,1012,1513,1512,1512,0,0,0,0,0,0,0,0,0,0,0,0,2
36245190,36245190,8,41,0,0,20003,1497,1514,1116,1431,1012,1513,1512,1512,0,0,0,0,0,0,0,0,0,0,0,0,2
36440605,36440605,8,41,0,0,20004,1519,1513,1116,1436,1012,1513,1512,1512,0,0,0,0,0,0,0,0,0,0,0,0,2
36637182,36637182,8,41,0,0,20004,1522,1513,1127,1413,1012,1512,1512,1513,0,0,0,0,0,0,0,0,0,0,0,0,2
36849437,36849437,8,41,0,0,20004,1498,1492,1318,1400,1012,1512,1512,1513,0,0,0,0,0,0,0,0,0,0,0,0,2
37048060,37048060,8,41,0,0,20003,1498,1494,1635,1396,1012,1513,1512,1512,0,0,0,0,0,0,0,0,0,0,0,0,2
37241776,37241776,8,41,0,0,20004,1541,1490,1735,1385,1013,1512,1512,1512,0,0,0,0,0,0,0,0,0,0,0,0,2
37455575,37455575,8,41,0,0,20003,1570,1492,1766,1392,1012,1513,1512,1512,0,0,0,0,0,0,0,0,0,0,0,0,2
37652390,37652390,8,41,0,0,20003,1608,1470,1763,1395,1012,1512,1512,1513,0,0,0,0,0,0,0,0,0,0,0,0,2
37864860,37864860,8,41,0,0,20003,1660,1488,1762,1433,1012,1512,1512,1512,0,0,0,0,0,0,0,0,0,0,0,0,2
38057986,38057986,8,41,0,0,20003,1670,1514,1617,1479,1012,1512,1512,1513,0,0,0,0,0,0,0,0,0,0,0,0,2
38269382,38269382,8,41,0,0,20003,1498,1515,1260,1521,1013,1512,1512,1512,0,0,0,0,0,0,0,0,0,0,0,0,2
38457861,38457861,8,41,0,0,20003,1497,1514,1179,1468,1012,1512,1512,1513,0,0,0,0,0,0,0,0,0,0,0,0,2
38671308,38671308,8,41,0,0,20004,1498,1516,1209,1490,1013,1512,1512,1512,0,0,0,0,0,0,0,0,0,0,0,0,2
38882696,38882696,8,41,0,0,20003,1500,1519,1417,1489,1012,1512,1513,1512,0,0,0,0,0,0,0,0,0,0,0,0,2
39074039,39074039,8,41,0,0,20003,1518,1534,1633,1484,1013,1512,1512,1512,0,0,0,0,0,0,0,0,0,0,0,0,2
39285594,39285594,8,41,0,0,20004,1517,1542,1765,1471,1013,1512,1512,1512,0,0,0,0,0,0,0,0,0,0,0,0,2
39479326,39479326,8,41,0,0,20004,1519,1537,1784,1458,1012,1512,1512,1512,0,0,0,0,0,0,0,0,0,0,0,0,2
39687128,39687128,8,41,0,0,20004,1550,1517,1438,1415,1012,1513,1512,1512,0,0,0,0,0,0,0,0,0,0,0,0,2
39875825,39875825,8,41,0,0,20004,1557,1517,1116,1436,1013,1512,1512,1512,0,0,0,0,0,0,0,0,0,0,0,0,2
40094999,40094999,8,41,0,0,20004,1575,1516,1116,1469,1012,1513,1512,1512,0,0,0,0,0,0,0,0,0,0,0,0,2
40287185,40287185,8,41,0,0,20003,1572,1516,1147,1468,1012,1512,1512,1513,0,0,0,0,0,0,0,0,0,0,0,0,2
40501031,40501031,8,41,0,0,20003,1571,1515,1303,1465,1012,1513,1512,1512,0,0,0,0,0,0,0,0,0,0,0,0,2
40688600,40688600,8,41,0,0,20003,1567,1515,1609,1446,1012,1512,1513,1512,0,0,0,0,0,0,0,0,0,0,0,0,2
40903801,40903801,8,41,0,0,20004,1558,1515,1713,1437,1013,1512,1512,1512,0,0,0,0,0,0,0,0,0,0,0,0,2
41097080,41097080,8,41,0,0,20003,1557,1516,1760,1432,1012,1512,1513,1512,0,0,0,0,0,0,0,0,0,0,0,0,2
41312961,41312961,8,41,0,0,20004,1499,1427,1759,1449,1012,1512,1512,1513,0,0,0,0,0,0,0,0,0,0,0,0,2
41502506,41502506,8,41,0,0,20004,1497,1438,1758,1456,1012,1512,1513,1512,0,0,0,0,0,0,0,0,0,0,0,0,2
41698753,41698753,8,41,0,0,20004,1506,1466,1779,1474,1013,1512,1512,1512,0,0,0,0,0,0,0,0,0,0,0,0,2
41904593,41904593,8,41,0,0,20003,1499,1481,1769,1471,1012,1512,1513,1512,0,0,0,0,0,0,0,0,0,0,0,0,2
42116984,42116984,8,41,0,0,20004,1497,1489,1345,1445,1012,1512,1512,1513,0,0,0,0,0,0,0,0,0,0,0,0,2
42306999,42306999,8,41,0,0,20003,1512,1514,1116,1452,1012,1513,1512,1512,0,0,0,0,0,0,0,0,0,0,0,0,2
42712590,42712590,8,41,0,0,20003,1537,1514,1116,1453,1012,1513,1512,1512,0,0,0,0,0,0,0,0,0,0,0,0,2
42921853,42921853,8,41,0,0,20003,1568,1504,1267,1464,1012,1512,1512,1513,0,0,0,0,0,0,0,0,0,0,0,0,2
43133654,43133654,8,41,0,0,20003,1566,1514,1424,1496,1012,1512,1512,1512,0,0,0,0,0,0,0,0,0,0,0,0,2
43330211,43330211,8,41,0,0,20003,1554,1514,1661,1474,1012,1513,1512,1512,0,0,0,0,0,0,0,0,0,0,0,0,2
43523219,43523219,8,41,0,0,20003,1555,1515,1686,1458,1012,1513,1512,1512,0,0,0,0,0,0,0,0,0,0,0,0,2
43734620,43734620,8,41,0,0,20003,1546,1515,1733,1428,1012,1513,1512,1512,0,0,0,0,0,0,0,0,0,0,0,0,2
43924819,43924819,8,41,0,0,20003,1549,1515,1760,1431,1012,1513,1512,1512,0,0,0,0,0,0,0,0,0,0,0,0,2
44136870,44136870,8,41,0,0,20003,1555,1515,1761,1433,1012,1513,1512,1512,0,0,0,0,0,0,0,0,0,0,0,0,2
44351273,44351273,8,41,0,0,20003,1510,1490,1535,1412,1012,1512,1513,1512,0,0,0,0,0,0,0,0,0,0,0,0,2
44545684,44545684,8,41,0,0,20003,1473,1376,1400,1511,1013,1512,1512,1512,0,0,0,0,0,0,0,0,0,0,0,0,2
44756634,44756634,8,41,0,0,20004,1472,1373,1396,1512,1012,1512,1513,1512,0,0,0,0,0,0,0,0,0,0,0,0,2
44952617,44952617,8,41,0,0,20004,1498,1460,1403,1512,1013,1512,1512,1547,0,0,0,0,0,0,0,0,0,0,0,0,2
45164137,45164137,8,41,0,0,20004,1497,1515,1329,1511,1012,1512,1513,1512,0,0,0,0,0,0,0,0,0,0,0,0,2
45354329,45354329,8,41,0,0,20004,1497,1514,1292,1490,1013,1512,1512,1512,0,0,0,0,0,0,0,0,0,0,0,0,2
45565342,45565342,8,41,0,0,20004,1497,1515,1271,1454,1012,1513,1512,1512,0,0,0,0,0,0,0,0,0,0,0,0,2
45758502,45758502,8,41,0,0,20004,1498,1515,1308,1411,1013,1512,1512,1512,0,0,0,0,0,0,0,0,0,0,0,0,2
45971462,45971462,8,41,0,0,20003,1498,1515,1656,1446,1013,1512,1512,1512,0,0,0,0,0,0,0,0,0,0,0,0,2
46164274,46164274,8,41,0,0,20004,1501,1514,1838,1460,1012,1512,1512,1512,0,0,0,0,0,0,0,0,0,0,0,0,2
46358426,46358426,8,41,0,0,20003,1527,1516,1869,1457,1012,1513,1512,1512,0,0,0,0,0,0,0,0,0,0,0,0,2
46571702,46571702,8,41,0,0,20003,1561,1442,1869,1449,1012,1512,1513,1512,0,0,0,0,0,0,0,0,0,0,0,0,2
46782205,46782205,8,41,0,0,20003,1524,1439,1853,1449,1013,1512,1512,1512,0,0,0,0,0,0,0,0,0,0,0,0,2
46972076,46972076,8,41,0,0,20003,1532,1456,1874,1470,1012,1512,1513,1512,0,0,0,0,0,0,0,0,0,0,0,0,2
47183421,47183421,8,41,0,0,20004,1535,1468,1289,1366,1013,1512,1512,1512,0,0,0,0,0,0,0,0,0,0,0,0,2
47370982,47370982,8,41,0,0,20004,1527,1494,1117,1511,1012,1512,1513,1512,0,0,0,0,0,0,0,0,0,0,0,0,2
47582426,47582426,8,41,0,0,20003,1521,1514,1116,1496,1013,1512,1512,1512,0,0,0,0,0,0,0,0,0,0,0,0,2
47795029,47795029,8,41,0,0,20004,1516,1513,1116,1466,1012,1513,1512,1512,0,0,0,0,0,0,0,0,0,0,0,0,2
47986603,47986603,8,41,0,0,20003,1511,1513,1286,1464,1012,1512,1512,1513,0,0,0,0,0,0,0,0,0,0,0,0,2
48200090,48200090,8,41,0,0,20004,1513,1513,1482,1469,1013,1512,1512,1512,0,0,0,0,0,0,0,0,0,0,0,0,2
48395326,48395326,8,41,0,0,20004,1519,1513,1659,1464,1012,1512,1513,1512,0,0,0,0,0,0,0,0,0,0,0,0,2
48606657,48606657,8,41,0,0,20004,1530,1509,1704,1457,1013,1512,1512,1512,0,0,0,0,0,0,0,0,0,0,0,0,2
48801021,48801021,8,41,0,0,20003,1533,1508,1766,1453,1012,1512,1513,1512,0,0,0,0,0,0,0,0,0,0,0,0,2
48991236,48991236,8,41,0,0,20003,1528,1503,1787,1430,1013,1512,1512,1512,0,0,0,0,0,0,0,0,0,0,0,0,2
49199422,49199422,8,41,0,0,20004,1514,1423,1770,1421,1012,1512,1513,1512,0,0,0,0,0,0,0,0,0,0,0,0,2
49412821,49412821,8,41,0,0,20004,1502,1441,1733,1425,1012,1512,1513,1512,0,0,0,0,0,0,0,0,0,0,0,0,2
49606236,49606236,8,41,0,0,20004,1508,1514,1321,1377,1012,1513,1512,1512,0,0,0,0,0,0,0,0,0,0,0,0,2
49800236,49800236,8,41,0,0,20004,1508,1515,1116,1420,1013,1512,1512,1512,0,0,0,0,0,0,0,0,0,0,0,0,2
50011353,50011353,8,41,0,0,20003,1504,1514,1116,1384,1012,1513,1512,1512,0,0,0,0,0,0,0,0,0,0,0,0,2
50221683,50221683,8,41,0,0,20003,1527,1514,1139,1389,1012,1512,1512,1513,0,0,0,0,0,0,0,0,0,0,0,0,2
50413031,50413031,8,41,0,0,20003,1559,1514,1274,1387,1013,1512,1512,1512,0,0,0,0,0,0,0,0,0,0,0,0,2
50624935,50624935,8,41,0,0,20003,1535,1504,1515,1397,1012,1512,1513,1512,0,0,0,0,0,0,0,0,0,0,0,0,2
50820868,50820868,8,41,0,0,20004,1523,1503,1800,1423,1013,1512,1512,1512,0,0,0,0,0,0,0,0,0,0,0,0,2
51016068,51016068,8,41,0,0,20003,1553,1504,1820,1429,1012,1512,1513,1512,0,0,0,0,0,0,0,0,0,0,0,0,2
51231939,51231939,8,41,0,0,20004,1522,1495,1838,1410,1012,1512,1513,1512,0,0,0,0,0,0,0,0,0,0,0,0,2
51438726,51438726,8,41,0,0,20003,1532,1477,1831,1415,1013,1512,1512,1512,0,0,0,0,0,0,0,0,0,0,0,0,2
51629978,51629978,8,41,0,0,20004,1559,1468,1816,1441,1012,1512,1513,1512,0,0,0,0,0,0,0,0,0,0,0,0,2
51844168,51844168,8,41,0,0,20004,1563,1474,1642,1479,1013,1512,1512,1512,0,0,0,0,0,0,0,0,0,0,0,0,2
52033684,52033684,8,41,0,0,20003,1559,1485,1170,1479,1012,1512,1513,1512,0,0,0,0,0,0,0,0,0,0,0,0,2
52242078,52242078,8,41,0,0,20003,1571,1494,1116,1512,1013,1512,1512,1512,0,0,0,0,0,0,0,0,0,0,0,0,2
52452055,52452055,8,41,0,0,20003,1542,1515,1116,1511,1012,1513,1512,1512,0,0,0,0,0,0,0,0,0,0,0,0,2
52643438,52643438,8,41,0,0,20004,1528,1514,1293,1507,1013,1512,1512,1512,0,0,0,0,0,0,0,0,0,0,0,0,2
52858226,52858226,8,41,0,0,20004,1535,1512,1573,1466,1013,1512,1512,1512,0,0,0,0,0,0,0,0,0,0,0,0,2
53047769,53047769,8,41,0,0,20003,1541,1497,1718,1462,1012,1512,1513,1512,0,0,0,0,0,0,0,0,0,0,0,0,2
53260072,53260072,8,41,0,0,20004,1554,1491,1761,1449,1013,1512,1512,1512,0,0,0,0,0,0,0,0,0,0,0,0,2
53453729,53453729,8,41,0,0,20003,1543,1493,1783,1438,1012,1512,1513,1512,0,0,0,0,0,0,0,0,0,0,0,0,2
53857700,53857700,8,41,0,0,20003,1525,1501,1727,1458,1012,1512,1513,1512,0,0,0,0,0,0,0,0,0,0,0,0,2
54070562,54070562,8,41,0,0,20003,1529,1512,1117,1422,1012,1512,1513,1512,0,0,0,0,0,0,0,0,0,0,0,0,2
54261184,54261184,8,41,0,0,20003,1532,1514,1116,1506,1012,1512,1513,1512,0,0,0,0,0,0,0,0,0,0,0,0,2
54476384,54476384,8,41,0,0,20003,1527,1514,1117,1509,1012,1512,1513,1512,0,0,0,0,0,0,0,0,0,0,0,0,2
54665299,54665299,8,41,0,0,20003,1521,1515,1116,1509,1012,1513,1512,1512,0,0,0,0,0,0,0,0,0,0,0,0,2
54872221,54872221,8,41,0,0,20003,1513,1515,1450,1480,1012,1512,1513,1512,0,0,0,0,0,0,0,0,0,0,0,0,2
55065669,55065669,8,41,0,0,20003,1513,1514,1772,1470,1012,1513,1512,1512,0,0,0,0,0,0,0,0,0,0,0,0,2
55280220,55280220,8,41,0,0,20003,1509,1515,1863,1489,1012,1513,1512,1512,0,0,0,0,0,0,0,0,0,0,0,0,2
55491329,55491329,8,41,0,0,20004,1514,1504,1877,1459,1012,1512,1513,1512,0,0,0,0,0,0,0,0,0,0,0,0,2
55681189,55681189,8,41,0,0,20003,1522,1472,1856,1460,1012,1513,1512,1512,0,0,0,0,0,0,0,0,0,0,0,0,2
55889116,55889116,8,41,0,0,20003,1527,1462,1819,1448,1012,1512,1513,1512,0,0,0,0,0,0,0,0,0,0,0,0,2
56079272,56079272,8,41,0,0,20003,1541,1449,1775,1427,1012,1513,1512,1512,0,0,0,0,0,0,0,0,0,0,0,0,2
56290814,56290814,8,41,0,0,20003,1543,1452,1470,1493,1012,1513,1512,1512,0,0,0,0,0,0,0,0,0,0,0,0,2
56486500,56486500,8,41,0,0,20003,1525,1481,1116,1513,1012,1512,1512,1512,0,0,0,0,0,0,0,0,0,0,0,0,2
56696064,56696064,8,41,0,0,20003,1514,1503,1116,1512,1012,1513,1512,1512,0,0,0,0,0,0,0,0,0,0,0,0,2
56887312,56887312,8,41,0,0,20004,1508,1498,1116,1506,1012,1512,1512,1513,0,0,0,0,0,0,0,0,0,0,0,0,2
57102736,57102736,8,41,0,0,20003,1504,1500,1196,1486,1012,1513,1512,1512,0,0,0,0,0,0,0,0,0,0,0,0,2
57296060,57296060,8,41,0,0,20003,1506,1487,1493,1505,1012,1512,1512,1513,0,0,0,0,0,0,0,0,0,0,0,0,2
57510960,57510960,8,41,0,0,20004,1533,1488,1841,1465,1012,1512,1512,1513,0,0,0,0,0,0,0,0,0,0,0,0,2
57698544,57698544,8,41,0,0,20004,1540,1495,1917,1475,1012,1512,1513,1512,0,0,0,0,0,0,0,0,0,0,0,0,2
57908842,57908842,8,41,0,0,20003,1551,1504,1916,1468,1012,1512,1512,1513,0,0,0,0,0,0,0,0,0,0,0,0,2
58124099,58124099,8,41,0,0,20003,1538,1507,1916,1467,1013,1512,1512,1512,0,0,0,0,0,0,0,0,0,0,0,0,2
58323112,58323112,8,41,0,0,20004,1540,1507,1898,1450,1012,1512,1513,1512,0,0,0,0,0,0,0,0,0,0,0,0,2
58517428,58517428,8,41,0,0,20004,1546,1503,1876,1450,1013,1512,1512,1512,0,0,0,0,0,0,0,0,0,0,0,0,2
58729298,58729298,8,41,0,0,20003,1521,1492,1653,1388,1012,1513,1512,1512,0,0,0,0,0,0,0,0,0,0,0,0,2
58919285,58919285,8,41,0,0,20004,1512,1488,1132,1433,1013,1512,1512,1512,0,0,0,0,0,0,0,0,0,0,0,0,2
59134210,59134210,8,41,0,0,20003,1511,1489,1116,1463,1012,1513,1512,1512,0,0,0,0,0,0,0,0,0,0,0,0,2
59321134,59321134,8,41,0,0,20003,1502,1483,1116,1444,1013,1512,1512,1512,0,0,0,0,0,0,0,0,0,0,0,0,2
59534617,59534617,8,41,0,0,20003,1498,1473,1116,1436,1012,1513,1512,1512,0,0,0,0,0,0,0,0,0,0,0,0,2
59722491,59722491,8,41,0,0,20004,1498,1470,1231,1432,1012,1512,1512,1512,0,0,0,0,0,0,0,0,0,0,0,0,2
59938451,59938451,8,41,0,0,20003,1518,1492,1868,1512,1012,1512,1512,1512,0,0,0,0,0,0,0,0,0,0,0,0,2
60132128,60132128,8,41,0,0,20003,1540,1509,1916,1501,1012,1513,1512,1512,0,0,0,0,0,0,0,0,0,0,0,0,2
60347725,60347725,8,41,0,0,20004,1553,1490,1917,1485,1012,1512,1513,1512,0,0,0,0,0,0,0,0,0,0,0,0,2
60538821,60538821,8,41,0,0,20003,1550,1454,1885,1452,1012,1513,1512,1512,0,0,0,0,0,0,0,0,0,0,0,0,2
60748634,60748634,8,41,0,0,20003,1529,1456,1775,1396,1012,1512,1513,1512,0,0,0,0,0,0,0,0,0,0,0,0,2
60958549,60958549,8,41,0,0,20004,1529,1478,1587,1359,1012,1512,1512,1512,0,0,0,0,0,0,0,0,0,0,0,0,2
61147341,61147341,8,41,0,0,20003,1519,1495,1156,1275,1012,1512,1512,1513,0,0,0,0,0,0,0,0,0,0,0,0,2
61356393,61356393,8,41,0,0,20004,1507,1510,1116,1318,1012,1512,1512,1512,0,0,0,0,0,0,0,0,0,0,0,0,2
61564372,61564372,8,41,0,0,20003,1505,1508,1281,1317,1012,1513,1512,1512,0,0,0,0,0,0,0,0,0,0,0,0,2
61759704,61759704,8,41,0,0,20003,1512,1508,1674,1421,1012,1512,1512,1513,0,0,0,0,0,0,0,0,0,0,0,0,2
61953435,61953435,8,41,0,0,20003,1521,1502,1749,1438,1012,1513,1512,1512,0,0,0,0,0,0,0,0,0,0,0,0,2
62167375,62167375,8,41,0,0,20003,1534,1514,1789,1484,1012,1512,1513,1512,0,0,0,0,0,0,0,0,0,0,0,0,2
62361410,62361410,8,41,0,0,20004,1546,1513,1786,1511,1013,1512,1512,1512,0,0,0,0,0,0,0,0,0,0,0,0,2
62571277,62571277,8,41,0,0,20003,1539,1515,1488,1378,1012,1513,1512,1512,0,0,0,0,0,0,0,0,0,0,0,0,2
62782709,62782709,8,41,0,0,20004,1535,1514,1116,1326,1012,1512,1512,1513,0,0,0,0,0,0,0,0,0,0,0,0,2
62971806,62971806,8,41,0,0,20004,1537,1514,1116,1373,1012,1513,1512,1512,0,0,0,0,0,0,0,0,0,0,0,0,2
63185847,63185847,8,41,0,0,20004,1535,1513,1117,1410,1012,1512,1512,1513,0,0,0,0,0,0,0,0,0,0,0,0,2
63380860,63380860,8,41,0,0,20004,1530,1513,1441,1458,1013,1512,1512,1512,0,0,0,0,0,0,0,0,0,0,0,0,2
63592043,63592043,8,41,0,0,20003,1525,1515,1816,1454,1013,1512,1512,1512,0,0,0,0,0,0,0,0,0,0,0,0,2
63786235,63786235,8,41,0,0,20003,1527,1515,1868,1471,1012,1512,1512,1512,0,0,0,0,0,0,0,0,0,0,0,0,2
63976872,63976872,8,41,0,0,20003,1528,1516,1891,1491,1012,1513,1512,1512,0,0,0,0,0,0,0,0,0,0,0,0,2
64189189,64189189,8,41,0,0,20004,1520,1514,1868,1459,1012,1512,1513,1512,0,0,0,0,0,0,0,0,0,0,0,0,2
64403298,64403298,8,41,0,0,20004,1516,1514,1852,1447,1012,1512,1512,1512,0,0,0,0,0,0,0,0,0,0,0,0,2
64600251,64600251,8,41,0,0,20003,1519,1515,1432,1512,1012,1512,1513,1512,0,0,0,0,0,0,0,0,0,0,0,0,2
64790544,64790544,8,41,0,0,20004,1520,1514,1116,1513,1012,1512,1512,1512,0,0,0,0,0,0,0,0,0,0,0,0,2
65008908,65008908,8,41,0,0,20004,1519,1514,1116,1510,1013,1512,1512,1512,0,0,0,0,0,0,0,0,0,0,0,0,2
65202617,65202617,8,41,0,0,20003,1515,1514,1116,1484,1012,1512,1512,1513,0,0,0,0,0,0,0,0,0,0,0,0,2
65412598,65412598,8,41,0,0,20004,1511,1514,1294,1468,1012,1512,1512,1512,0,0,0,0,0,0,0,0,0,0,0,0,2
65602131,65602131,8,41,0,0,20003,1513,1515,1917,1511,1012,1512,1513,1512,0,0,0,0,0,0,0,0,0,0,0,0,2
65819920,65819920,8,41,0,0,20003,1509,1514,1917,1495,1012,1512,1512,1513,0,0,0,0,0,0,0,0,0,0,0,0,2
66014318,66014318,8,41,0,0,20003,1513,1515,1916,1510,1012,1513,1512,1512,0,0,0,0,0,0,0,0,0,0,0,0,2
66228402,66228402,8,41,0,0,20003,1539,1481,1917,1511,1012,1512,1513,1512,0,0,0,0,0,0,0,0,0,0,0,0,2
66415000,66415000,8,41,0,0,20003,1545,1457,1911,1564,1013,1512,1512,1512,0,0,0,0,0,0,0,0,0,0,0,0,2
66626468,66626468,8,41,0,0,20004,1544,1464,1564,1511,1012,1512,1513,1512,0,0,0,0,0,0,0,0,0,0,0,0,2
66838205,66838205,8,41,0,0,20004,1545,1465,1116,1441,1012,1512,1512,1513,0,0,0,0,0,0,0,0,0,0,0,0,2
67034785,67034785,8,41,0,0,20003,1553,1468,1116,1511,1012,1513,1512,1512,0,0,0,0,0,0,0,0,0,0,0,0,2
67223357,67223357,8,41,0,0,20004,1528,1515,1116,1515,1012,1512,1512,1512,0,0,0,0,0,0,0,0,0,0,0,0,2
67435378,67435378,8,41,0,0,20004,1523,1514,1116,1459,1013,1512,1512,1512,0,0,0,0,0,0,0,0,0,0,0,0,2
67648069,67648069,8,41,0,0,20003,1527,1505,1408,1452,1012,1512,1513,1528,0,0,0,0,0,0,0,0,0,0,0,0,2
67839221,67839221,8,41,0,0,20004,1531,1498,1916,1510,1012,1512,1512,1513,0,0,0,0,0,0,0,0,0,0,0,0,2
68046503,68046503,8,41,0,0,20003,1532,1502,1916,1495,1012,1513,1512,1512,0,0,0,0,0,0,0,0,0,0,0,0,2
68240022,68240022,8,41,0,0,20003,1536,1502,1917,1482,1012,1512,1512,1513,0,0,0,0,0,0,0,0,0,0,0,0,2
68452729,68452729,8,41,0,0,20003,1535,1489,1916,1452,1012,1512,1512,1513,0,0,0,0,0,0,0,0,0,0,0,0,2
68645626,68645626,8,41,0,0,20004,1547,1479,1917,1434,1012,1512,1513,1512,0,0,0,0,0,0,0,0,0,0,0,0,2
68840908,68840908,8,41,0,0,20004,1545,1477,1908,1433,1013,1512,1512,1512,0,0,0,0,0,0,0,0,0,0,0,0,2
69059223,69059223,8,41,0,0,20004,1541,1491,1341,1337,1012,1513,1512,1512,0,0,0,0,0,0,0,0,0,0,0,0,2
69251295,69251295,8,41,0,0,20003,1538,1492,1117,1320,1012,1512,1512,1513,0,0,0,0,0,0,0,0,0,0,0,0,2
69467130,69467130,8,41,0,0,20004,1538,1491,1116,1356,1012,1513,1512,1512,0,0,0,0,0,0,0,0,0,0,0,0,2
69660300,69660300,8,41,0,0,20003,1534,1492,1116,1335,1012,1512,1512,1513,0,0,0,0,0,0,0,0,0,0,0,0,2
69872231,69872231,8,41,0,0,20003,1534,1490,1578,1294,1012,1512,1512,1525,0,0,0,0,0,0,0,0,0,0,0,0,2
70062546,70062546,8,41,0,0,20003,1529,1491,1890,1391,1012,1512,1512,1513,0,0,0,0,0,0,0,0,0,0,0,0,2
70276593,70276593,8,41,0,0,20004,1531,1495,1916,1437,1012,1512,1512,1512,0,0,0,0,0,0,0,0,0,0,0,0,2
70464061,70464061,8,41,0,0,20003,1532,1495,1916,1485,1012,1512,1512,1513,0,0,0,0,0,0,0,0,0,0,0,0,2
70676130,70676130,8,41,0,0,20004,1535,1491,1916,1521,1013,1512,1512,1512,0,0,0,0,0,0,0,0,0,0,0,0,2
70886945,70886945,8,41,0,0,20004,1531,1498,1477,1458,1012,1512,1513,1512,0,0,0,0,0,0,0,0,0,0,0,0,2
71081066,71081066,8,41,0,0,20004,1533,1498,1116,1511,1012,1513,1512,1512,0,0,0,0,0,0,0,0,0,0,0,0,2
71274237,71274237,8,41,0,0,20003,1527,1501,1117,1485,1012,1512,1512,1513,0,0,0,0,0,0,0,0,0,0,0,0,2
71485661,71485661,8,41,0,0,20003,1529,1499,1116,1489,1012,1513,1512,1512,0,0,0,0,0,0,0,0,0,0,0,0,2
71698176,71698176,8,41,0,0,20003,1521,1500,1155,1471,1012,1512,1513,1512,0,0,0,0,0,0,0,0,0,0,0,0,2
71888290,71888290,8,41,0,0,20003,1522,1505,1629,1465,1012,1513,1512,1512,0,0,0,0,0,0,0,0,0,0,0,0,2
72103699,72103699,8,41,0,0,20003,1519,1507,1893,1510,1012,1513,1512,1512,0,0,0,0,0,0,0,0,0,0,0,0,2
72293202,72293202,8,41,0,0,20003,1519,1508,1916,1511,1012,1512,1512,1512,0,0,0,0,0,0,0,0,0,0,0,0,2
72501198,72501198,8,41,0,0,20003,1516,1507,1917,1514,1012,1512,1513,1512,0,0,0,0,0,0,0,0,0,0,0,0,2
72691799,72691799,8,41,0,0,20003,1515,1497,1908,1538,1012,1512,1512,1512,0,0,0,0,0,0,0,0,0,0,0,0,2
72902706,72902706,8,41,0,0,20003,1520,1481,1756,1539,1012,1512,1513,1512,0,0,0,0,0,0,0,0,0,0,0,0,2
73112862,73112862,8,41,0,0,20003,1514,1453,1204,1510,1012,1512,1512,1513,0,0,0,0,0,0,0,0,0,0,0,0,2
73303014,73303014,8,41,0,0,20003,1529,1420,1117,1512,1012,1512,1512,1513,0,0,0,0,0,0,0,0,0,0,0,0,2
73514430,73514430,8,41,0,0,20004,1518,1423,1116,1512,1012,1512,1512,1513,0,0,0,0,0,0,0,0,0,0,0,0,2
73725957,73725957,8,41,0,0,20003,1504,1432,1293,1510,1012,1513,1512,1512,0,0,0,0,0,0,0,0,0,0,0,0,2
73916033,73916033,8,41,0,0,20003,1508,1438,1735,1513,1012,1512,1512,1513,0,0,0,0,0,0,0,0,0,0,0,0,2
74127463,74127463,8,41,0,0,20003,1534,1459,1883,1511,1012,1513,1512,1512,0,0,0,0,0,0,0,0,0,0,0,0,2
74318981,74318981,8,41,0,0,20004,1521,1493,1857,1512,1012,1512,1512,1513,0,0,0,0,0,0,0,0,0,0,0,0,2
74529034,74529034,8,41,0,0,20003,1559,1516,1882,1511,1012,1513,1512,1512,0,0,0,0,0,0,0,0,0,0,0,0,2
74722599,74722599,8,41,0,0,20004,1601,1517,1848,1487,1012,1512,1512,1512,0,0,0,0,0,0,0,0,0,0,0,0,2
74933225,74933225,8,41,0,0,20004,1557,1516,1610,1358,1012,1513,1512,1512,0,0,0,0,0,0,0,0,0,0,0,0,2
75128096,75128096,8,41,0,0,20004,1524,1515,1311,1117,1013,1512,1512,1512,0,0,0,0,0,0,0,0,0,0,0,0,2
75341822,75341822,8,41,0,0,20003,1522,1515,1265,1233,1012,1513,1512,1512,0,0,0,0,0,0,0,0,0,0,0,0,2
75534621,75534621,8,41,0,0,20003,1516,1515,1177,1302,1012,1512,1512,1513,0,0,0,0,0,0,0,0,0,0,0,0,2
75750694,75750694,8,41,0,0,20004,1529,1507,1695,1482,1012,1512,1512,1513,0,0,0,0,0,0,0,0,0,0,0,0,2
76139455,76139455,8,41,0,0,20003,1576,1455,1671,1512,1012,1513,1512,1512,0,0,0,0,0,0,0,0,0,0,0,0,2
76352595,76352595,8,41,0,0,20003,1540,1515,1627,1583,1012,1512,1513,1512,0,0,0,0,0,0,0,0,0,0,0,0,2
76564096,76564096,8,41,0,0,20004,1560,1573,1403,1653,1013,1512,1512,1512,0,0,0,0,0,0,0,0,0,0,0,0,2
76756203,76756203,8,41,0,0,20003,1544,1558,1407,1527,1012,1512,1513,1512,0,0,0,0,0,0,0,0,0,0,0,0,2
76950717,76950717,8,41,0,0,20004,1526,1570,1353,1472,1013,1512,1512,1512,0,0,0,0,0,0,0,0,0,0,0,0,2
77164383,77164383,8,41,0,0,20004,1517,1564,1430,1491,1012,1512,1513,1512,0,0,0,0,0,0,0,0,0,0,0,0,2
77359447,77359447,8,41,0,0,20004,1508,1540,1564,1454,1013,1512,1512,1512,0,0,0,0,0,0,0,0,0,0,0,0,2
77574192,77574192,8,41,0,0,20003,1498,1518,1543,1483,1012,1513,1512,1512,0,0,0,0,0,0,0,0,0,0,0,0,2
77762992,77762992,8,41,0,0,20003,1500,1516,1541,1490,1013,1512,1512,1512,0,0,0,0,0,0,0,0,0,0,0,0,2
77973418,77973418,8,41,0,0,20003,1522,1517,1556,1489,1012,1513,1512,1512,0,0,0,0,0,0,0,0,0,0,0,0,2
78176386,78176386,8,41,0,0,20004,1543,1515,1691,1447,1012,1512,1512,1513,0,0,0,0,0,0,0,0,0,0,0,0,2
78390877,78390877,8,41,0,0,20004,1570,1495,1875,1491,1012,1512,1512,1512,0,0,0,0,0,0,0,0,0,0,0,0,2
78586198,78586198,8,41,0,0,20003,1532,1491,1858,1452,1012,1512,1512,1513,0,0,0,0,0,0,0,0,0,0,0,0,2
78781668,78781668,8,41,0,0,20003,1507,1481,1824,1409,1012,1513,1512,1512,0,0,0,0,0,0,0,0,0,0,0,0,2
78996141,78996141,8,41,0,0,20003,1501,1483,1526,1381,1012,1512,1513,1529,0,0,0,0,0,0,0,0,0,0,0,0,2
79186450,79186450,8,41,0,0,20003,1511,1481,1160,1454,1012,1512,1513,1512,0,0,0,0,0,0,0,0,0,0,0,0,2
79401902,79401902,8,41,0,0,20003,1519,1482,1117,1512,1012,1512,1512,1513,0,0,0,0,0,0,0,0,0,0,0,0,2
79591220,79591220,8,41,0,0,20004,1521,1480,1116,1506,1012,1513,1512,1512,0,0,0,0,0,0,0,0,0,0,0,0,2
79804183,79804183,8,41,0,0,20004,1514,1479,1133,1466,1012,1512,1512,1513,0,0,0,0,0,0,0,0,0,0,0,0,2
79992820,79992820,8,41,0,0,20004,1515,1476,1553,1416,1013,1512,1512,1512,0,0,0,0,0,0,0,0,0,0,0,0,2
80207913,80207913,8,41,0,0,20003,1544,1486,1838,1449,1012,1512,1513,1512,0,0,0,0,0,0,0,0,0,0,0,0,2
80402673,80402673,8,41,0,0,20004,1550,1514,1863,1475,1013,1512,1512,1512,0,0,0,0,0,0,0,0,0,0,0,0,2
80617223,80617223,8,41,0,0,20003,1557,1515,1891,1477,1012,1513,1512,1512,0,0,0,0,0,0,0,0,0,0,0,0,2
80808306,80808306,8,41,0,0,20003,1563,1514,1894,1473,1013,1512,1512,1512,0,0,0,0,0,0,0,0,0,0,0,0,2
81017105,81017105,8,41,0,0,20003,1510,1458,1836,1426,1012,1513,1512,1512,0,0,0,0,0,0,0,0,0,0,0,0,2
81225882,81225882,8,41,0,0,20004,1503,1451,1576,1410,1012,1512,1512,1513,0,0,0,0,0,0,0,0,0,0,0,0,2
81417768,81417768,8,41,0,0,20003,1507,1459,1276,1438,1012,1512,1513,1512,0,0,0,0,0,0,0,0,0,0,0,0,2
81631344,81631344,8,41,0,0,20003,1509,1471,1117,1478,1012,1512,1513,1512,0,0,0,0,0,0,0,0,0,0,0,0,2
81821724,81821724,8,41,0,0,20003,1497,1484,1116,1475,1012,1512,1513,1512,0,0,0,0,0,0,0,0,0,0,0,0,2
82036916,82036916,8,41,0,0,20003,1497,1484,1286,1467,1012,1512,1513,1512,0,0,0,0,0,0,0,0,0,0,0,0,2
82229323,82229323,8,41,0,0,20003,1497,1497,1389,1465,1012,1512,1513,1512,0,0,0,0,0,0,0,0,0,0,0,0,2
82442582,82442582,8,41,0,0,20004,1501,1506,1700,1432,1012,1512,1513,1512,0,0,0,0,0,0,0,0,0,0,0,0,2
82633670,82633670,8,41,0,0,20004,1518,1512,1795,1448,1013,1512,1512,1512,0,0,0,0,0,0,0,0,0,0,0,0,2
82849433,82849433,8,41,0,0,20003,1535,1504,1807,1450,1012,1512,1513,1512,0,0,0,0,0,0,0,0,0,0,0,0,2
83041007,83041007,8,41,0,0,20004,1543,1482,1817,1446,1013,1512,1512,1512,0,0,0,0,0,0,0,0,0,0,0,0,2
83252592,83252592,8,41,0,0,20003,1540,1478,1814,1449,1012,1513,1512,1512,0,0,0,0,0,0,0,0,0,0,0,0,2
83444825,83444825,8,41,0,0,20004,1554,1493,1632,1453,1013,1512,1512,1512,0,0,0,0,0,0,0,0,0,0,0,0,2
83658480,83658480,8,41,0,0,20003,1562,1501,1178,1447,1012,1513,1512,1512,0,0,0,0,0,0,0,0,0,0,0,0,2
83847724,83847724,8,41,0,0,20004,1562,1504,1116,1434,1012,1513,1512,1512,0,0,0,0,0,0,0,0,0,0,0,0,2
84061649,84061649,8,41,0,0,20003,1566,1504,1116,1442,1012,1513,1512,1512,0,0,0,0,0,0,0,0,0,0,0,0,2
84252093,84252093,8,41,0,0,20003,1543,1507,1278,1423,1012,1512,1512,1513,0,0,0,0,0,0,0,0,0,0,0,0,2
84467579,84467579,8,41,0,0,20003,1528,1515,1526,1424,1012,1513,1512,1512,0,0,0,0,0,0,0,0,0,0,0,0,2
84660162,84660162,8,41,0,0,20004,1529,1514,1845,1408,1012,1512,1512,1513,0,0,0,0,0,0,0,0,0,0,0,0,2
84852941,84852941,8,41,0,0,20003,1522,1515,1897,1419,1012,1513,1512,1512,0,0,0,0,0,0,0,0,0,0,0,0,2
85065991,85065991,8,41,0,0,20003,1527,1491,1916,1448,1012,1512,1512,1513,0,0,0,0,0,0,0,0,0,0,0,0,2
85273989,85273989,8,41,0,0,20003,1538,1467,1913,1468,1012,1512,1512,1513,0,0,0,0,0,0,0,0,0,0,0,0,2
85467781,85467781,8,41,0,0,20004,1545,1468,1833,1511,1012,1512,1512,1513,0,0,0,0,0,0,0,0,0,0,0,0,2
85679017,85679017,8,41,0,0,20004,1540,1479,1415,1512,1012,1512,1512,1512,0,0,0,0,0,0,0,0,0,0,0,0,2
85889710,85889710,8,41,0,0,20003,1532,1485,1116,1511,1012,1512,1513,1512,0,0,0,0,0,0,0,0,0,0,0,0,2
86081700,86081700,8,41,0,0,20004,1526,1498,1147,1455,1013,1512,1512,1512,0,0,0,0,0,0,0,0,0,0,0,0,2
86276730,86276730,8,41,0,0,20003,1526,1515,1238,1452,1012,1512,1513,1512,0,0,0,0,0,0,0,0,0,0,0,0,2
86489725,86489725,8,41,0,0,20004,1527,1514,1528,1484,1012,1512,1512,1512,0,0,0,0,0,0,0,0,0,0,0,0,2
86697931,86697931,8,41,0,0,20003,1526,1514,1665,1467,1013,1512,1512,1512,0,0,0,0,0,0,0,0,0,0,0,0,2
86891828,86891828,8,41,0,0,20003,1533,1514,1717,1505,1012,1512,1513,1512,0,0,0,0,0,0,0,0,0,0,0,0,2
87106191,87106191,8,41,0,0,20003,1540,1514,1766,1512,1013,1512,1512,1512,0,0,0,0,0,0,0,0,0,0,0,0,2
87301763,87301763,8,41,0,0,20003,1543,1514,1740,1511,1012,1512,1513,1512,0,0,0,0,0,0,0,0,0,0,0,0,2
87512060,87512060,8,41,0,0,20003,1545,1514,1116,1468,1012,1512,1512,1513,0,0,0,0,0,0,0,0,0,0,0,0,2
87705349,87705349,8,41,0,0,20004,1544,1515,1117,1473,1012,1512,1513,1512,0,0,0,0,0,0,0,0,0,0,0,0,2
87920038,87920038,8,41,0,0,20003,1540,1516,1179,1438,1012,1512,1512,1513,0,0,0,0,0,0,0,0,0,0,0,0,2
88112025,88112025,8,41,0,0,20003,1534,1516,1415,1471,1012,1513,1512,1512,0,0,0,0,0,0,0,0,0,0,0,0,2
88305551,88305551,8,41,0,0,20003,1531,1515,1671,1470,1013,1512,1512,1512,0,0,0,0,0,0,0,0,0,0,0,0,2
88523270,88523270,8,41,0,0,20003,1531,1515,1774,1440,1012,1513,1512,1512,0,0,0,0,0,0,0,0,0,0,0,0,2
88717778,88717778,8,41,0,0,20003,1520,1495,1794,1441,1012,1512,1512,1513,0,0,0,0,0,0,0,0,0,0,0,0,2
88932628,88932628,8,41,0,0,20004,1528,1482,1801,1487,1012,1512,1512,1513,0,0,0,0,0,0,0,0,0,0,0,0,2
89120100,89120100,8,41,0,0,20003,1531,1454,1667,1484,1012,1512,1512,1513,0,0,0,0,0,0,0,0,0,0,0,0,2
89337628,89337628,8,41,0,0,20004,1521,1478,1231,1512,1012,1512,1512,1513,0,0,0,0,0,0,0,0,0,0,0,0,2
89529663,89529663,8,41,0,0,20003,1516,1492,1116,1559,1012,1512,1512,1513,0,0,0,0,0,0,0,0,0,0,0,0,2
89743258,89743258,8,41,0,0,20004,1512,1500,1173,1502,1012,1512,1512,1513,0,0,0,0,0,0,0,0,0,0,0,0,2
89935831,89935831,8,41,0,0,20003,1507,1512,1554,1455,1012,1513,1512,1512,0,0,0,0,0,0,0,0,0,0,0,0,2
90149852,90149852,8,41,0,0,20003,1506,1512,1728,1468,1012,1512,1512,1513,0,0,0,0,0,0,0,0,0,0,0,0,2
90341135,90341135,8,41,0,0,20003,1506,1514,1813,1483,1012,1513,1512,1512,0,0,0,0,0,0,0,0,0,0,0,0,2
90532813,90532813,8,41,0,0,20003,1512,1514,1764,1447,1012,1512,1512,1513,0,0,0,0,0,0,0,0,0,0,0,0,2
90742463,90742463,8,41,0,0,20003,1526,1504,1116,1477,1012,1513,1512,1512,0,0,0,0,0,0,0,0,0,0,0,0,2
90956115,90956115,8,41,0,0,20003,1530,1509,1116,1424,1012,1512,1513,1512,0,0,0,0,0,0,0,0,0,0,0,0,2
91144065,91144065,8,41,0,0,20003,1558,1477,1701,1446,1012,1513,1512,1512,0,0,0,0,0,0,0,0,0,0,0,0,2
91357998,91357998,8,41,0,0,20003,1579,1454,1781,1459,1012,1513,1512,1512,0,0,0,0,0,0,0,0,0,0,0,0,2
91551295,91551295,8,41,0,0,20003,1610,1456,1645,1479,1012,1513,1512,1512,0,0,0,0,0,0,0,0,0,0,0,0,2
91765517,91765517,8,41,0,0,20003,1533,1516,1338,1322,1012,1513,1512,1512,0,0,0,0,0,0,0,0,0,0,0,0,2
91959025,91959025,8,41,0,0,20003,1508,1515,1116,1409,1012,1512,1512,1513,0,0,0,0,0,0,0,0,0,0,0,0,2
92171725,92171725,8,41,0,0,20003,1507,1516,1372,1358,1012,1513,1512,1512,0,0,0,0,0,0,0,0,0,0,0,0,2
92368015,92368015,8,41,0,0,20003,1514,1512,1801,1423,1012,1512,1512,1513,0,0,0,0,0,0,0,0,0,0,0,0,2
92560021,92560021,8,41,0,0,20003,1505,1515,1818,1389,1012,1513,1512,1512,0,0,0,0,0,0,0,0,0,0,0,0,2
92775724,92775724,8,41,0,0,20003,1508,1503,1847,1408,1012,1513,1512,1512,0,0,0,0,0,0,0,0,0,0,0,0,2
92985657,92985657,8,41,0,0,20004,1517,1435,1727,1400,1012,1512,1512,1513,0,0,0,0,0,0,0,0,0,0,0,0,2
93179393,93179393,8,41,0,0,20003,1521,1401,1403,1513,1012,1513,1512,1512,0,0,0,0,0,0,0,0,0,0,0,0,2
93387256,93387256,8,41,0,0,20004,1512,1464,1202,1512,1012,1512,1512,1513,0,0,0,0,0,0,0,0,0,0,0,0,2
93582446,93582446,8,41,0,0,20003,1517,1502,1116,1512,1012,1513,1512,1512,0,0,0,0,0,0,0,0,0,0,0,0,2
93790641,93790641,8,41,0,0,20004,1529,1514,1336,1512,1012,1512,1512,1530,0,0,0,0,0,0,0,0,0,0,0,0,2
93984616,93984616,8,41,0,0,20003,1548,1515,1596,1503,1012,1513,1512,1512,0,0,0,0,0,0,0,0,0,0,0,0,2
94197701,94197701,8,41,0,0,20003,1571,1517,1697,1482,1012,1513,1512,1512,0,0,0,0,0,0,0,0,0,0,0,0,2
94385662,94385662,8,41,0,0,20003,1572,1517,1785,1472,1012,1513,1512,1512,0,0,0,0,0,0,0,0,0,0,0,0,2
94597320,94597320,8,41,0,0,20003,1557,1517,1809,1483,1012,1513,1512,1512,0,0,0,0,0,0,0,0,0,0,0,0,2
94790546,94790546,8,41,0,0,20004,1538,1515,1798,1460,1013,1512,1512,1512,0,0,0,0,0,0,0,0,0,0,0,0,2
94985771,94985771,8,41,0,0,20004,1536,1515,1721,1438,1012,1512,1513,1512,0,0,0,0,0,0,0,0,0,0,0,0,2
95200961,95200961,8,41,0,0,20003,1537,1514,1116,1452,1012,1512,1512,1513,0,0,0,0,0,0,0,0,0,0,0,0,2
95396569,95396569,8,41,0,0,20003,1536,1515,1116,1482,1012,1513,1512,1512,0,0,0,0,0,0,0,0,0,0,0,0,2
95612173,95612173,8,41,0,0,20003,1515,1505,1116,1459,1012,1512,1513,1512,0,0,0,0,0,0,0,0,0,0,0,0,2
95804400,95804400,8,41,0,0,20003,1508,1492,1321,1499,1012,1513,1512,1512,0,0,0,0,0,0,0,0,0,0,0,0,2
96016048,96016048,8,41,0,0,20003,1504,1453,1612,1461,1012,1513,1512,1512,0,0,0,0,0,0,0,0,0,0,0,0,2
96205663,96205663,8,41,0,0,20004,1509,1452,1669,1469,1013,1512,1512,1512,0,0,0,0,0,0,0,0,0,0,0,0,2
96420608,96420608,8,41,0,0,20003,1507,1472,1709,1487,1012,1513,1512,1512,0,0,0,0,0,0,0,0,0,0,0,0,2
96612100,96612100,8,41,0,0,20004,1514,1493,1740,1501,1013,1512,1512,1512,0,0,0,0,0,0,0,0,0,0,0,0,2
96806997,96806997,8,41,0,0,20004,1548,1515,1746,1511,1012,1512,1513,1512,0,0,0,0,0,0,0,0,0,0,0,0,2
97018912,97018912,8,41,0,0,20004,1577,1516,1763,1511,1012,1512,1513,1512,0,0,0,0,0,0,0,0,0,0,0,0,2
97218126,97218126,8,41,0,0,20004,1559,1514,1705,1456,1013,1512,1512,1512,0,0,0,0,0,0,0,0,0,0,0,0,2
97411837,97411837,8,41,0,0,20004,1503,1467,1228,1278,1013,1512,1512,1512,0,0,0,0,0,0,0,0,0,0,0,0,2
97627010,97627010,8,41,0,0,20003,1512,1471,1116,1331,1012,1513,1512,1512,0,0,0,0,0,0,0,0,0,0,0,0,2
97820962,97820962,8,41,0,0,20003,1507,1476,1129,1361,1012,1512,1512,1513,0,0,0,0,0,0,0,0,0,0,0,0,2
98036059,98036059,8,41,0,0,20003,1505,1478,1415,1396,1012,1512,1512,1513,0,0,0,0,0,0,0,0,0,0,0,0,2
98227300,98227300,8,41,0,0,20003,1504,1481,1631,1423,1012,1512,1513,1512,0,0,0,0,0,0,0,0,0,0,0,0,2
98438908,98438908,8,41,0,0,20004,1509,1480,1704,1448,1012,1512,1513,1512,0,0,0,0,0,0,0,0,0,0,0,0,2
98633195,98633195,8,41,0,0,20003,1525,1488,1742,1466,1012,1512,1513,1512,0,0,0,0,0,0,0,0,0,0,0,0,2
98840834,98840834,8,41,0,0,20004,1544,1502,1750,1490,1012,1512,1513,1512,0,0,0,0,0,0,0,0,0,0,0,0,2
99030966,99030966,8,41,0,0,20003,1536,1506,1744,1476,1012,1513,1512,1512,0,0,0,0,0,0,0,0,0,0,0,0,2
99244900,99244900,8,41,0,0,20003,1541,1506,1669,1447,1012,1512,1513,1512,0,0,0,0,0,0,0,0,0,0,0,0,2
99456192,99456192,8,41,0,0,20004,1543,1504,1268,1381,1012,1512,1513,1512,0,0,0,0,0,0,0,0,0,0,0,0,2
99646486,99646486,8,41,0,0,20003,1548,1510,1116,1348,1012,1512,1513,1512,0,0,0,0,0,0,0,0,0,0,0,0,2
99860599,99860599,8,41,0,0,20004,1544,1512,1160,1347,1012,1512,1513,1512,0,0,0,0,0,0,0,0,0,0,0,0,2
100052404,100052404,8,41,0,0,20003,1542,1514,1314,1362,1012,1513,1512,1512,0,0,0,0,0,0,0,0,0,0,0,0,2
100250606,100250606,8,41,0,0,20004,1540,1513,1527,1420,1012,1512,1512,1513,0,0,0,0,0,0,0,0,0,0,0,0,2
100466801,100466801,8,41,0,0,20004,1538,1514,1824,1446,1012,1512,1512,1513,0,0,0,0,0,0,0,0,0,0,0,0,2
100660072,100660072,8,41,0,0,20003,1538,1514,1840,1462,1012,1513,1512,1512,0,0,0,0,0,0,0,0,0,0,0,0,2
100872469,100872469,8,41,0,0,20003,1533,1513,1845,1457,1012,1512,1512,1513,0,0,0,0,0,0,0,0,0,0,0,0,2
101062561,101062561,8,41,0,0,20003,1509,1491,1839,1451,1012,1513,1512,1512,0,0,0,0,0,0,0,0,0,0,0,0,2
101276859,101276859,8,41,0,0,20003,1515,1489,1826,1456,1012,1513,1512,1512,0,0,0,0,0,0,0,0,0,0,0,0,2
101468090,101468090,8,41,0,0,20004,1527,1484,1532,1472,1012,1513,1512,1512,0,0,0,0,0,0,0,0,0,0,0,0,2
101666795,101666795,8,41,0,0,20004,1530,1490,1142,1456,1012,1512,1512,1513,0,0,0,0,0,0,0,0,0,0,0,0,2
101882073,101882073,8,41,0,0,20004,1525,1493,1116,1409,1013,1512,1512,1512,0,0,0,0,0,0,0,0,0,0,0,0,2
102072579,102072579,8,41,0,0,20003,1525,1493,1116,1407,1012,1512,1512,1512,0,0,0,0,0,0,0,0,0,0,0,0,2
102283301,102283301,8,41,0,0,20004,1524,1492,1230,1430,1013,1512,1512,1512,0,0,0,0,0,0,0,0,0,0,0,0,2
102481833,102481833,8,41,0,0,20003,1517,1492,1679,1473,1012,1512,1513,1512,0,0,0,0,0,0,0,0,0,0,0,0,2
102693775,102693775,8,41,0,0,20004,1514,1495,1758,1469,1012,1512,1512,1513,0,0,0,0,0,0,0,0,0,0,0,0,2
102888116,102888116,8,41,0,0,20004,1519,1497,1782,1490,1012,1512,1512,1513,0,0,0,0,0,0,0,0,0,0,0,0,2
103102047,103102047,8,41,0,0,20004,1522,1499,1819,1481,1012,1512,1512,1513,0,0,0,0,0,0,0,0,0,0,0,0,2
103294530,103294530,8,41,0,0,20003,1537,1476,1816,1481,1012,1512,1512,1513,0,0,0,0,0,0,0,0,0,0,0,0,2
103504850,103504850,8,41,0,0,20004,1539,1464,1798,1475,1012,1512,1512,1512,0,0,0,0,0,0,0,0,0,0,0,0,2
103698191,103698191,8,41,0,0,20003,1541,1473,1730,1508,1012,1512,1513,1512,0,0,0,0,0,0,0,0,0,0,0,0,2
103908840,103908840,8,41,0,0,20004,1542,1492,1116,1495,1012,1513,1512,1512,0,0,0,0,0,0,0,0,0,0,0,0,2
104105109,104105109,8,41,0,0,20004,1562,1494,1117,1511,1012,1512,1512,1513,0,0,0,0,0,0,0,0,0,0,0,0,2
104315020,104315020,8,41,0,0,20003,1563,1514,1211,1512,1012,1512,1512,1513,0,0,0,0,0,0,0,0,0,0,0,0,2
104523582,104523582,8,41,0,0,20003,1542,1516,1382,1511,1012,1512,1513,1512,0,0,0,0,0,0,0,0,0,0,0,0,2
104716010,104716010,8,41,0,0,20004,1538,1515,1453,1511,1012,1512,1512,1512,0,0,0,0,0,0,0,0,0,0,0,0,2
104908020,104908020,8,41,0,0,20003,1516,1515,1498,1511,1012,1512,1512,1513,0,0,0,0,0,0,0,0,0,0,0,0,2
105121012,105121012,8,41,0,0,20003,1519,1515,1679,1440,1013,1512,1512,1512,0,0,0,0,0,0,0,0,0,0,0,0,2
105332392,105332392,8,41,0,0,20004,1518,1515,1755,1443,1012,1512,1513,1512,0,0,0,0,0,0,0,0,0,0,0,0,2
105520415,105520415,8,41,0,0,20004,1528,1515,1783,1401,1013,1512,1512,1512,0,0,0,0,0,0,0,0,0,0,0,0,2
105734191,105734191,8,41,0,0,20004,1535,1501,1790,1398,1012,1512,1513,1512,0,0,0,0,0,0,0,0,0,0,0,0,2
105921886,105921886,8,41,0,0,20003,1535,1497,1799,1420,1013,1512,1512,1512,0,0,0,0,0,0,0,0,0,0,0,0,2
106132173,106132173,8,41,0,0,20004,1549,1489,1807,1430,1012,1512,1512,1513,0,0,0,0,0,0,0,0,0,0,0,0,2
106343268,106343268,8,41,0,0,20004,1561,1473,1782,1424,1012,1512,1512,1513,0,0,0,0,0,0,0,0,0,0,0,0,2
106532174,106532174,8,41,0,0,20003,1536,1461,1327,1387,1012,1512,1512,1513,0,0,0,0,0,0,0,0,0,0,0,0,2
106748601,106748601,8,41,0,0,20003,1534,1473,1116,1502,1013,1512,1512,1512,0,0,0,0,0,0,0,0,0,0,0,0,2
106937654,106937654,8,41,0,0,20004,1527,1475,1193,1480,1012,1512,1513,1512,0,0,0,0,0,0,0,0,0,0,0,0,2
107153064,107153064,8,41,0,0,20003,1522,1486,1604,1464,1013,1512,1512,1512,0,0,0,0,0,0,0,0,0,0,0,0,2
107344893,107344893,8,41,0,0,20003,1521,1490,1757,1428,1012,1512,1513,1512,0,0,0,0,0,0,0,0,0,0,0,0,2
107554148,107554148,8,41,0,0,20004,1528,1492,1792,1442,1013,1512,1512,1512,0,0,0,0,0,0,0,0,0,0,0,0,2
107744558,107744558,8,41,0,0,20004,1529,1487,1805,1456,1012,1512,1513,1512,0,0,0,0,0,0,0,0,0,0,0,0,2
107957674,107957674,8,41,0,0,20004,1531,1490,1621,1481,1012,1512,1512,1513,0,0,0,0,0,0,0,0,0,0,0,0,2
108150102,108150102,8,41,0,0,20003,1527,1489,1116,1461,1012,1512,1512,1513,0,0,0,0,0,0,0,0,0,0,0,0,2
108356094,108356094,8,41,0,0,20004,1532,1490,1116,1477,1013,1512,1512,1512,0,0,0,0,0,0,0,0,0,0,0,0,2
108567731,108567731,8,41,0,0,20003,1531,1492,1180,1480,1012,1512,1513,1512,0,0,0,0,0,0,0,0,0,0,0,0,2
108760905,108760905,8,41,0,0,20004,1525,1494,1271,1497,1013,1512,1512,1512,0,0,0,0,0,0,0,0,0,0,0,0,2
108976836,108976836,8,41,0,0,20003,1517,1494,1806,1477,1013,1512,1512,1512,0,0,0,0,0,0,0,0,0,0,0,0,2
109169983,109169983,8,41,0,0,20004,1518,1504,1844,1473,1013,1512,1512,1512,0,0,0,0,0,0,0,0,0,0,0,0,2
109385677,109385677,8,41,0,0,20003,1518,1504,1847,1493,1012,1513,1512,1512,0,0,0,0,0,0,0,0,0,0,0,0,2
109573306,109573306,8,41,0,0,20003,1530,1486,1847,1511,1013,1512,1512,1512,0,0,0,0,0,0,0,0,0,0,0,0,2
109787259,109787259,8,41,0,0,20003,1536,1464,1836,1511,1012,1513,1512,1512,0,0,0,0,0,0,0,0,0,0,0,0,2
109981790,109981790,8,41,0,0,20003,1535,1471,1811,1507,1012,1512,1512,1513,0,0,0,0,0,0,0,0,0,0,0,0,2
110192854,110192854,8,41,0,0,20003,1530,1481,1730,1509,1012,1513,1512,1512,0,0,0,0,0,0,0,0,0,0,0,0,2
110384482,110384482,8,41,0,0,20004,1530,1496,1116,1297,1012,1512,1512,1512,0,0,0,0,0,0,0,0,0,0,0,0,2
110601720,110601720,8,41,0,0,20004,1533,1511,1116,1258,1012,1513,1512,1512,0,0,0,0,0,0,0,0,0,0,0,0,2
110794418,110794418,8,41,0,0,20004,1524,1506,1122,1208,1013,1512,1512,1512,0,0,0,0,0,0,0,0,0,0,0,0,2
110992040,110992040,8,41,0,0,20003,1526,1509,1178,1215,1012,1512,1513,1512,0,0,0,0,0,0,0,0,0,0,0,0,2
111206210,111206210,8,41,0,0,20003,1521,1507,1354,1291,1012,1512,1512,1513,0,0,0,0,0,0,0,0,0,0,0,0,2
111399793,111399793,8,41,0,0,20004,1520,1510,1759,1384,1013,1512,1512,1512,0,0,0,0,0,0,0,0,0,0,0,0,2
111615601,111615601,8,41,0,0,20003,1516,1502,1840,1471,1012,1513,1512,1512,0,0,0,0,0,0,0,0,0,0,0,0,2
111808173,111808173,8,41,0,0,20003,1516,1499,1890,1512,1013,1512,1512,1512,0,0,0,0,0,0,0,0,0,0,0,0,2
112017397,112017397,8,41,0,0,20003,1538,1478,1867,1511,1012,1513,1512,1512,0,0,0,0,0,0,0,0,0,0,0,0,2
112206908,112206908,8,41,0,0,20003,1535,1487,1850,1511,1012,1513,1512,1512,0,0,0,0,0,0,0,0,0,0,0,0,2
112427028,112427028,8,41,0,0,20003,1540,1495,1815,1512,1012,1513,1512,1512,0,0,0,0,0,0,0,0,0,0,0,0,2
112618425,112618425,8,41,0,0,20003,1545,1496,1632,1512,1012,1512,1512,1512,0,0,0,0,0,0,0,0,0,0,0,0,2
112827278,112827278,8,41,0,0,20003,1540,1513,1129,1425,1012,1512,1513,1512,0,0,0,0,0,0,0,0,0,0,0,0,2
113016422,113016422,8,41,0,0,20003,1542,1513,1119,1417,1013,1512,1512,1512,0,0,0,0,0,0,0,0,0,0,0,0,2
113232814,113232814,8,41,0,0,20004,1544,1512,1147,1434,1012,1512,1513,1512,0,0,0,0,0,0,0,0,0,0,0,0,2
113417626,113417626,8,41,0,0,20003,1541,1513,1256,1460,1013,1512,1512,1512,0,0,0,0,0,0,0,0,0,0,0,0,2
113633691,113633691,8,41,0,0,20003,1540,1513,1528,1497,1012,1512,1513,1512,0,0,0,0,0,0,0,0,0,0,0,0,2
113844150,113844150,8,41,0,0,20003,1538,1512,1735,1511,1012,1512,1512,1513,0,0,0,0,0,0,0,0,0,0,0,0,2
114035395,114035395,8,41,0,0,20003,1539,1512,1787,1505,1012,1513,1512,1512,0,0,0,0,0,0,0,0,0,0,0,0,2
114249729,114249729,8,41,0,0,20003,1536,1511,1791,1496,1012,1512,1512,1513,0,0,0,0,0,0,0,0,0,0,0,0,2
114444017,114444017,8,41,0,0,20003,1531,1505,1786,1511,1012,1513,1512,1512,0,0,0,0,0,0,0,0,0,0,0,0,2
114636524,114636524,8,41,0,0,20003,1521,1499,1781,1512,1012,1512,1512,1513,0,0,0,0,0,0,0,0,0,0,0,0,2
114849424,114849424,8,41,0,0,20003,1524,1508,1715,1489,1012,1513,1512,1512,0,0,0,0,0,0,0,0,0,0,0,0,2
115044379,115044379,8,41,0,0,20003,1527,1513,1116,1438,1012,1512,1512,1513,0,0,0,0,0,0,0,0,0,0,0,0,2
115252334,115252334,8,41,0,0,20003,1530,1514,1116,1442,1012,1512,1513,1512,0,0,0,0,0,0,0,0,0,0,0,0,2
115466473,115466473,8,41,0,0,20004,1527,1513,1117,1396,1012,1512,1513,1512,0,0,0,0,0,0,0,0,0,0,0,0,2
115658911,115658911,8,41,0,0,20003,1524,1513,1225,1385,1013,1512,1512,1512,0,0,0,0,0,0,0,0,0,0,0,0,2
115869290,115869290,8,41,0,0,20004,1519,1512,1525,1410,1012,1512,1513,1512,0,0,0,0,0,0,0,0,0,0,0,0,2
116058586,116058586,8,41,0,0,20004,1513,1508,1595,1443,1013,1512,1512,1512,0,0,0,0,0,0,0,0,0,0,0,0,2
116270988,116270988,8,41,0,0,20003,1520,1506,1822,1439,1012,1512,1513,1512,0,0,0,0,0,0,0,0,0,0,0,0,2
116461359,116461359,8,41,0,0,20004,1516,1513,1866,1429,1013,1512,1512,1512,0,0,0,0,0,0,0,0,0,0,0,0,2
116671268,116671268,8,41,0,0,20003,1516,1505,1890,1464,1012,1512,1513,1512,0,0,0,0,0,0,0,0,0,0,0,0,2
116878801,116878801,8,41,0,0,20003,1527,1493,1900,1511,1012,1512,1512,1513,0,0,0,0,0,0,0,0,0,0,0,0,2
117069398,117069398,8,41,0,0,20004,1532,1485,1890,1511,1012,1512,1513,1512,0,0,0,0,0,0,0,0,0,0,0,0,2
117283599,117283599,8,41,0,0,20003,1535,1486,1778,1447,1012,1512,1512,1513,0,0,0,0,0,0,0,0,0,0,0,0,2
117475021,117475021,8,41,0,0,20003,1541,1488,1117,1362,1012,1512,1512,1513,0,0,0,0,0,0,0,0,0,0,0,0,2
117686910,117686910,8,41,0,0,20003,1541,1485,1116,1382,1012,1512,1512,1513,0,0,0,0,0,0,0,0,0,0,0,0,2
117880618,117880618,8,41,0,0,20003,1543,1481,1121,1367,1012,1513,1512,1512,0,0,0,0,0,0,0,0,0,0,0,0,2
118095297,118095297,8,41,0,0,20003,1541,1471,1136,1368,1012,1512,1512,1513,0,0,0,0,0,0,0,0,0,0,0,0,2
118286534,118286534,8,41,0,0,20003,1526,1475,1382,1407,1012,1513,1512,1512,0,0,0,0,0,0,0,0,0,0,0,0,2
118497182,118497182,8,41,0,0,20003,1521,1482,1755,1433,1012,1512,1513,1512,0,0,0,0,0,0,0,0,0,0,0,0,2
118709355,118709355,8,41,0,0,20004,1516,1481,1836,1431,1012,1512,1512,1512,0,0,0,0,0,0,0,0,0,0,0,0,2
118899018,118899018,8,41,0,0,20003,1515,1478,1870,1484,1012,1512,1513,1512,0,0,0,0,0,0,0,0,0,0,0,0,2
119113861,119113861,8,41,0,0,20004,1520,1479,1881,1501,1012,1512,1512,1513,0,0,0,0,0,0,0,0,0,0,0,0,2
119309301,119309301,8,41,0,0,20003,1524,1482,1880,1511,1012,1512,1513,1512,0,0,0,0,0,0,0,0,0,0,0,0,2
119499541,119499541,8,41,0,0,20004,1531,1479,1860,1512,1012,1512,1512,1512,0,0,0,0,0,0,0,0,0,0,0,0,2
119714905,119714905,8,41,0,0,20003,1539,1479,1440,1381,1012,1512,1513,1512,0,0,0,0,0,0,0,0,0,0,0,0,2
119909029,119909029,8,41,0,0,20004,1544,1489,1116,1316,1013,1512,1512,1512,0,0,0,0,0,0,0,0,0,0,0,0,2
120120601,120120601,8,41,0,0,20004,1551,1494,1116,1317,1012,1513,1512,1512,0,0,0,0,0,0,0,0,0,0,0,0,2
120310701,120310701,8,41,0,0,20003,1556,1512,1116,1321,1013,1512,1512,1512,0,0,0,0,0,0,0,0,0,0,0,0,2
120524021,120524021,8,41,0,0,20004,1574,1515,1232,1340,1012,1513,1512,1512,0,0,0,0,0,0,0,0,0,0,0,0,2
120717654,120717654,8,41,0,0,20003,1570,1515,1416,1384,1012,1512,1513,1535,0,0,0,0,0,0,0,0,0,0,0,0,2
120927267,120927267,8,41,0,0,20004,1565,1515,1525,1433,1013,1512,1512,1512,0,0,0,0,0,0,0,0,0,0,0,0,2
121118914,121118914,8,41,0,0,20004,1575,1515,1908,1510,1012,1512,1513,1512,0,0,0,0,0,0,0,0,0,0,0,0,2
121331307,121331307,8,41,0,0,20004,1564,1515,1916,1471,1013,1512,1512,1512,0,0,0,0,0,0,0,0,0,0,0,0,2
121524505,121524505,8,41,0,0,20003,1551,1513,1917,1483,1012,1512,1513,1512,0,0,0,0,0,0,0,0,0,0,0,0,2
121733644,121733644,8,41,0,0,20004,1541,1511,1916,1495,1013,1512,1512,1512,0,0,0,0,0,0,0,0,0,0,0,0,2
121932632,121932632,8,41,0,0,20004,1523,1504,1917,1511,1012,1512,1513,1512,0,0,0,0,0,0,0,0,0,0,0,0,2
122147227,122147227,8,41,0,0,20003,1498,1487,1917,1511,1012,1512,1512,1513,0,0,0,0,0,0,0,0,0,0,0,0,2
122336069,122336069,8,41,0,0,20003,1502,1502,1761,1510,1012,1513,1512,1512,0,0,0,0,0,0,0,0,0,0,0,0,2
122542953,122542953,8,41,0,0,20004,1503,1514,1116,1337,1012,1512,1512,1513,0,0,0,0,0,0,0,0,0,0,0,0,2
122755322,122755322,8,41,0,0,20003,1507,1516,1116,1329,1012,1513,1512,1512,0,0,0,0,0,0,0,0,0,0,0,0,2
122950512,122950512,8,41,0,0,20004,1506,1516,1159,1346,1012,1512,1512,1513,0,0,0,0,0,0,0,0,0,0,0,0,2
123166788,123166788,8,41,0,0,20004,1523,1518,1710,1462,1012,1512,1512,1513,0,0,0,0,0,0,0,0,0,0,0,0,2
123360162,123360162,8,41,0,0,20003,1531,1518,1863,1512,1012,1513,1512,1512,0,0,0,0,0,0,0,0,0,0,0,0,2
123574508,123574508,8,41,0,0,20003,1536,1516,1892,1512,1012,1512,1512,1513,0,0,0,0,0,0,0,0,0,0,0,0,2
123764104,123764104,8,41,0,0,20003,1535,1517,1848,1511,1012,1513,1512,1512,0,0,0,0,0,0,0,0,0,0,0,0,2
123956880,123956880,8,41,0,0,20004,1533,1516,1221,1388,1012,1512,1512,1513,0,0,0,0,0,0,0,0,0,0,0,0,2
124169188,124169188,8,41,0,0,20003,1533,1517,1116,1351,1012,1513,1512,1512,0,0,0,0,0,0,0,0,0,0,0,0,2
124359298,124359298,8,41,0,0,20003,1532,1515,1116,1356,1012,1512,1512,1513,0,0,0,0,0,0,0,0,0,0,0,0,2
124572391,124572391,8,41,0,0,20003,1532,1516,1311,1415,1012,1513,1512,1512,0,0,0,0,0,0,0,0,0,0,0,0,2
124768076,124768076,8,41,0,0,20003,1526,1515,1830,1511,1012,1512,1512,1513,0,0,0,0,0,0,0,0,0,0,0,0,2
124978990,124978990,8,41,0,0,20004,1529,1515,1916,1515,1012,1512,1512,1513,0,0,0,0,0,0,0,0,0,0,0,0,2
125189765,125189765,8,41,0,0,20003,1531,1516,1916,1510,1012,1513,1512,1512,0,0,0,0,0,0,0,0,0,0,0,0,2
125380824,125380824,8,41,0,0,20004,1536,1512,1916,1512,1012,1512,1512,1513,0,0,0,0,0,0,0,0,0,0,0,0,2
125589318,125589318,8,41,0,0,20003,1527,1457,1772,1487,1012,1513,1512,1512,0,0,0,0,0,0,0,0,0,0,0,0,2
125800025,125800025,8,41,0,0,20003,1527,1478,1117,1397,1012,1512,1513,1512,0,0,0,0,0,0,0,0,0,0,0,0,2
125989187,125989187,8,41,0,0,20003,1531,1485,1116,1430,1012,1513,1512,1512,0,0,0,0,0,0,0,0,0,0,0,0,2
126196183,126196183,8,41,0,0,20004,1534,1485,1116,1380,1012,1512,1512,1513,0,0,0,0,0,0,0,0,0,0,0,0,2
126392387,126392387,8,41,0,0,20003,1530,1496,1173,1278,1012,1513,1512,1512,0,0,0,0,0,0,0,0,0,0,0,0,2
126604637,126604637,8,41,0,0,20003,1523,1497,1704,1385,1012,1513,1512,1512,0,0,0,0,0,0,0,0,0,0,0,0,2
126812834,126812834,8,41,0,0,20004,1523,1498,1916,1511,1012,1512,1512,1513,0,0,0,0,0,0,0,0,0,0,0,0,2
127006434,127006434,8,41,0,0,20003,1524,1499,1916,1510,1012,1513,1512,1512,0,0,0,0,0,0,0,0,0,0,0,0,2
127215682,127215682,8,41,0,0,20004,1532,1493,1916,1512,1012,1512,1512,1513,0,0,0,0,0,0,0,0,0,0,0,0,2
127406145,127406145,8,41,0,0,20003,1537,1488,1916,1511,1012,1513,1512,1512,0,0,0,0,0,0,0,0,0,0,0,0,2
127620231,127620231,8,41,0,0,20003,1543,1478,1637,1351,1012,1512,1513,1512,0,0,0,0,0,0,0,0,0,0,0,0,2
127813393,127813393,8,41,0,0,20003,1540,1475,1139,1276,1012,1513,1512,1512,0,0,0,0,0,0,0,0,0,0,0,0,2
128026218,128026218,8,41,0,0,20003,1544,1476,1116,1351,1012,1512,1513,1512,0,0,0,0,0,0,0,0,0,0,0,0,2
128216109,128216109,8,41,0,0,20003,1543,1474,1116,1336,1012,1513,1512,1512,0,0,0,0,0,0,0,0,0,0,0,0,2
128432529,128432529,8,41,0,0,20003,1541,1471,1210,1345,1012,1512,1513,1512,0,0,0,0,0,0,0,0,0,0,0,0,2
128623250,128623250,8,41,0,0,20003,1535,1469,1743,1404,1012,1512,1512,1513,0,0,0,0,0,0,0,0,0,0,0,0,2
128840234,128840234,8,41,0,0,20004,1532,1470,1916,1491,1012,1512,1512,1513,0,0,0,0,0,0,0,0,0,0,0,0,2
129033323,129033323,8,41,0,0,20003,1534,1471,1916,1536,1012,1512,1512,1513,0,0,0,0,0,0,0,0,0,0,0,0,2
129242490,129242490,8,41,0,0,20004,1538,1477,1916,1595,1012,1512,1512,1513,0,0,0,0,0,0,0,0,0,0,0,0,2
129432895,129432895,8,41,0,0,20003,1530,1507,1917,1621,1012,1512,1513,1512,0,0,0,0,0,0,0,0,0,0,0,0,2
129644074,129644074,8,41,0,0,20004,1500,1515,1817,1504,1012,1512,1512,1513,0,0,0,0,0,0,0,0,0,0,0,0,2
129834729,129834729,8,41,0,0,20003,1507,1516,1437,1112,1012,1512,1512,1513,0,0,0,0,0,0,0,0,0,0,0,0,2
130045184,130045184,8,41,0,0,20003,1526,1540,1524,1113,1012,1512,1512,1513,0,0,0,0,0,0,0,0,0,0,0,0,2
130236984,130236984,8,41,0,0,20003,1522,1533,1300,1300,1012,1512,1512,1513,0,0,0,0,0,0,0,0,0,0,0,0,2
130450493,130450493,8,41,0,0,20004,1518,1532,1116,1549,1012,1512,1512,1513,0,0,0,0,0,0,0,0,0,0,0,0,2
130641818,130641818,8,41,0,0,20003,1554,1576,1356,1620,1012,1513,1512,1512,0,0,0,0,0,0,0,0,0,0,0,0,2
130856019,130856019,8,41,0,0,20004,1615,1602,1473,1627,1012,1512,1513,1512,0,0,0,0,0,0,0,0,0,0,0,0,2
131064254,131064254,8,41,0,0,20003,1585,1578,1596,1615,1012,1512,1512,1513,0,0,0,0,0,0,0,0,0,0,0,0,2
131253430,131253430,8,41,0,0,20003,1497,1517,1455,1513,1012,1512,1513,1512,0,0,0,0,0,0,0,0,0,0,0,0,2
131464915,131464915,8,41,0,0,20004,1494,1535,1552,1512,1012,1512,1512,1513,0,0,0,0,0,0,0,0,0,0,0,0,2
131674999,131674999,8,41,0,0,20003,1498,1569,1660,1511,1012,1513,1512,1512,0,0,0,0,0,0,0,0,0,0,0,0,2
131865989,131865989,8,41,0,0,20003,1503,1581,1702,1511,1012,1512,1513,1512,0,0,0,0,0,0,0,0,0,0,0,0,2
132072592,132072592,8,41,0,0,20003,1521,1530,1751,1507,1013,1512,1512,1512,0,0,0,0,0,0,0,0,0,0,0,0,2
132282184,132282184,8,41,0,0,20003,1530,1517,1747,1510,1012,1513,1512,1512,0,0,0,0,0,0,0,0,0,0,0,0,2
132476079,132476079,8,41,0,0,20003,1527,1517,1741,1513,1013,1512,1512,1512,0,0,0,0,0,0,0,0,0,0,0,0,2
132687700,132687700,8,41,0,0,20004,1527,1516,1726,1511,1013,1512,1512,1512,0,0,0,0,0,0,0,0,0,0,0,0,2
132879222,132879222,8,41,0,0,20004,1538,1516,1361,1512,1012,1512,1513,1512,0,0,0,0,0,0,0,0,0,0,0,0,2
133092023,133092023,8,41,0,0,20004,1562,1517,1224,1455,1013,1512,1512,1512,0,0,0,0,0,0,0,0,0,0,0,0,2
133286196,133286196,8,41,0,0,20003,1565,1518,1277,1417,1012,1512,1512,1513,0,0,0,0,0,0,0,0,0,0,0,0,2
133478977,133478977,8,41,0,0,20003,1531,1518,1441,1371,1012,1513,1512,1559,0,0,0,0,0,0,0,0,0,0,0,0,2
133692925,133692925,8,41,0,0,20004,1497,1513,1736,1434,1012,1512,1512,1513,0,0,0,0,0,0,0,0,0,0,0,0,2
133903532,133903532,8,41,0,0,20004,1500,1515,1916,1537,1012,1512,1512,1512,0,0,0,0,0,0,0,0,0,0,0,0,2
134093985,134093985,8,41,0,0,20004,1519,1514,1887,1512,1012,1512,1512,1513,0,0,0,0,0,0,0,0,0,0,0,0,2
134306102,134306102,8,41,0,0,20004,1514,1437,1450,1436,1012,1513,1512,1512,0,0,0,0,0,0,0,0,0,0,0,0,2
134515288,134515288,8,41,0,0,20004,1505,1462,1116,1412,1012,1512,1512,1513,0,0,0,0,0,0,0,0,0,0,0,0,2
134707003,134707003,8,41,0,0,20003,1507,1510,1116,1418,1012,1513,1512,1512,0,0,0,0,0,0,0,0,0,0,0,0,2
134919018,134919018,8,41,0,0,20003,1541,1515,1574,1408,1012,1512,1513,1512,0,0,0,0,0,0,0,0,0,0,0,0,2
135109438,135109438,8,41,0,0,20003,1560,1499,1857,1460,1012,1513,1512,1512,0,0,0,0,0,0,0,0,0,0,0,0,2
135322661,135322661,8,41,0,0,20004,1566,1495,1846,1440,1012,1512,1513,1512,0,0,0,0,0,0,0,0,0,0,0,0,2
135514796,135514796,8,41,0,0,20003,1547,1488,1794,1372,1012,1512,1513,1512,0,0,0,0,0,0,0,0,0,0,0,0,2
135729034,135729034,8,41,0,0,20003,1474,1444,1390,1342,1012,1512,1512,1513,0,0,0,0,0,0,0,0,0,0,0,0,2
135925986,135925986,8,41,0,0,20003,1498,1471,1154,1405,1012,1513,1512,1512,0,0,0,0,0,0,0,0,0,0,0,0,2
136118530,136118530,8,41,0,0,20004,1497,1483,1228,1420,1012,1512,1512,1513,0,0,0,0,0,0,0,0,0,0,0,0,2
136333425,136333425,8,41,0,0,20003,1497,1514,1719,1404,1012,1513,1512,1512,0,0,0,0,0,0,0,0,0,0,0,0,2
136527330,136527330,8,41,0,0,20004,1498,1513,1911,1472,1012,1512,1512,1513,0,0,0,0,0,0,0,0,0,0,0,0,2
136735777,136735777,8,41,0,0,20003,1498,1514,1916,1486,1012,1513,1512,1512,0,0,0,0,0,0,0,0,0,0,0,0,2
136926913,136926913,8,41,0,0,20003,1513,1476,1892,1442,1012,1512,1512,1512,0,0,0,0,0,0,0,0,0,0,0,0,2
137140883,137140883,8,41,0,0,20004,1523,1445,1764,1411,1012,1513,1512,1512,0,0,0,0,0,0,0,0,0,0,0,0,2
137348501,137348501,8,41,0,0,20004,1522,1477,1503,1487,1012,1512,1512,1513,0,0,0,0,0,0,0,0,0,0,0,0,2
137539707,137539707,8,41,0,0,20003,1537,1517,1604,1511,1012,1513,1512,1512,0,0,0,0,0,0,0,0,0,0,0,0,2
137756074,137756074,8,41,0,0,20004,1552,1535,1524,1513,1012,1512,1512,1513,0,0,0,0,0,0,0,0,0,0,0,0,2
137949312,137949312,8,41,0,0,20003,1556,1539,1481,1512,1012,1513,1512,1512,0,0,0,0,0,0,0,0,0,0,0,0,2
138162477,138162477,8,41,0,0,20004,1583,1543,1388,1512,1012,1512,1513,1512,0,0,0,0,0,0,0,0,0,0,0,0,2
138353984,138353984,8,41,0,0,20003,1559,1539,1464,1512,1012,1512,1513,1512,0,0,0,0,0,0,0,0,0,0,0,0,2
138563005,138563005,8,41,0,0,20003,1521,1532,1527,1512,1012,1512,1513,1512,0,0,0,0,0,0,0,0,0,0,0,0,2
138755570,138755570,8,41,0,0,20003,1506,1545,1558,1500,1012,1512,1513,1512,0,0,0,0,0,0,0,0,0,0,0,0,2
138972103,138972103,8,41,0,0,20004,1498,1556,1558,1450,1012,1512,1512,1513,0,0,0,0,0,0,0,0,0,0,0,0,2
139162622,139162622,8,41,0,0,20003,1501,1538,1561,1363,1012,1513,1512,1512,0,0,0,0,0,0,0,0,0,0,0,0,2
139374199,139374199,8,41,0,0,20004,1498,1514,1556,1369,1012,1512,1512,1513,0,0,0,0,0,0,0,0,0,0,0,0,2
139563183,139563183,8,41,0,0,20003,1499,1496,1547,1430,1012,1513,1512,1512,0,0,0,0,0,0,0,0,0,0,0,0,2
139778202,139778202,8,41,0,0,20004,1510,1514,1542,1446,1012,1512,1512,1513,0,0,0,0,0,0,0,0,0,0,0,0,2
139971319,139971319,8,41,0,0,20003,1519,1508,1559,1444,1012,1512,1513,1512,0,0,0,0,0,0,0,0,0,0,0,0,2
140180104,140180104,8,41,0,0,20003,1527,1482,1567,1425,1012,1512,1513,1512,0,0,0,0,0,0,0,0,0,0,0,0,2
140389398,140389398,8,41,0,0,20004,1530,1483,1499,1487,1012,1513,1512,1512,0,0,0,0,0,0,0,0,0,0,0,0,2
140577298,140577298,8,41,0,0,20004,1528,1494,1320,1782,1013,1512,1512,1512,0,0,0,0,0,0,0,0,0,0,0,0,2
140785980,140785980,8,41,0,0,20003,1515,1498,1199,1912,1012,1513,1512,1512,0,0,0,0,0,0,0,0,0,0,0,0,2
140998909,140998909,8,41,0,0,20003,1511,1501,1116,1912,1012,1512,1513,1512,0,0,0,0,0,0,0,0,0,0,0,0,2
141189050,141189050,8,41,0,0,20003,1501,1495,1116,1912,1012,1513,1512,1512,0,0,0,0,0,0,0,0,0,0,0,0,2
141406738,141406738,8,41,0,0,20003,1498,1495,1117,1912,1012,1512,1513,1512,0,0,0,0,0,0,0,0,0,0,0,0,2
141600088,141600088,8,41,0,0,20003,1498,1496,1116,1912,1013,1512,1512,1512,0,0,0,0,0,0,0,0,0,0,0,0,2
141793405,141793405,8,41,0,0,20003,1498,1496,1116,1913,1012,1512,1512,1513,0,0,0,0,0,0,0,0,0,0,0,0,2
142008728,142008728,8,41,0,0,20003,1499,1496,1116,1912,1013,1512,1512,1512,0,0,0,0,0,0,0,0,0,0,0,0,2
142198201,142198201,8,41,0,0,20003,1499,1507,1116,1913,1012,1512,1512,1512,0,0,0,0,0,0,0,0,0,0,0,0,2
142413673,142413673,8,41,0,0,20004,1498,1515,1116,1912,1013,1512,1512,1512,0,0,0,0,0,0,0,0,0,0,0,0,2
142604069,142604069,8,41,0,0,20003,1497,1515,1117,1910,2012,1512,1513,1512,0,0,0,0,0,0,0,0,0,0,0,0,2
142814493,142814493,8,41,0,0,20003,1498,1515,1390,1476,2013,1512,1512,1512,0,0,0,0,0,0,0,0,0,0,0,0,2
