timestamp,gyro_rad[0],gyro_rad[1],gyro_rad[2],gyro_integral_dt,accelerometer_timestamp_relative,accelerometer_m_s2[0],accelerometer_m_s2[1],accelerometer_m_s2[2],accelerometer_integral_dt
30504657,0.06811497,-0.041071396,0.017823964,3993,0,-0.5483323,-1.1609607,-10.115085,3993
30508661,-0.029574761,-0.029525857,0.020979116,4004,0,0.3484998,-1.5684395,-9.145944,4004
30512655,-0.002512151,-0.07075722,0.011154502,3994,0,-0.33461067,-0.09207048,-10.652018,3994
30516655,0.11987762,-0.043023575,0.0020179302,4000,0,-0.17533512,-1.1181674,-9.883248,4000
30520663,0.04672859,-0.037599616,0.0043861084,4008,0,-0.21785663,-2.0998328,-9.298118,4008
30524655,-0.061976507,-0.053466782,-0.0013229105,3992,0,-0.36758897,-0.5515954,-10.024223,3992
30528738,0.0746865,-0.037302233,0.015360367,4083,0,-0.50726724,-0.7184967,-10.063978,4083
30532655,0.024849752,-0.0011581308,0.022379812,3917,0,0.06948217,-1.7312185,-9.148741,3917
30536655,-0.02320519,-0.05313126,0.006238171,4000,0,0.008977488,-0.52854097,-9.662894,4000
30540661,0.1074086,-0.049041685,0.003715425,4006,0,-0.47136974,-0.5586164,-10.691908,4006
30544655,0.08753669,-0.014624122,0.0019531935,3994,0,-0.42992553,-1.9964051,-9.245163,3994
30548667,-0.054881364,-0.027530842,-3.1481493e-06,4012,0,0.0971713,-1.3444583,-9.623017,4012
30552659,0.04424639,-0.05064524,0.007259592,3992,0,-0.54463065,-0.3804294,-10.460643,3992
30556673,0.04760457,0.01664396,0.016906854,4014,0,-0.37957656,-1.8278968,-9.463212,4014
30560667,-0.037054665,-0.0066293334,0.00892181,3994,0,0.24952374,-0.85470563,-9.142106,3994
30564655,0.08666685,-0.06353398,0.0014385908,3988,0,-0.22205122,-0.62416524,-10.415519,3988
30568655,0.089400455,-0.020459296,-0.00097212504,4000,0,-0.7869432,-1.912477,-10.088386,4000
30572655,-0.05846031,0.022242919,-0.005840645,4000,0,0.031238308,-1.6794696,-9.315559,4000
30576661,-0.0043755323,-0.05563904,-0.004216709,4006,0,-0.22649422,-0.12211535,-9.806945,4006
30580712,0.066371255,-0.010175481,0.010197831,4051,0,-0.82432526,-1.6380521,-10.266177,4051
30584655,-0.052527472,0.032621253,0.008244532,3943,0,0.21612279,-1.4442004,-9.192396,3943
30588655,0.03139964,-0.054302875,-0.0010041693,4000,0,0.3222003,-0.31248754,-10.039202,4000
30592660,0.09947225,-0.03979293,-0.00013888555,4005,0,-0.8737513,-1.7268436,-10.239308,4005
30596666,-0.06146256,0.051566016,-0.0028680298,4006,0,-0.32123473,-1.9025702,-8.968618,4006
30600663,-0.05093042,-0.044413973,-0.005224802,3997,0,0.2685549,-0.17974935,-9.78273,3997
30604655,0.06525346,-0.02815313,0.005940223,3992,0,-1.1885378,-1.2179067,-10.69267,3992
30608657,-0.066231154,0.07905567,0.011453007,4002,0,0.0014392079,-1.9038587,-9.049111,4002
30612700,-0.012031883,-0.05110836,-0.0047598775,4043,0,0.38247478,-0.07952193,-9.867537,4043
30616655,0.10268583,-0.038949445,0.00037521045,3955,0,-0.9466866,-1.7272393,-10.689207,3955
30620662,-0.07701378,0.08882917,-0.0033676755,4007,0,-0.42724547,-2.334948,-9.134232,4007
30624655,-0.104614295,-0.007895733,-0.00910495,3993,0,0.17094116,-0.2982455,-9.677996,3993
30628655,0.02979229,-0.014314019,0.0019620182,4000,0,-1.3309721,-0.99557763,-10.681354,4000
30632710,-0.07227874,0.11414256,0.005021234,4055,0,-0.22933717,-2.2392445,-9.213744,4055
30636655,-0.075605474,0.023321513,-0.004026444,3945,0,-0.096608,-0.5225275,-10.190911,3945
30640664,0.017905567,0.017331501,0.00032402092,4009,0,-0.75743973,-1.6293347,-10.985023,4009
30644661,-0.10620005,0.13860674,-0.0022991118,3997,0,-0.88307,-2.1189396,-9.582919,3997
30648655,-0.1764328,0.11139965,-0.0029729593,3994,0,-0.059656795,-0.64370984,-9.206744,3994
30652655,-0.05526646,0.077598125,0.005062841,4000,0,-1.3237253,-1.4742622,-10.940433,4000
30656655,-0.13544028,0.18380918,-0.0038081757,4000,0,-1.2365685,-2.259987,-10.984087,4000
30660665,-0.2170245,0.21765184,-6.021737e-05,4010,0,-0.24199986,-1.4364222,-10.056386,4010
30664655,-0.14303075,0.16346325,0.0028749527,3990,0,-0.2457708,-1.0238259,-9.857618,3990
30668655,-0.15579158,0.24396746,0.0020714311,4000,0,-1.8367907,-1.4093696,-9.613784,4000
30672655,-0.25937808,0.33973938,-0.0005079163,4000,0,0.16710876,-2.813611,-8.902005,4000
30676655,-0.25698045,0.24921669,-0.01698595,4000,0,-2.1652465,-0.7677731,-11.910348,4000
30680655,-0.30174986,0.4119504,-0.008021167,4000,0,-1.4609226,-2.451716,-11.1442995,4000
30684689,-0.3853459,0.44631246,-0.01175454,4034,0,0.5033082,-0.66155183,-9.593613,4034
30688657,-0.21628504,0.38859826,0.0015132271,3968,0,-0.97176397,-1.5257943,-10.042446,3968
30692655,-0.31640902,0.48529688,-0.016763542,3998,0,-3.1837895,-2.6967232,-11.68226,3998
30696705,-0.5622128,0.64404947,-0.00425515,4050,0,0.3934528,-1.7932911,-10.054054,4050
30700664,-0.37457475,0.5370628,-0.029868342,3959,0,-1.5175856,-0.24435577,-9.959709,3959
30704655,-0.42318374,0.6763159,-0.011042747,3991,0,-1.2994815,-2.860131,-10.125611,3991
30708655,-0.48506492,0.75342155,-0.03600032,4000,0,-1.864032,-0.43933803,-10.899392,4000
30712660,-0.49276295,0.7161675,-0.014421147,4005,0,1.1875608,-1.3556943,-9.860043,4005
30716658,-0.4035069,0.729461,-0.038807936,3998,0,-1.9596677,-0.18585101,-10.57219,3998
30720663,-0.467359,0.8699951,-0.033476245,4005,0,-0.35239285,-2.9061635,-9.434038,4005
30724655,-0.55378747,0.82298493,-0.06343344,3992,0,-1.0439345,0.06392099,-10.170988,3992
30728655,-0.48476198,0.8477941,-0.059111856,4000,0,0.43338814,-0.106088065,-10.386358,4000
30732655,-0.37221503,0.800381,-0.059326764,4000,0,0.5387482,-0.3039357,-10.494625,4000
30736689,-0.36242774,0.8366161,-0.08136963,4034,0,-0.12595598,-1.9915394,-9.663527,4034
30740657,-0.48937893,0.9108817,-0.09642598,3968,0,-0.35190588,-0.7628129,-9.678254,3968
30744661,-0.49797207,0.8595614,-0.10525823,4004,0,1.695072,0.9466152,-8.932403,4004
30748655,-0.24598327,0.8082708,-0.10552272,3994,0,0.9326529,-0.12376849,-9.604775,3994
30752655,-0.3130076,0.79204494,-0.13892028,4000,0,-0.1625953,-1.9313126,-11.272744,4000
30756655,-0.4618507,0.8657735,-0.12390648,4000,0,0.12277442,-0.48071498,-9.108142,4000
30760666,-0.36750826,0.7620503,-0.15238544,4011,0,1.9734126,1.04927,-8.694028,4011
30764673,-0.1586641,0.7259008,-0.13403733,4007,0,1.935229,-0.25056505,-8.096651,4007
30768657,-0.18895762,0.6568472,-0.14380977,3984,0,-0.85725325,-1.9253182,-11.216443,3984
30772655,-0.48194635,0.7617829,-0.14010705,3998,0,2.331157,-1.129158,-8.995363,3998
30776655,-0.3093596,0.5938859,-0.17130357,4000,0,1.2388116,2.067741,-8.195817,4000
30780738,-0.07989806,0.51908976,-0.14413401,4083,0,2.6138995,-0.9710942,-9.121427,4083
30784682,-0.23682797,0.5670944,-0.08426501,3944,0,-0.41950533,-1.6092659,-9.340132,3944
30788689,-0.4014455,0.48504218,-0.13280809,4007,0,2.934633,0.16778567,-9.409245,4007
30792655,-0.20240752,0.40608978,-0.12305972,3966,0,2.0320601,0.34017336,-9.09907,3966
30796657,-0.14746888,0.35706162,-0.07049108,4002,0,0.7375447,-1.1492236,-9.868855,4002
30800681,-0.3237931,0.36754003,-0.07077766,4024,0,3.4273245,-1.1242752,-7.828676,4024
30804665,-0.2209089,0.27931595,-0.11706385,3984,0,1.2116556,0.6145422,-8.780175,3984
30808655,-0.11842727,0.2274237,-0.074635714,3990,0,1.5836015,-0.8379016,-10.9178295,3990
30812655,-0.25598314,0.28223366,-0.017463554,4000,0,2.291908,-0.075137414,-9.333102,4000
30816657,-0.23398326,0.1741091,0.0007343609,4002,0,0.877782,1.7604282,-9.919138,4002
30820661,-0.07932502,0.09584077,0.077892676,4004,0,1.4447532,-0.5611185,-10.954618,4004
30824666,-0.20936422,0.23005235,0.17366175,4005,0,1.7837578,-1.1912476,-10.671116,4005
30828655,-0.2509619,0.081261344,0.14289469,3989,0,1.3845553,1.8097609,-8.638811,3989
30832655,-0.017747235,0.032771237,0.23264763,4000,0,1.1749519,-0.06285097,-10.968581,4000
30836655,-0.21451727,0.14913099,0.31207085,4000,0,0.7118592,-1.3467503,-9.230434,4000
30840709,-0.21642324,-0.005261028,0.29086342,4054,0,1.7867143,1.1110522,-9.374671,4054
30844665,-0.05752015,-0.02198964,0.3465367,3956,0,-0.31180212,-0.30996108,-11.4492445,3956
30848655,-0.2334687,0.05025903,0.4044634,3990,0,0.75159454,-0.37271544,-10.134202,3990
30852655,-0.14107184,-0.019742351,0.41383493,4000,0,2.2296278,0.1501263,-7.881627,4000
30856655,-0.09575073,-0.025571616,0.48348963,4000,0,-1.3481227,0.33155698,-12.956765,4000
30860662,-0.23514752,-0.009657931,0.43763384,4007,0,1.6495186,-0.8653766,-8.9983225,4007
30864697,-0.020344248,-0.057337973,0.5345852,4035,0,0.7664712,1.3762976,-9.355646,4035
30868660,-0.10224897,0.05093056,0.5778191,3963,0,-0.42059413,-2.1013532,-9.460125,3963
30872655,-0.2034542,-0.09713742,0.5417074,3995,0,1.7254263,1.7248279,-8.325113,3995
30876655,0.13780089,-0.101774685,0.64768475,4000,0,-1.4336088,-0.6109798,-12.215235,4000
30880664,-0.18591954,0.07646761,0.6452838,4009,0,1.8346262,-0.24991556,-7.226931,4009
30884683,0.009788496,-0.1729561,0.7051822,4019,0,0.3303341,2.6273654,-8.877252,4019
30888661,0.10669337,-0.0691564,0.75647426,3978,0,-2.1342258,-1.8628037,-12.606166,3978
30892689,-0.14444287,-0.058700923,0.7124648,4028,0,1.8585509,0.3214891,-8.589642,4028
30896655,0.20901069,-0.10760686,0.86507857,3966,0,-1.5426551,1.6515002,-11.698243,3966
30900679,-0.034727182,0.02045153,0.8226683,4024,0,1.2418432,-1.5462143,-7.3812237,4024
30905455,0.18040371,-0.13838881,0.87739617,4776,0,-0.9159951,1.7902962,-12.354468,4776
30909455,-0.025307305,0.10283272,0.9193237,4000,0,-0.19170451,-3.4130335,-8.302148,4000
30913488,-0.049277533,-0.0041926648,0.92086303,4033,0,1.0129042,3.3209817,-8.6577635,4033
30917455,0.14362666,-0.008009915,1.0338308,3967,0,-2.0160496,-1.1599187,-12.728205,3967
30922255,-0.11144563,0.069111876,0.9742033,4800,0,0.17196563,0.40858084,-8.218687,4800
30926257,0.07309542,0.022249332,1.1285678,4002,0,-0.765216,-1.1160462,-12.103156,4002
30930276,-0.17055243,0.22156864,1.0820946,4019,0,1.4373097,-0.86066496,-7.374524,4019
30934299,-0.029283985,-0.021026138,1.1584383,4023,0,-0.092650786,1.850844,-10.584304,4023
30938263,-0.06648197,0.14317888,1.2036422,3964,0,-2.2140677,-2.88503,-12.197481,3964
30942257,-0.29745784,0.16943407,1.1725079,3994,0,1.842848,0.9522943,-7.87663,3994
30946255,0.012255256,0.104609,1.3450133,3998,0,-0.83724266,-0.08989482,-11.189894,3998
30950269,-0.20291075,0.18134782,1.253064,4014,0,-0.45165768,-0.40507752,-7.7216268,4014
30954257,0.06576711,0.110241234,1.3759185,3988,0,-0.43588808,0.63559127,-11.414703,3988
30958257,-0.16841812,0.31158042,1.3450253,4000,0,-0.14759612,-2.5028057,-8.197528,4000
30962266,-0.022630941,0.17580014,1.3689321,4009,0,1.5821451,3.5401864,-9.539805,4009
30966296,0.08380977,0.19471204,1.4680287,4030,0,-1.1794678,-2.794834,-11.606777,4030
30970255,-0.12264751,0.15816405,1.3810449,3959,0,1.1547326,0.72507477,-9.154482,3959
30974263,0.15471269,0.1695078,1.5238476,4008,0,0.17554744,-2.137283,-12.418526,4008
30978255,-0.12859456,0.23450214,1.4504819,3992,0,0.27243426,-0.15023737,-7.383343,3992
30982297,0.21922494,0.06844476,1.541828,4042,0,0.64209276,1.4508921,-9.086115,4042
30986292,0.067875154,0.18928531,1.5419135,3995,0,-0.6350724,-2.8808348,-8.53576,3995
30990257,-0.009861643,0.10339653,1.5435898,3965,0,0.4418305,2.0600255,-9.452066,3965
30994255,0.14621283,0.12418924,1.6559318,3998,0,0.18728183,-1.6039288,-10.159557,3998
30998263,-0.033390924,0.061434235,1.5927114,4008,0,-0.30381373,1.1622382,-8.019146,4008
31002286,0.16615184,-0.006747943,1.7375863,4023,0,0.5649451,-1.0475401,-11.012612,4023
31006255,-0.05038754,0.07596229,1.73797,3969,0,-0.17594777,-1.6730527,-9.491077,3969
31010255,0.048037328,-0.03661672,1.7887145,4000,0,1.9548931,0.3704928,-10.1340685,4000
31014260,0.054210346,0.011552171,1.8406867,4005,0,0.14597028,-0.87138796,-9.478681,4005
31018257,0.02606862,-0.13004616,1.8399699,3997,0,-1.1005011,0.44933397,-9.336791,3997
31022261,0.03308319,0.01708484,1.9617811,4004,0,2.099275,-1.8369063,-9.912929,4004
31026255,-0.08668252,-0.07047714,1.9308321,3994,0,-1.2542065,0.76379037,-8.845931,3994
31030261,0.028192243,-0.15626824,1.9672716,4006,0,2.4009068,-0.85263693,-12.298755,4006
31034280,-0.07978841,-0.09172295,2.022428,4019,0,-1.6539098,-0.61114335,-10.550305,4019
31038289,-0.047535386,-0.14374143,2.0554516,4009,0,1.3800243,-1.6789137,-10.642886,4009
31042257,-0.18756987,-0.06561828,2.1153073,3968,0,0.6296691,-0.6534209,-9.541032,3968
31046264,0.016716853,-0.18416408,2.0818007,4007,0,-1.6956184,-0.04196431,-10.439394,4007
31050255,-0.14414936,0.027160026,2.1189878,3991,0,1.855409,-1.1402739,-8.499226,3991
31054257,-0.13223693,-0.10489315,2.1711233,4002,0,-2.7669768,0.6361041,-9.387912,4002
31058257,-0.1290508,0.03639608,2.1816576,4000,0,2.099697,-1.4093385,-10.02958,4000
31062255,-0.17491141,-0.021081042,2.1921103,3998,0,-0.57274437,-0.19594605,-10.001055,3998
31066313,0.0009295576,-0.04940492,2.1959913,4058,0,-1.3484617,-1.3938859,-12.610287,4058
31070261,-0.2958847,0.16795647,2.2034502,3948,0,2.86268,-1.9818109,-6.3233604,3948
31074257,-0.020979822,-0.05788064,2.2040226,3996,0,-2.1850293,0.60987866,-11.681807,3996
31078257,-0.19230838,0.17259124,2.146063,4000,0,2.8434114,-2.9563208,-10.686099,4000
31082282,-0.09363639,-0.07079714,2.1909978,4025,0,-2.549566,1.56526,-11.304108,4025
31086281,-0.047472272,0.12834957,2.2113812,3999,0,1.5970815,-3.6484735,-9.872914,3999
31090297,-0.20404461,0.067315966,2.2228322,4016,0,0.6162018,1.0703003,-7.451989,4016
31094258,0.09876368,-0.07595453,2.2208939,3961,0,-1.6907722,-1.0630661,-12.044625,3961
31098258,-0.1902995,0.16173284,2.2417843,4000,0,2.29354,-0.94163275,-7.8612075,4000
31102255,0.030363321,-0.11202524,2.295156,3997,0,-1.2228705,0.7415889,-9.971908,3997
31106257,0.004651066,0.0039546555,2.25275,4002,0,0.5127059,-1.8447871,-10.830458,4002
31110261,-0.013624877,-0.1204663,2.264036,4004,0,0.92511094,-0.36213604,-9.051443,4004
31114258,0.17593788,-0.110278115,2.2639134,3997,0,-0.49312532,-1.1998454,-11.769894,3997
31118262,-0.066128634,-0.043139376,2.210102,4004,0,2.6830244,-1.0315119,-6.977795,4004
31122264,0.24253902,-0.31110007,2.2045486,4002,0,-2.35222,0.16508047,-12.626978,4002
31126260,-0.04186931,-0.020972367,2.182333,3996,0,1.4537203,-2.7399383,-9.206288,3996
31130255,0.05708327,-0.25609115,2.2411273,3995,0,1.4819528,1.9816707,-8.74039,3995
31134257,0.3052499,-0.28147542,2.236957,4002,0,-2.0702844,-2.6366665,-11.973899,4002
31138261,-0.17132126,-0.075438395,2.2430413,4004,0,2.8627598,-1.8291144,-7.551403,4004
31142313,0.19765072,-0.33369666,2.3239403,4052,0,-2.1066606,2.7717,-12.273412,4052
31146257,0.08381285,-0.20122309,2.2787414,3944,0,1.1319767,-3.7689166,-9.068578,3944
31150300,0.05457439,-0.362377,2.3213806,4043,0,-0.13931443,-0.3733655,-10.61252,4043
31154257,0.12659697,-0.19984686,2.2943602,3957,0,-0.376038,-1.9368627,-10.807987,3957
31158257,-0.047832817,-0.19494279,2.22722,4000,0,2.707815,-0.1410943,-5.9263096,4000
31162263,0.25804394,-0.45150608,2.233495,4006,0,-4.2579794,-0.66728294,-14.449427,4006
31166257,-0.23369984,-0.035449594,2.172431,3994,0,2.118156,-3.1749232,-6.8449807,3994
31170303,0.053911533,-0.38383588,2.2052479,4046,0,0.76791257,3.2312117,-9.321403,4046
31174257,0.18603998,-0.30456465,2.2267458,3954,0,-2.2488608,-4.920039,-14.709322,3954
31178255,-0.34381768,-0.04018661,2.1975622,3998,0,2.7821584,-0.053144954,-7.2258782,3998
31182268,0.24608336,-0.33578664,2.3111005,4013,0,-2.3865185,2.8475664,-11.724162,4013
31186255,-0.011401698,-0.13568963,2.275951,3987,0,-0.1833129,-4.925364,-9.666275,3987
31190255,-0.1281371,-0.16679242,2.2993796,4000,0,1.1005853,1.392274,-9.815167,4000
31194301,0.17908114,-0.13263619,2.334121,4046,0,-1.078051,-1.3489467,-12.301368,4046
31198257,-0.067620344,-0.15176335,2.2036984,3956,0,1.1034434,-2.1578074,-6.6033635,3956
31202263,0.22363557,-0.18871258,2.247096,4006,0,-1.5325369,-0.5124595,-11.415869,4006
31206262,0.018043509,0.013989111,2.19479,3999,0,0.07216346,-0.7288833,-8.812596,3999
31210255,0.1415007,-0.29303122,2.1248221,3993,0,0.8162964,0.27482253,-8.8043995,3993
31214257,0.26945156,-0.100625604,2.2067513,4002,0,-1.5866008,-3.6244676,-14.4596615,4002
31218257,-0.07225711,-0.035436545,2.1610286,4000,0,1.7009495,2.5802932,-6.123516,4000
31222260,0.46324527,-0.35639015,2.224442,4003,0,-0.85799176,-1.0041059,-8.779264,4003
31226258,0.074333526,-0.057881936,2.2572196,3998,0,0.00040580053,-4.4820056,-11.551297,3998
31230257,0.026320329,-0.22714117,2.226679,3999,0,1.4987516,4.556062,-8.029597,3999
31234302,0.60527444,-0.4279509,2.2955487,4045,0,-2.2722464,-3.3400216,-12.236152,4045
31238260,-0.017185742,-0.0933733,2.229548,3958,0,1.7457153,-4.1631155,-8.862087,3958
31242261,0.21568961,-0.3153459,2.1698585,4001,0,-0.5997676,4.2117248,-8.873103,4001
31246291,0.41223267,-0.38526535,2.1725662,4030,0,-1.0810337,-5.34846,-11.202878,4030
31250265,-0.083467044,-0.21468854,2.082693,3974,0,1.1233175,-1.0980732,-9.938105,3974
31254264,0.35273236,-0.36135086,2.1185327,3999,0,-1.925237,3.2158134,-8.593848,3999
31258257,0.31748742,-0.36683184,2.1411655,3993,0,2.12145,-5.3933496,-7.1313033,3993
31262258,0.024149077,-0.31292245,2.1103253,4001,0,-0.022423364,0.4524015,-11.891079,4001
31266257,0.21200618,-0.43979555,2.18352,3999,0,-1.6856823,2.6304033,-10.502854,3999
31270257,0.30620795,-0.5312765,2.192578,4000,0,0.87407887,-4.550032,-8.255386,4000
31274284,0.09870634,-0.38651732,2.18762,4027,0,0.31024688,-0.2801082,-9.342018,4027
31278255,0.14674884,-0.49761266,2.1874678,3971,0,-0.18858054,1.2296445,-8.0394125,3971
31282275,0.18662523,-0.69148684,2.1484382,4020,0,-1.3259151,-3.4595242,-11.825381,4020
31286257,0.019648554,-0.4568656,2.089263,3982,0,0.9658386,-0.6807127,-12.451072,3982
31290257,0.11293217,-0.5871195,2.0598035,4000,0,1.0885968,-1.0855565,-7.516607,4000
31294261,0.14533502,-0.6490094,2.0412233,4004,0,-2.2720504,-3.1051958,-10.102757,4004
31298293,-0.16473533,-0.41315845,1.9857019,4032,0,1.5322164,0.30000013,-7.7012997,4032
31302257,0.18149415,-0.7712866,2.0325089,3964,0,0.56419706,0.17910664,-10.576592,3964
31306259,0.12502173,-0.604964,2.0582323,4002,0,-2.768739,-3.0240474,-12.124525,4002
31310258,-0.100182824,-0.4479114,2.0523903,3999,0,2.6965325,1.5196844,-4.6357183,3999
31314257,0.38373393,-0.74824303,2.1214674,3999,0,-1.3886403,-0.6321023,-11.763583,3999
31318307,-0.039361525,-0.4674927,2.0946496,4050,0,-1.8418996,-1.7120677,-13.388989,4050
31323055,0.16366448,-0.62075025,2.0599737,4748,0,0.4224776,2.3999753,-8.642086,4748
31327055,0.43553248,-0.601433,2.0638852,4000,0,-1.8635807,-4.913679,-12.693685,4000
31331855,0.033194017,-0.37166503,1.9579252,4800,0,1.113636,0.99965703,-8.584892,4800
31335855,0.62488806,-0.5906395,1.9494046,4000,0,-1.5331473,-0.58431035,-9.5405655,4000
31339889,0.18726104,-0.2973513,1.9008355,4034,0,-2.3223972,-2.5757575,-11.189856,4034
31343855,0.21677911,-0.37451422,1.8505913,3966,0,0.5814297,4.184076,-8.64475,3966
31347855,0.78159606,-0.43252456,1.8968897,4000,0,-0.7004908,-3.8862379,-10.385703,4000
31351897,0.21414262,-0.120200396,1.9200289,4042,0,-0.60884553,-0.46104872,-10.271135,4042
31355855,0.41622746,-0.33469415,1.9301553,3958,0,-0.252092,2.8356347,-8.1652975,3958
31359855,0.74602216,-0.35947165,1.9615864,4000,0,-2.0219383,-4.529585,-13.08004,4000
31363863,0.2830558,-0.0286727,1.9796078,4008,0,1.1204923,0.5094536,-8.620896,4008
31367860,0.6959214,-0.28577223,1.9233471,3997,0,-1.1884129,1.4145267,-7.4325795,3997
31379858,0.7730292,-0.28159264,1.7729527,4000,0,-0.91633785,-0.7959647,-9.113934,4000
31383857,0.4604587,-0.045829237,1.7644618,3999,0,-0.40254778,-4.2472725,-10.275566,3999
31419889,0.0119839795,-0.0029181524,1.6451926,4034,0,0.9373077,1.9153812,-6.5952506,4034
31423855,0.6409591,-0.22450286,1.5973443,3966,0,-0.25178552,-3.3530357,-10.812559,3966
31427855,-0.012943952,0.017912118,1.5370045,4000,0,-0.7630805,-3.1031144,-10.205321,4000
31431855,0.09775324,-0.13203746,1.5251073,4000,0,-2.0480597,3.9116077,-8.273847,4000
31435901,0.41082266,-0.1343229,1.5482578,4046,0,-0.0386705,-6.142801,-11.488899,4046
31439855,-0.22059609,0.17138946,1.5218358,3954,0,2.515099,0.90237373,-8.7815075,3954
31443910,0.32059357,-0.06487341,1.5630939,4055,0,-3.7285342,2.7270725,-9.936917,4055
31447855,0.07768562,0.04662429,1.5813483,3945,0,-2.4619243,-5.5388627,-12.18185,3945
31451855,-0.2464853,0.20431094,1.568318,4000,0,2.2935393,2.2589593,-7.7981453,4000
31455867,0.4925167,0.054409783,1.5616193,4012,0,-1.6884626,-2.6668139,-10.92175,4012
31459864,-0.13208577,0.27309647,1.4766726,3997,0,-1.4924664,-2.7979612,-10.667801,3997
31463855,-0.06965552,0.1640276,1.4261072,3991,0,-0.6900912,3.5759735,-7.890148,3991
31467868,0.38369253,0.09818207,1.3906735,4013,0,-0.36606532,-5.762044,-11.623049,4013
31471873,-0.31022432,0.40766868,1.3191189,4005,0,0.8851984,-0.5564293,-8.568548,4005
31475855,0.18369384,0.18321633,1.2896134,3982,0,-2.5089242,3.5636358,-7.8949065,3982
31479855,0.16941574,0.21141134,1.3009715,4000,0,0.5757869,-5.8343396,-11.786161,4000
31483865,-0.3799952,0.34850967,1.2835929,4010,0,0.5659387,1.7106848,-9.360057,4010
31487857,0.3248548,0.07233799,1.3025858,3992,0,-2.4035616,-0.4392957,-10.525829,3992
31491855,-0.12934706,0.3371707,1.3555057,3998,0,-0.5400917,-3.9721518,-9.681052,3998
31495889,-0.15648767,0.24174751,1.2845145,4034,0,1.2777714,3.6924753,-7.5898337,4034
31499863,0.28179243,0.019964911,1.2926986,3974,0,-1.4596678,-3.5403006,-12.877771,3974
31503855,-0.27936497,0.33109257,1.2619466,3992,0,-0.36450973,-1.9855969,-9.676995,3992
31507855,0.09948691,0.09377358,1.1923183,4000,0,-0.16579533,1.6709265,-7.3314266,4000
31511856,0.14094439,0.062207434,1.173894,4001,0,-1.5038201,-4.7244425,-12.740594,4001
31515855,-0.31603447,0.287092,1.0673401,3999,0,2.27931,1.3079996,-6.693491,3999
31519897,0.29557112,-0.007509453,1.054742,4042,0,-0.28799614,-0.45027596,-8.892016,4042
31523860,-0.053567596,0.19315897,1.1109867,3963,0,-3.7975724,-2.3158267,-13.261521,3963
31527855,-0.14423962,0.13468741,1.0676216,3995,0,1.2654988,2.8949049,-7.892048,3995
31531858,0.33011487,-0.03144855,1.1305841,4003,0,-0.1074077,-3.2141457,-12.02126,4003
31535857,-0.21253622,0.29049382,1.1577357,3999,0,-1.2577028,-0.49147755,-9.402861,3999
31539868,0.11962326,0.016673446,1.1116087,4011,0,2.0080042,1.923957,-6.8153253,4011
31543855,0.29079393,-0.024686806,1.1441262,3987,0,-4.023886,-3.1250439,-15.536925,3987
31547889,-0.20552553,0.25710663,1.0666063,4034,0,1.0778807,1.2731483,-5.3120327,4034
31551855,0.34075573,-0.098303825,1.0236802,3966,0,2.0903406,-2.1456895,-7.201389,3966
31555855,0.034534536,0.10262923,1.0010349,4000,0,-4.848816,-2.6619542,-17.259132,4000
31559855,-0.15572593,0.1350331,0.9094485,4000,0,1.892267,2.7580822,-5.334377,4000
31563855,0.4012497,-0.19036943,0.9268337,4000,0,-0.26118135,-3.5330749,-9.211459,4000
31567855,-0.16601433,0.23805073,0.92538846,4000,0,-1.6762564,-0.010413834,-10.50095,4000
31571855,0.070912585,-0.03375946,0.8850705,4000,0,2.55045,2.3987098,-7.031561,4000
31575873,0.26788962,-0.12068514,0.9801113,4018,0,-4.5809317,-2.78468,-16.81462,4018
31579854,-0.29097283,0.21975552,0.97743183,3981,0,-0.6537366,1.6719058,-6.823894,3981
31583855,0.30006698,-0.15130669,0.98623204,4001,0,3.2653613,-1.0818213,-7.4790406,4001
31587855,0.15267877,0.08542669,1.0014063,4000,0,-4.2639422,-1.7741753,-16.997066,4000
31591858,-0.0666921,0.12322587,0.91202635,4003,0,0.82474124,3.5319052,-6.0715475,4003
31595858,0.45626464,-0.2581934,0.922142,4000,0,-0.92698157,-3.3793674,-11.187005,4000
31599912,-0.086414844,0.21573155,0.85902995,4054,0,-0.9649582,-2.2291005,-10.971477,4054
31603901,0.18456878,-0.040644012,0.7894407,3989,0,2.8523974,2.3732114,-7.0750766,3989
31607855,0.41481337,-0.2573181,0.834654,3954,0,-3.587979,-3.7633853,-13.660104,3954
31611855,-0.10519812,0.1531842,0.786484,4000,0,0.6553693,0.13426182,-6.962882,4000
31615857,0.41002923,-0.24104153,0.8071107,4002,0,3.101869,-0.22440282,-6.9634414,4002
31619868,0.3713238,-0.1406718,0.8454324,4011,0,-5.6266375,-2.7122538,-16.136766,4011
31623869,0.07939917,-0.04830201,0.84003204,4001,0,0.24014696,1.8978406,-3.9681296,4001
31627873,0.6867271,-0.38640955,0.9176316,4004,0,0.67925394,-4.9282002,-8.505825,4004
31631855,0.31310293,-0.056330092,0.86153436,3982,0,-2.4829643,-3.8121905,-13.297575,3982
31635872,0.48833507,-0.26013693,0.8102555,4017,0,1.9540575,0.20785132,-6.8124313,4017
31639855,0.84750736,-0.44850582,0.8295817,3983,0,-4.2176027,-6.9056253,-10.930233,3983
31643884,0.3357339,-0.039611638,0.7300134,4029,0,-0.04757059,-3.2837572,-3.277675,4029
31647855,0.8605171,-0.43952802,0.7154727,3971,0,1.5700119,-2.1796696,-5.8240514,3971
31651890,0.8114771,-0.4005618,0.6984559,4035,0,-5.2981443,-5.7636933,-15.794503,4035
31655861,0.40847355,-0.24897054,0.6537974,3971,0,1.1301826,-0.792755,-1.7004497,3971
31659864,1.1189487,-0.5955966,0.73724407,4003,0,-1.057516,-5.184832,-6.131082,4003
31663855,0.5912896,-0.21172349,0.7207387,3991,0,-3.6271346,-4.5321155,-11.62268,3991
31667855,0.5862606,-0.49614465,0.6959435,4000,0,1.5544553,1.1785173,-7.003852,4000
31671855,0.98433125,-0.6122804,0.79951733,4000,0,-4.228037,-5.7074842,-14.038078,4000
31675855,0.2699021,-0.17434126,0.7064576,4000,0,0.5208065,-2.3852766,-4.0475683,4000
31679860,0.7574996,-0.59754574,0.7094152,4005,0,-0.08608367,0.59266585,-8.136905,4005
31683861,0.48984993,-0.40072665,0.70801973,4001,0,-3.063148,-5.6487393,-16.107904,4001
31687897,0.04810398,-0.32193857,0.5732399,4036,0,-0.03711579,1.4377769,-6.318581,4036
31691855,0.6041588,-0.50234556,0.66731083,3958,0,-0.5217713,-4.327774,-12.441234,3958
31695855,0.00984688,-0.09021043,0.59653306,4000,0,-1.4417558,-3.2856913,-11.945785,4000
31699884,0.094734885,-0.3849344,0.58787096,4029,0,-2.2366726,3.0245836,-9.535055,4029
31703889,0.158398,-0.27554795,0.668475,4005,0,-0.5757529,-5.4550724,-11.611398,4005
31707883,-0.26283756,-0.093928345,0.6323714,3994,0,-1.4447325,1.7216566,-10.715925,3994
31711855,0.105517775,-0.22244805,0.67966026,3972,0,-0.25485757,0.060739126,-11.411205,3972
31715855,-0.18050455,-0.14371498,0.6731722,4000,0,-1.8169329,-2.465129,-11.064829,4000
31719857,-0.19931519,-0.14343333,0.6687746,4002,0,-3.1890981,2.0143344,-11.258941,4002
31723855,-0.0942036,-0.077991836,0.657781,3998,0,2.8302891,-3.4029868,-8.332049,3998
31727855,-0.17577563,-0.16946478,0.62544465,4000,0,-3.0456288,-0.41423738,-13.7009325,4000
31731873,-0.30406064,-0.07495052,0.5567997,4018,0,-1.3693264,0.42166448,-9.724506,4018
31735855,-0.13758385,-0.2503325,0.5566445,3982,0,1.9656348,-2.1406686,-6.7567186,3982
31740668,-0.13926783,-0.12050753,0.5624958,4813,0,-2.2950897,-1.486625,-11.890773,4813
31744655,-0.28147703,-0.21027279,0.5195531,3987,0,2.3553019,0.7187865,-7.288902,3987
31748655,0.06554785,-0.4658738,0.60937315,4000,0,-3.939168,-2.08208,-14.699512,4000
31752673,-0.4017885,-0.0822552,0.5573082,4018,0,0.40511864,-1.178172,-6.5177774,4018
31757455,0.12137588,-0.5372007,0.6277097,4782,0,-0.06779377,-0.24292904,-6.9552455,4782
31761478,-0.08864985,-0.34812087,0.5992461,4023,0,-4.123195,-4.2396655,-15.287761,4023
31765455,-0.21858412,-0.4058621,0.53267187,3977,0,1.2264625,2.9597557,-4.4425178,3977
31769464,0.541293,-0.6757933,0.6070797,4009,0,-2.9838085,-5.6661844,-10.593964,4009
31773461,-0.26582405,-0.3088697,0.46403334,3997,0,0.50233865,-3.8304198,-7.7824473,3997
31777457,0.15566233,-0.7318113,0.46535236,3996,0,-2.590769,3.8271818,-6.6200156,3996
31781457,0.38990617,-0.6362405,0.48083898,4000,0,-2.813624,-7.5312505,-9.972396,4000
31785461,-0.14084247,-0.51363015,0.38658446,4004,0,1.7429202,0.6759496,-8.518138,4004
31789455,0.43267483,-0.87541556,0.4747374,3994,0,-4.0635495,0.8384505,-12.481043,3994
31793464,0.026323318,-0.6048424,0.4806782,4009,0,-0.12493879,-4.7772026,-7.7319393,4009
31797495,0.06658882,-0.75247973,0.46553928,4031,0,0.8701723,2.0820978,-8.150082,4031
31801461,0.34652123,-0.7504485,0.5301306,3966,0,-4.7759733,-1.828955,-15.673093,3966
31805497,-0.15919903,-0.6467735,0.49267522,4036,0,0.5796319,-1.5820454,-7.0348706,4036
31809455,0.2135083,-0.78772014,0.494445,3958,0,-1.7693816,-0.6722237,-9.236751,3958
31813455,-0.018872445,-0.49568397,0.46127114,4000,0,1.1338948,-3.2115433,-11.196518,4000
31817455,-0.089962356,-0.67333883,0.39196494,4000,0,-2.2835412,2.5352352,-12.03344,4000
31821464,0.037119374,-0.6313787,0.37769508,4009,0,-4.0085206,-2.0220182,-11.50973,4009
31825506,-0.21404187,-0.4373456,0.34670427,4042,0,3.3449252,-2.8183954,-7.6147685,4042
31829461,0.04773767,-0.494355,0.33701247,3955,0,-3.7278872,0.86679614,-14.458649,3955
31833478,-0.21918245,-0.41551217,0.3205495,4017,0,-1.4868547,-1.2047703,-7.864604,4017
31837479,-0.09079937,-0.51467,0.37042642,4001,0,-0.40123773,-1.6693336,-9.9681635,4001
31841455,-0.18049406,-0.2903072,0.3750541,3976,0,-2.3725784,-1.4740398,-12.167948,3976
31845457,-0.21465208,-0.38903147,0.3488342,4002,0,2.6415694,0.30800784,-6.653764,4002
31849489,0.08541608,-0.50118405,0.41180617,4032,0,-5.111268,-3.203889,-14.0057745,4032
31853462,-0.45451272,-0.17960133,0.31922415,3973,0,0.3671132,-1.3982396,-5.516727,3973
31857455,0.12784037,-0.513667,0.3112063,3993,0,0.5113612,-0.51156473,-7.0754724,3993
31861455,-0.039782565,-0.33335176,0.2685251,4000,0,-5.2559867,-4.690081,-14.57999,4000
31865461,-0.40237978,-0.28023782,0.15552853,4006,0,1.988112,2.8191998,-3.5379438,4006
31869455,0.34062618,-0.5956143,0.21200617,3994,0,-2.0328462,-4.492774,-11.38931,3994
31873456,-0.43871382,-0.16399172,0.12076362,4001,0,-1.7115966,-1.8867652,-12.3289995,4001
31877473,-0.11352065,-0.49264285,0.1159983,4017,0,-0.27771375,5.8856535,-8.739911,4017
31881462,0.2802097,-0.51467514,0.22764498,3989,0,-2.6287048,-6.815685,-12.4927635,3989
31885455,-0.61344373,-0.10276752,0.13279468,3993,0,2.096046,1.9213039,-7.4757485,3993
31889503,0.18031539,-0.5934371,0.1890946,4048,0,-1.9322673,3.1196659,-11.374192,4048
31893455,-0.14204001,-0.33856478,0.16807176,3952,0,-3.0141423,-5.411928,-15.750514,3952
31897457,-0.43509865,-0.23879,0.13092336,4002,0,1.7055346,2.9799998,-5.4619985,4002
31901510,0.42130622,-0.4954412,0.14788114,4053,0,-2.4900615,-3.381529,-11.448777,4053
31905455,-0.32262722,-0.13123484,0.04722296,3945,0,0.8997531,-2.7126253,-10.884618,3945
31909467,-0.059969585,-0.3603313,0.01264749,4012,0,-1.7905942,4.44443,-9.495568,4012
31913455,0.29890287,-0.3539826,-0.006300007,3988,0,-1.8042959,-6.2985387,-13.002806,3988
31917455,-0.3700832,-0.056906797,-0.065571256,4000,0,1.6688596,1.1836499,-8.213961,4000
31921465,0.30164918,-0.3606152,-0.050151173,4010,0,-2.875722,1.2440618,-8.698879,4010
31925455,0.01251709,-0.11391596,-0.021399632,3990,0,-1.1827338,-4.4139876,-10.835,3990
31929475,-0.24698295,-0.12524913,-0.008277803,4020,0,0.2590962,3.0417385,-8.145677,4020
31933464,0.35250485,-0.379406,0.008618434,3989,0,-1.8337574,-2.9413145,-12.990499,3989
31937462,-0.31094173,0.00022129179,0.001020936,3998,0,0.6429998,-1.0428771,-10.4639635,3998
31941463,0.046159863,-0.22750767,-0.03621046,4001,0,-3.3411822,3.711748,-7.4551835,4001
31945463,0.037613973,-0.25055307,-0.07534686,4000,0,0.45714778,-6.2561607,-10.230215,4000
31949457,-0.38800517,-0.06417457,-0.14485183,3994,0,0.016376425,1.869737,-11.03022,3994
31953495,0.1467701,-0.33115712,-0.20059004,4038,0,-2.8222957,-1.0918032,-11.636809,4038
31957455,-0.20234554,-0.14610326,-0.24631512,3960,0,0.54522604,-4.560666,-10.458904,3960
31961455,-0.24459755,-0.17158507,-0.26271343,4000,0,-1.9165832,2.7337453,-7.6515837,4000
31965464,0.007822352,-0.28122514,-0.25625777,4009,0,0.068743326,-3.9742327,-9.756552,4009
31969455,-0.3448669,-0.15310283,-0.23145682,3991,0,-0.6156056,1.6011592,-12.007601,3991
31973510,0.052545704,-0.31087214,-0.2099701,4055,0,-3.4674911,1.0865947,-10.740402,4055
31977455,-0.13224338,-0.1907921,-0.18228972,3945,0,2.0604453,-5.114053,-8.966248,3945
31981489,-0.2802232,-0.17004766,-0.17475353,4034,0,-2.8963118,2.6459732,-9.556935,4034
31985455,0.032579333,-0.25195375,-0.2145769,3966,0,-1.350946,-3.510434,-10.199941,3966
31989455,-0.24884325,-0.13281295,-0.24900447,4000,0,0.42833802,-2.0311654,-11.988733,4000
31993486,-0.089684784,-0.14519294,-0.28947926,4031,0,-3.9256175,1.2516928,-11.328695,4031
31997457,-0.18818322,-0.0721158,-0.37297842,3971,0,1.9530367,-5.0317774,-7.6977353,3971
32001455,-0.25251338,0.014489032,-0.34445244,3998,0,-3.5644321,2.4901867,-11.721371,3998
32005488,-0.13008222,0.067474246,-0.3795986,4033,0,-2.1132536,-2.6222363,-10.6669445,4033
32009455,-0.4055906,0.1030924,-0.39324194,3967,0,1.3251809,-0.3419179,-10.849016,3967
32013458,-0.1900117,0.16635123,-0.33094656,4003,0,-3.2213867,-0.35590762,-13.016376,4003
32017455,-0.38934907,0.32921338,-0.40955457,3997,0,-0.15467119,-3.9830341,-9.216265,3997
32021474,-0.47013304,0.33187154,-0.31266388,4019,0,-4.3657613,2.39213,-11.959647,4019
32025457,-0.2751458,0.5135709,-0.31961173,3983,0,-2.1660461,-4.183944,-11.37749,3983
32029455,-0.6556445,0.6172838,-0.42087838,3998,0,2.4326794,-0.36701325,-8.756168,3998
32033494,-0.3096851,0.60166425,-0.33865568,4039,0,-5.1982493,0.12753339,-13.125133,4039
32037457,-0.5665806,0.91340834,-0.46214718,3963,0,-1.8196973,-3.4367278,-10.485815,3963
32041463,-0.62666744,0.83079505,-0.46207708,4006,0,-0.20418942,1.7147795,-9.569208,4006
32045455,-0.27979752,1.0466257,-0.44460434,3992,0,-4.552175,-5.3212576,-14.143443,3992
32049462,-0.9080845,1.3333312,-0.5290693,4007,0,-0.5747059,1.5678744,-7.0429792,4007
32053455,-0.25214487,1.0761386,-0.48007038,3993,0,-2.5249982,-0.5164043,-13.086375,3993
32057539,-0.70745736,1.6170869,-0.50143284,4084,0,-3.8546205,-3.1921768,-14.939472,4084
32061471,-0.70879704,1.5650071,-0.48134777,3932,0,-0.039365634,3.2334917,-6.515674,3932
32065457,-0.08997383,1.63219,-0.47230992,3986,0,-4.4400477,-3.1349897,-13.999645,3986
32069455,-0.9778214,2.0723786,-0.5195749,3998,0,-0.4989344,-0.10705634,-6.79233,3998
32073455,-0.20188387,1.7569464,-0.46220252,4000,0,-4.4037733,1.5756966,-14.045461,4000
32077481,-0.57973456,2.1358416,-0.5574367,4026,0,-1.0850939,-4.544015,-12.407588,4026
32081461,-0.50701267,2.0579398,-0.5223873,3980,0,-1.9572939,2.0757291,-10.171182,3980
32085491,-0.20327957,2.196884,-0.566591,4030,0,-4.02483,-2.3036845,-11.143855,4030
32089455,-0.57102394,2.1894104,-0.6887572,3964,0,2.7452,1.523981,-3.6164455,3964
32093455,-0.038541276,2.0262258,-0.6208731,4000,0,-3.9929256,0.1649179,-14.704615,4000
32097465,-0.63398063,2.257253,-0.72293013,4010,0,-2.0037868,-1.2849029,-9.681121,4010
32101461,-0.14997338,1.8464236,-0.6630169,3996,0,-0.5018865,2.3483777,-9.732828,3996
32105464,-0.08550014,2.0468106,-0.6892551,4003,0,-0.32362878,-4.953775,-10.872122,4003
32109496,-0.4920057,2.016018,-0.79275155,4032,0,1.9824535,2.880859,-5.4715753,4032
32113455,0.12714618,1.5550758,-0.6884772,3959,0,-5.582293,0.78340256,-14.242913,3959
32117455,-0.47245938,1.7918135,-0.7666835,4000,0,2.2170498,-3.0238369,-7.870636,4000
32121461,-0.110172294,1.4634265,-0.7079334,4006,0,2.8912895,2.9139657,-7.491122,4006
32125455,0.08263327,1.3895859,-0.6887538,3994,0,-2.741753,-2.805141,-13.471091,3994
32129457,-0.43521616,1.3564594,-0.73723793,4002,0,0.10552307,1.7636207,-7.779484,4002
32133462,0.049057156,1.0153142,-0.6342437,4005,0,-1.2154121,0.72395426,-10.263238,4005
32137457,-0.1807141,1.1357541,-0.6771285,3995,0,3.1978383,-2.9520879,-8.813253,3995
32141488,-0.17381902,0.8103699,-0.6627842,4031,0,-1.5667691,1.2744746,-11.513765,4031
32145457,-0.21987645,0.86602956,-0.65220547,3969,0,-0.50709665,-1.1696681,-9.904324,3969
32149455,-0.17571649,0.76391864,-0.67158836,3998,0,0.6066895,-0.23284245,-7.7373514,3998
32153455,-0.08682935,0.57832956,-0.62277675,4000,0,-3.1254056,-1.7903059,-13.183586,4000
32158301,-0.4112525,0.73655176,-0.6735554,4846,0,0.9795789,1.2079891,-6.726671,4846
32163055,-0.045613486,0.41593814,-0.61716664,4754,0,-2.4115002,-2.0100718,-10.223014,4754
32167061,-0.49133432,0.73962736,-0.6382574,4006,0,4.2357306,-1.4920111,-8.451831,4006
32171066,-0.16201314,0.28260604,-0.628746,4005,0,-2.2895765,4.0879025,-10.031123,4005
32175134,-0.15525624,0.38377064,-0.5862306,4068,0,-0.7374218,-4.207727,-10.485339,4068
32179086,-0.46624494,0.51553684,-0.6235733,3952,0,0.29803753,1.5586916,-7.2925963,3952
32183066,-0.07783476,0.1752661,-0.5768793,3980,0,-2.2406297,1.2995485,-11.133158,3980
32187055,-0.34635678,0.42344093,-0.5488939,3989,0,1.144289,-2.6505136,-9.580663,3989
32191055,-0.20443523,0.2876719,-0.6194759,4000,0,-1.8105091,1.4183195,-10.975699,4000
32195067,-0.18372229,0.3246667,-0.5868554,4012,0,1.4985528,-0.80867964,-9.779601,4012
32199055,-0.2724559,0.3038564,-0.61945766,3988,0,-1.8671186,-0.24642096,-8.826496,3988
32203089,-0.1615521,0.32572567,-0.6627708,4034,0,0.7507158,-0.7729983,-10.066738,4034
32207058,-0.21038273,0.3291809,-0.5881162,3969,0,-1.3532248,0.511064,-9.786635,3969
32211055,-0.04422975,0.21425611,-0.66154796,3997,0,-1.9728118,-0.82198256,-9.472137,3997
32215056,-0.2027465,0.45228377,-0.673437,4001,0,3.6784,-2.2111032,-8.0903225,4001
32219064,-0.12302068,0.25812724,-0.64252347,4008,0,-2.783928,1.572982,-11.147513,4008
32223055,-0.056875303,0.28201887,-0.6848395,3991,0,-2.15448,-0.9627883,-9.281976,3991
32227055,-0.16296794,0.37666053,-0.65829086,4000,0,3.0787888,-1.737539,-5.8939056,4000
32231073,-0.0029982093,0.2673341,-0.68672687,4018,0,-2.0074136,0.99439573,-11.17774,4018
32235058,-0.08334123,0.29622594,-0.7338439,3985,0,-1.5500557,-0.57212186,-9.771519,3985
32239055,-0.07835932,0.21532823,-0.77973753,3997,0,1.5832604,-2.2117743,-7.6772466,3997
32243055,0.007951801,0.33516178,-0.82793725,4000,0,-0.047456983,0.22907412,-10.8013115,4000
32247056,-0.045579597,0.23217157,-0.8775854,4001,0,-1.7450719,-0.28446105,-9.222792,4001
32251055,-0.08337064,0.15475105,-0.9282368,3999,0,-0.5096125,-1.4003671,-8.152081,3999
32255088,0.0903592,0.31664473,-0.96553195,4033,0,2.031268,-0.9023761,-8.944421,4033
32259125,0.011535568,0.18692723,-1.0185108,4037,0,-0.1080144,-1.423551,-10.979667,4037
32263065,-0.17238574,0.14553346,-1.0422022,3940,0,-3.4595904,2.4072754,-9.106448,3940
32267055,0.13465117,0.20503141,-1.0171386,3990,0,0.8707774,-2.2221088,-6.481014,3990
32271055,-0.020252278,0.2345847,-1.045893,4000,0,2.203507,-2.8197236,-10.569155,4000
32275055,-0.04165942,0.1576627,-1.1556072,4000,0,-2.0762737,2.7816794,-10.278446,4000
32279062,0.1274171,0.124392636,-1.1545217,4007,0,-0.86899805,-3.3444026,-8.624784,4007
32283065,-0.1649482,0.23074201,-1.2112713,4003,0,0.34140664,-0.6030389,-8.251572,4003
32287055,0.21792659,0.16837342,-1.3054619,3990,0,0.91910005,-1.0956613,-6.2515864,3990
32291058,-0.005684,0.21315649,-1.3173016,4003,0,-2.4470985,-1.5198478,-11.796648,4003
32295055,-0.19203004,0.1700475,-1.4049485,3997,0,-0.61117667,1.5247917,-8.591237,3997
32299058,0.22097054,0.09293874,-1.4668604,4003,0,2.1454182,-4.2994924,-8.359728,4003
32303063,-0.16678435,0.3177635,-1.4506301,4005,0,-1.6385719,0.8683054,-9.052488,4005
32307089,0.039731216,0.13089271,-1.5195295,4026,0,-0.07211321,-0.21942197,-6.7724166,4026
32311055,0.009026106,0.099911496,-1.5420997,3966,0,-0.20729414,-2.68953,-11.770316,3966
32315055,-0.17807564,0.22223221,-1.5512265,4000,0,-0.5152953,1.362512,-7.554389,4000
32319058,0.15845592,0.014452175,-1.5987549,4003,0,1.4229314,-3.0690298,-8.12529,4003
32323055,-0.2257924,0.1699001,-1.6844583,3997,0,-0.9250806,1.1071887,-7.7043395,3997
32327055,0.13592008,0.07323042,-1.6705683,4000,0,0.07370601,-0.39770514,-7.051605,4000
32331061,-0.1345026,0.012667197,-1.7112485,4006,0,-1.5007737,-2.462823,-12.260578,4006
32335102,-0.22715944,0.07607563,-1.7833277,4041,0,0.45654178,1.3158276,-4.512037,4041
32339055,0.16777813,-0.010902393,-1.7582784,3953,0,0.6101548,-2.309207,-9.192013,3953
32343165,-0.31867704,0.08606481,-1.8335296,4110,0,-1.540668,1.4481264,-8.93625,4110
32347058,0.024009002,-0.038935993,-1.8640712,3893,0,2.5161595,-1.0016792,-5.0887747,3893
32351055,-0.09687094,0.06235645,-1.8533627,3997,0,-4.2338285,-0.4067036,-12.215169,3997
32355055,-0.27536067,0.060663994,-1.8136357,4000,0,0.2878753,1.2517833,-5.5136847,4000
32359109,-0.010721744,-0.029658029,-1.853786,4054,0,2.0703158,-2.9011972,-7.591452,4054
32363083,-0.24149813,0.113648616,-1.9118868,3974,0,-2.0148835,2.912181,-8.646426,3974
32367055,0.08904935,0.025085775,-1.8862368,3972,0,2.0744526,-1.7026826,-7.481215,3972
32371055,-0.26428786,0.09042347,-1.9929365,4000,0,-2.6668634,-0.64146435,-10.821632,4000
32375062,-0.1594862,0.064713195,-2.0009212,4007,0,-0.4937523,2.4765491,-6.663725,4007
32379058,0.08660691,0.050588876,-2.0102289,3996,0,0.12619881,-3.5529354,-9.693249,3996
32383066,-0.36238924,0.24212998,-2.1094732,4008,0,0.12541768,1.8779006,-5.0923276,4008
32387065,0.06624005,0.031717733,-2.1186392,3999,0,0.7491456,0.9537622,-8.112994,3999
32391055,-0.060905736,0.18244347,-2.1579297,3990,0,-3.7531345,0.35824618,-13.090658,3990
32395055,-0.16328289,0.1496136,-2.109808,4000,0,0.7708199,0.18473697,-5.7875476,4000
32399055,-0.049756087,0.08498993,-2.1215425,4000,0,-0.6944063,-0.4510403,-11.547358,4000
32403064,-0.14706339,0.24791834,-2.1001208,4009,0,-0.086491115,1.962775,-6.657166,4009
32407064,0.1797477,0.15828912,-2.094728,4000,0,2.2541656,-0.82448727,-8.289629,4000
32411089,-0.18476747,0.24217759,-2.1773863,4025,0,-1.644076,1.4620087,-11.232329,4025
32415055,0.0044111987,0.21579388,-2.140384,3966,0,0.28798395,1.3151789,-8.294058,3966
32419072,0.21052253,0.18372113,-2.2069895,4017,0,-1.4087358,-2.0504425,-10.448567,4017
32423061,-0.132223,0.33594623,-2.2589288,3989,0,0.671895,1.1579299,-6.113063,3989
32427132,0.22631323,0.18981563,-2.2714388,4071,0,0.80231476,-0.09518219,-10.206427,4071
32431055,0.06210214,0.26437083,-2.365037,3923,0,-3.305479,0.6850223,-12.757684,3923
32435057,0.023884643,0.18716751,-2.2844865,4002,0,1.9649051,2.5342236,-7.65201,4002
32439065,0.30185574,0.08971136,-2.2877252,4008,0,0.18475379,-2.0491931,-9.941159,4008
32443062,0.04722317,0.24348944,-2.2850664,3997,0,-1.8580338,0.81294525,-8.977258,3997
32447067,0.23287034,0.0975706,-2.2006161,4005,0,-0.34236965,2.4418976,-10.11273,4005
32451055,0.22299246,0.029579964,-2.2221372,3988,0,-0.36172208,-2.4929657,-11.54873,3988
32455055,0.06882391,0.10371202,-2.2311647,4000,0,1.2269964,1.1671021,-7.484925,4000
32459065,0.44709438,0.004402772,-2.2466652,4010,0,-0.74924684,-0.31877387,-10.147658,4010
32463091,0.109518014,-0.0043089995,-2.3148751,4026,0,-0.7237311,-1.5972077,-12.382321,4026
32467055,0.15061653,-0.03735559,-2.3611348,3964,0,-0.09165898,1.7186112,-8.405063,3964
32471055,0.43553543,-0.02320951,-2.3891265,4000,0,0.23732702,-2.9412577,-9.591926,4000
32475055,0.016534159,0.044433814,-2.4065292,4000,0,0.36217877,0.8941064,-11.327623,4000
32479055,0.24534065,-0.07306019,-2.4304726,4000,0,-1.996838,1.6508623,-10.107003,4000
32483061,0.1797238,-0.015006497,-2.3562076,4006,0,-1.0694722,-1.5392438,-11.5821295,4006
32487058,-0.04526436,0.03519837,-2.2765863,3997,0,1.0972044,1.2469724,-8.557759,3997
32491065,0.32950956,-0.07549143,-2.2952695,4007,0,0.75352246,-1.581028,-8.476884,4007
32495055,-0.03909098,0.01954961,-2.2304037,3990,0,-1.4027541,0.38327393,-13.798276,3990
32499084,-0.028257832,-0.052057948,-2.2559683,4029,0,-0.19126385,1.7664655,-9.789293,4029
32503061,0.2437532,-0.12341048,-2.3017437,3977,0,-0.1678175,-3.5644727,-9.289636,3977
32507055,-0.11190292,0.13544327,-2.3004572,3994,0,-0.006851081,0.004613138,-8.986231,3994
32511125,0.107977726,-0.06888787,-2.4049687,4070,0,1.064941,-0.27381304,-8.592286,4070
32515105,0.09505773,-0.09906962,-2.4347243,3980,0,-1.5271562,-2.2933707,-12.789362,3980
32519064,-0.076710336,0.19870894,-2.4133463,3959,0,1.092009,0.6509724,-3.805251,3959
32523055,0.21534312,-0.07116687,-2.4180968,3991,0,1.8432728,-3.8187077,-5.8750567,3991
32527061,-0.0079565095,0.09381523,-2.3708417,4006,0,-2.681052,0.07195303,-12.129565,4006
32531083,0.114138044,0.1005029,-2.3069253,4022,0,1.0206944,0.015384378,-5.4783926,4022
32535060,0.27085677,-0.10281271,-2.2789712,3977,0,-0.17762792,-5.0655513,-9.039543,3977
32539055,0.026796684,0.23910299,-2.2580585,3995,0,-1.967575,1.7682898,-9.966068,3995
32543093,0.3593493,-0.03824631,-2.2553942,4038,0,0.69229907,-1.4268979,-8.027083,4038
32547067,0.23043995,-0.07914097,-2.3139312,3974,0,-1.86085,-2.9689014,-12.705,3974
32551055,0.13540569,0.17215744,-2.345829,3988,0,0.43113184,1.4140697,-6.9209085,3988
32555055,0.4224663,-0.18055241,-2.398846,4000,0,2.057968,-3.6220605,-7.5523562,4000
32559055,0.2056482,-0.09925866,-2.4714081,4000,0,-4.3182635,-0.21028604,-14.916232,4000
32563061,0.082624964,-0.0070267627,-2.4453309,4006,0,1.4442114,0.101527445,-4.869225,4006
32567110,0.33598897,-0.26741028,-2.4206634,4049,0,0.8434911,-3.1783314,-10.246777,4049
32571071,0.052385412,-0.015307937,-2.406354,3961,0,-1.9437077,1.4972565,-14.006724,3961
32575055,0.16420259,-0.2221762,-2.3180532,3984,0,1.9238341,0.6174822,-8.556822,3984
32579885,0.1986925,-0.26589665,-2.2933862,4830,0,-3.5235727,-2.579581,-14.743365,4830
32583862,-0.1322692,-0.0038810652,-2.2571135,3977,0,1.9832194,0.45073456,-4.834371,3977
32587906,0.38981083,-0.273102,-2.2129376,4044,0,0.40944523,-3.2120707,-7.86886,4044
32591858,-0.07219733,-0.0500488,-2.305554,3952,0,-1.8107746,-2.570537,-12.459044,3952
32596655,0.095386386,-0.1280739,-2.3126686,4797,0,1.7702152,-0.41200638,-6.258186,4797
32600678,0.21803498,-0.18533657,-2.3507566,4023,0,-2.5479155,-6.6964107,-12.083322,4023
32604655,-0.24341832,0.19825992,-2.4122038,3977,0,3.6421134,-1.0143858,-2.9514942,3977
32608708,0.33387443,-0.1663114,-2.3387687,4053,0,-0.03088815,-0.5487813,-9.437847,4053
32612655,-0.11346145,0.03155598,-2.3732862,3947,0,-4.5164933,-1.1602867,-14.273578,3947
32616655,-0.23109277,-0.011837845,-2.332415,4000,0,2.8997219,3.1289213,-7.244425,4000
32620657,0.31427884,-0.07198234,-2.2109454,4002,0,-1.5048631,-3.3424933,-12.176798,4002
32624662,-0.37258685,0.2488,-2.276071,4005,0,-0.6121509,0.8140954,-9.563417,4005
32628697,-0.03366113,-0.12573586,-2.2102902,4035,0,0.8332098,3.0893576,-10.207617,4035
32632655,-0.048384033,-0.027911186,-2.2141259,3958,0,-3.00939,-4.735094,-14.925765,3958
32636665,-0.49973315,0.15267208,-2.3286393,4010,0,3.4955714,1.4215666,-6.0974164,4010
32640657,0.22201674,-0.16062863,-2.250361,3992,0,-1.78316,-0.5530248,-11.15328,3992
32644655,-0.3779397,0.10271174,-2.392877,3998,0,-1.242057,-3.5559714,-11.019854,3998
32648667,-0.3341576,-0.028261578,-2.425257,4012,0,2.4539864,3.014569,-6.738511,4012
32652660,0.1308642,-0.054621525,-2.3326948,3993,0,-2.0505774,-4.3754334,-12.799069,3993
32656655,-0.53110164,0.13918762,-2.428524,3995,0,0.832088,0.49132183,-7.431646,3995
32660754,-0.017715013,-0.15696374,-2.281747,4099,0,0.5828012,2.3152146,-7.657641,4099
32664657,-0.043633647,0.062980235,-2.2558615,3903,0,-1.6775357,-4.9974656,-11.907541,3903
32668663,-0.4559656,0.023179444,-2.2945244,4006,0,2.7067542,2.8809152,-9.462912,4006
32672655,0.16620997,-0.19959982,-2.1681814,3992,0,-3.4425147,0.061084855,-12.966233,3992
32676655,-0.23334232,0.075016886,-2.260969,4000,0,1.9134122,-3.1577156,-6.513045,4000
32680657,-0.034174334,-0.1627874,-2.2562096,4002,0,2.297275,2.1465826,-7.3258576,4002
32684658,0.16710714,-0.16691676,-2.25299,4001,0,-3.9173398,-2.140701,-15.699778,4001
32688669,-0.28484598,-0.17277616,-2.3744278,4011,0,2.990352,-0.60743374,-7.365799,4011
32692655,0.22984515,-0.3404955,-2.2905295,3986,0,0.41807744,-0.099371605,-9.815937,3986
32696659,0.024650982,-0.17408091,-2.3338552,4004,0,0.1406058,-1.3419816,-9.32312,4004
32700657,-0.0047998745,-0.5055316,-2.3221025,3998,0,0.7948001,1.5519919,-11.299263,3998
32704664,0.14438038,-0.4911476,-2.2411146,4007,0,-2.8686385,-0.4903904,-12.665155,4007
32708655,0.009530819,-0.3626897,-2.2457428,3991,0,4.7151012,-1.3491211,-4.5760503,3991
32712745,0.20864286,-0.66501844,-2.1803224,4090,0,-0.41090712,-0.5705793,-12.51472,4090
32716661,-0.06249247,-0.5098824,-2.1838822,3916,0,-2.0034509,0.8620401,-12.129394,3916
32720665,0.13025956,-0.7367471,-2.161559,4004,0,3.9757254,-2.010882,-7.7676754,4004
32724655,0.27907243,-0.75575674,-2.1606014,3990,0,-2.1007557,-2.7400863,-14.224127,3990
32728655,-0.13222918,-0.5314621,-2.2288544,4000,0,1.8772798,1.2676204,-6.5436454,4000
32732681,0.2990402,-0.9440912,-2.210357,4026,0,1.8234471,-1.5521533,-9.884289,4026
32736655,0.08691893,-0.73591864,-2.2491155,3974,0,-1.727551,-3.2133517,-17.117947,3974
32740670,-0.10700332,-0.7956493,-2.2564585,4015,0,2.2928083,2.2592676,-7.1156244,4015
32744655,0.4179614,-1.0502716,-2.151659,3985,0,-0.65632313,-3.4875596,-9.673688,3985
32748655,-0.12532163,-0.6366703,-2.2053478,4000,0,3.4481947,-2.3267415,-7.457714,4000
32752655,0.09771321,-1.0455626,-2.1283033,4000,0,1.0649868,3.791359,-12.076552,4000
32756655,0.21430449,-1.0580742,-2.085055,4000,0,-3.7289095,-3.851268,-16.221552,4000
32760665,-0.24653019,-0.7988555,-2.138161,4010,0,5.6478157,-2.1321895,-5.745376,4010
32764702,0.26066512,-1.1012504,-2.0259871,4037,0,-2.094022,1.2544583,-11.666259,4037
32768657,-0.07212728,-0.9219546,-2.119283,3955,0,-0.054545917,-3.0270479,-9.073219,3955
32772655,-0.045684576,-1.079495,-2.1569648,3998,0,3.3630826,-0.10848545,-10.210531,3998
32776655,0.06850965,-1.026232,-2.0924678,4000,0,-3.676507,-1.7650397,-17.298666,4000
32780663,-0.31128156,-0.98422915,-2.2189612,4008,0,2.0844936,-1.5203584,-6.194946,4008
32784658,0.0754335,-1.1408406,-2.1129577,3995,0,1.4091148,-1.3674431,-11.633278,3995
32788655,-0.2503425,-0.8073604,-2.154497,3997,0,0.04491133,-0.53155595,-11.088368,3997
32792665,-0.17824966,-1.1726317,-2.1305027,4010,0,-0.9427716,2.2117643,-10.257054,4010
32796697,-0.13453414,-1.0048575,-1.9910977,4032,0,-2.0076542,-3.1250288,-15.087127,4032
32800663,-0.33219683,-0.8017315,-2.0565364,3966,0,4.9744225,-0.12817027,-8.258377,3966
32804655,0.13248675,-1.1613989,-1.946205,3992,0,-2.0869071,-0.27715313,-16.167934,3992
32808655,-0.4568888,-0.75206286,-2.0077648,4000,0,-1.8068984,-1.5032095,-8.854788,4000
32812657,-0.10472596,-0.91798633,-2.0065997,4002,0,3.0031326,1.3056735,-6.6540923,4002
32816717,0.025387367,-0.88486224,-1.9862013,4060,0,-1.896196,-4.93972,-18.401846,4060
32820669,-0.5865879,-0.6988555,-2.146881,3952,0,1.3510805,2.8631217,-8.690384,3952
32824668,0.25248745,-0.9969104,-2.0058274,3999,0,-0.21880917,-1.6344846,-11.629851,3999
32828655,-0.28027317,-0.5112808,-2.0605493,3987,0,-0.40856135,-4.048165,-12.391338,3987
32832655,-0.28622872,-0.75518906,-2.0760126,4000,0,-0.36742365,6.6999235,-9.105791,4000
32836655,0.15085216,-0.81427145,-1.9509263,4000,0,-0.9735197,-5.366993,-14.695084,4000
32840657,-0.52599686,-0.4317672,-2.0209131,4002,0,2.2524047,-0.12652096,-11.052252,4002
32844665,0.13126704,-0.73126245,-1.8810287,4008,0,-2.0257428,3.2272592,-13.234143,4008
32848655,-0.1500876,-0.5037654,-1.8996192,3990,0,-0.6763077,-5.7377987,-10.097099,3990
32852657,-0.35056302,-0.46687296,-1.9543135,4002,0,1.7788543,3.829833,-8.045275,4002
32856655,0.1468175,-0.5047217,-1.8850127,3998,0,-0.9468813,-3.0765305,-14.846379,3998
32860660,-0.38096794,-0.41554698,-1.9950281,4005,0,0.396162,-2.6135716,-10.683022,4005
32864655,-0.11136301,-0.4531396,-1.9719536,3995,0,-1.0900676,2.769856,-9.942647,3995
32868702,-0.12802128,-0.34440234,-1.9865241,4047,0,2.131649,-4.5899878,-9.942625,4047
32872657,-0.3387654,-0.4005875,-2.0302904,3955,0,-1.4735707,2.7525685,-13.807116,3955
32876655,-0.17981414,-0.37209195,-1.9219743,3998,0,-2.3579767,-0.91767585,-11.250493,3998
32880725,-0.31991354,-0.33238322,-1.9392996,4070,0,2.9546506,-2.9690502,-7.796514,4070
32884664,-0.18536332,-0.30204496,-1.8773164,3939,0,-0.07335416,1.3516748,-13.444034,3939
32888655,-0.2694437,-0.2618429,-1.8556525,3991,0,0.38738748,-1.0481328,-10.14051,3991
32892655,-0.2664478,-0.41159198,-1.8425308,4000,0,-1.4608991,1.1055388,-10.380944,4000
32896664,-0.20150465,-0.20601228,-1.8121496,4009,0,0.07078474,-2.510371,-10.951213,4009
32900682,-0.3296426,-0.32972237,-1.8772413,4018,0,1.2708509,-0.03405684,-10.149389,4018
32904655,-0.1851985,-0.4506449,-1.8697652,3973,0,-1.4485646,-0.5712055,-13.303919,3973
32908655,-0.33681026,-0.30464366,-1.9575146,4000,0,2.4745255,-3.367115,-8.9251585,4000
32912655,-0.22513242,-0.48439774,-1.9368778,4000,0,-0.61309,2.7669413,-10.425146,4000
32916655,-0.15882215,-0.4176599,-1.9105629,4000,0,-1.2730184,-2.5383778,-9.646738,4000
32920746,-0.45139763,-0.52261513,-1.9424633,4091,0,1.8892871,-0.14067146,-9.373509,4091
32924655,-0.18965769,-0.5097152,-1.8160094,3909,0,-0.9956052,1.4389911,-14.972793,3909
32928655,-0.37200662,-0.5197615,-1.8416188,4000,0,0.93428844,-3.7825205,-9.601652,4000
32932655,-0.43835372,-0.5875009,-1.7646987,4000,0,0.03217202,2.284836,-9.27012,4000
32936675,-0.1804856,-0.437819,-1.7075218,4020,0,-0.02241885,-1.0260221,-9.362063,4020
32940661,-0.41950613,-0.7072714,-1.80589,3986,0,0.7051844,-2.0088816,-11.69742,3986
32944655,-0.4017141,-0.5257712,-1.7363968,3994,0,-1.5238128,1.2707634,-14.538512,3994
32948665,-0.31203917,-0.46273074,-1.8369236,4010,0,0.9161819,-3.013188,-6.48567,4010
32952655,-0.29758173,-0.6689655,-1.8269122,3990,0,-0.29125026,-1.4455112,-14.313212,3990
32956667,-0.54579246,-0.28888535,-1.8506541,4012,0,-0.38366583,1.602753,-9.874586,4012
32960663,-0.29903117,-0.66133356,-1.8835766,3996,0,0.9461271,-1.994622,-8.158145,3996
32964697,-0.40664485,-0.3286922,-1.7801595,4034,0,-0.5982943,-1.2349904,-16.077662,4034
32968655,-0.5727839,-0.27712372,-1.8260556,3958,0,-1.1050591,1.8627962,-5.5022154,3958
32972702,-0.17872407,-0.65190935,-1.71213,4047,0,0.6324789,-2.225343,-12.388949,4047
32976657,-0.5155156,-0.03257157,-1.6880233,3955,0,-0.601326,-0.5141722,-12.747465,3955
32980658,-0.34973794,-0.47062197,-1.7334737,4001,0,0.0593003,2.5698256,-7.736528,4001
32984683,-0.16382855,-0.4279887,-1.6213307,4025,0,-0.47869685,-3.584473,-15.371461,4025
32988655,-0.51807004,-0.09654303,-1.7863201,3972,0,0.08937195,0.8374388,-7.273214,3972
32992655,-0.15573949,-0.51455104,-1.7495065,4000,0,2.3217936,-0.1796192,-10.18886,4000
32997459,-0.38704973,-0.23950237,-1.8014174,4804,0,-2.071316,-2.8420022,-13.007122,4804
33002257,-0.30196562,-0.3324788,-1.8184338,4798,0,1.3892863,1.4794891,-9.507449,4798
33006255,-0.2984853,-0.31209096,-1.7600071,3998,0,-0.66500336,-3.2914257,-11.363809,3998
33010263,-0.40195608,-0.2038928,-1.813337,4008,0,-0.035897832,1.9926317,-8.54705,4008
33014317,-0.2663289,-0.3461141,-1.6483648,4054,0,1.4392551,-0.08544205,-10.206919,4054
33018265,-0.39423126,-0.32408428,-1.7100503,3948,0,-1.2596525,-1.4808185,-11.61724,3948
33022257,-0.37796396,-0.25064287,-1.6607418,3992,0,1.6641375,0.55942005,-11.417745,3992
33026257,-0.29266298,-0.30992615,-1.6094955,4000,0,-0.55110633,-1.8061703,-10.925096,4000
33030257,-0.35192293,-0.310254,-1.7010446,4000,0,-1.6489661,-0.5603842,-11.476246,4000
33034257,-0.4057721,-0.17339537,-1.6500413,4000,0,2.437184,-0.70773244,-8.2696295,4000
33038255,-0.26338434,-0.3191384,-1.7412708,3998,0,-1.2938994,-0.847267,-11.802012,3998
33042268,-0.36350286,-0.1872234,-1.7669963,4013,0,-1.1094162,-0.5758848,-13.326018,4013
33046257,-0.46112257,-0.1862369,-1.7271167,3989,0,0.26973006,-0.07531088,-7.9685264,3989
33050255,-0.27090377,-0.21610071,-1.7745869,3998,0,0.39889786,-1.4841809,-10.214144,3998
33054260,-0.45126656,-0.0009751416,-1.6949738,4005,0,0.48328498,0.040588763,-10.122782,4005
33058257,-0.3353081,-0.16177145,-1.682413,3997,0,-2.3844244,1.7749374,-10.055053,3997
33062255,-0.28436485,-0.0877729,-1.6336427,3998,0,0.602643,-2.5854983,-11.673989,3998
33066313,-0.4945599,0.054120008,-1.6198372,4058,0,2.0347314,-0.91627824,-9.294619,4058
33070264,-0.20584498,-0.033484064,-1.613121,3951,0,-1.0245996,0.9365736,-11.941535,3951
33074255,-0.3412865,0.07525927,-1.6296831,3991,0,-0.731649,-2.8071604,-8.356233,3991
33078257,-0.31155246,0.011929941,-1.6789814,4002,0,-0.62292296,0.19534244,-8.311975,4002
33082311,-0.08871936,0.1480544,-1.6536174,4054,0,1.8979301,-1.9882854,-10.563475,4054
33086255,-0.35637832,0.100823335,-1.7915183,3944,0,0.8121455,-2.154923,-9.725523,3944
33090264,-0.26863608,0.072156824,-1.7440069,4009,0,-1.68135,1.7190058,-11.041916,4009
33094274,-0.18372771,0.25928438,-1.7107797,4010,0,1.851853,-3.291676,-5.6558857,4010
33098255,-0.27109772,0.07578096,-1.718679,3981,0,0.48012114,-0.38278392,-8.703525,3981
33102273,-0.24851748,0.17947383,-1.6274525,4018,0,-0.392375,1.3484651,-11.928935,4018
33106264,-0.2998077,0.09553507,-1.6665076,3991,0,1.7125291,-2.909371,-6.9339337,3991
33110261,-0.35961175,0.05255745,-1.6073114,3997,0,-1.3002219,0.33266807,-10.97981,3997
33114264,-0.28501648,0.17664912,-1.5884063,4003,0,0.08526239,-0.79045796,-7.522849,4003
33118312,-0.31355807,-0.18581715,-1.6709052,4048,0,-0.90705854,-2.6044028,-9.508392,4048
33122317,-0.60654414,0.051468063,-1.6636176,4005,0,0.03795501,0.7040873,-9.34833,4005
33126255,-0.45413542,-0.079638146,-1.770221,3938,0,1.9610252,-1.8661749,-4.1480317,3938
33130258,-0.5525078,-0.27024072,-1.7676265,4003,0,-2.5434942,-0.97338825,-12.33466,4003
33134259,-0.821867,-0.045861878,-1.7761114,4001,0,-0.29657704,1.6909817,-5.2299123,4001
33138257,-0.47820035,-0.44434917,-1.7641623,3998,0,0.3339013,-2.6083343,-6.536775,3998
33142257,-0.8765391,-0.2432824,-1.7263012,4000,0,-0.7877269,-0.12500563,-12.127576,4000
33146268,-0.8428894,-0.33500895,-1.7253083,4011,0,-0.9800333,2.144965,-5.8763356,4011
33150257,-0.5640896,-0.56747013,-1.683701,3989,0,-1.6214112,-2.0204759,-10.845587,3989
33154257,-0.95434326,-0.2302492,-1.651616,4000,0,0.2511052,1.3839737,-6.768398,4000
33158258,-0.5552965,-0.6199908,-1.6850055,4001,0,-0.5404506,0.39516696,-7.542446,4001
33162275,-0.73983,-0.3988834,-1.6777109,4017,0,-1.2155917,-0.7111431,-13.910811,4017
33166308,-0.8973574,-0.36479443,-1.7516611,4033,0,-1.9341842,2.6484525,-6.1262355,4033
33170326,-0.27991214,-0.6635498,-1.757018,4018,0,0.72575825,-2.1606488,-9.675497,4018
33174257,-0.80251,-0.15296592,-1.7523829,3931,0,-1.8648,0.3103123,-9.968076,3931
33178262,-0.65169483,-0.56823933,-1.8777558,4005,0,-0.2788687,3.0233,-6.832506,4005
33182255,-0.31293598,-0.4738283,-1.7320844,3993,0,-4.2405224,-1.1504337,-16.196379,3993
33186261,-0.82000893,-0.10851338,-1.7979023,4006,0,-0.31418973,2.2176132,-4.617777,4006
33190258,-0.14367545,-0.556789,-1.7965229,3997,0,2.533399,0.20549111,-6.9288216,3997
33194255,-0.5545644,-0.086864695,-1.6723136,3997,0,-7.422593,-0.5262071,-16.038946,3997
33198259,-0.7171107,-0.20982656,-1.797638,4004,0,1.8006963,3.7326734,-4.42495,4004
33202255,0.06508998,-0.47303215,-1.6516154,3996,0,-4.351812,-2.0278282,-16.660986,3996
33206255,-0.7862385,0.19354752,-1.7302597,4000,0,0.4698073,-0.0628619,-5.639261,4000
33210257,-0.08305096,-0.2950077,-1.7862809,4002,0,-1.0075601,4.012527,-6.49563,4002
33214264,-0.30526403,-0.05472096,-1.758157,4007,0,-5.3765182,-3.4729135,-17.089226,4007
33218255,-0.6979932,0.12171461,-1.8485178,3991,0,3.3338113,3.691483,-6.123637,3991
33222346,0.12272562,-0.21864289,-1.7890332,4091,0,-5.0227184,-1.1674001,-14.093951,4091
33226255,-0.7705808,0.3396679,-1.777373,3909,0,-0.32777184,-1.086757,-6.615865,3909
33230257,-0.27459523,-0.019026684,-1.7551826,4002,0,-0.25989753,5.137084,-8.401578,4002
33234275,-0.19866574,0.09830194,-1.7447842,4018,0,-3.113756,-2.1611652,-15.459128,4018
33238257,-0.61673117,0.26052836,-1.6883334,3982,0,0.81375563,1.9316446,-6.9571543,3982
33242255,-0.07165083,0.0687524,-1.6778363,3998,0,-4.1481276,0.35764268,-11.28245,3998
33246255,-0.5934156,0.4037114,-1.7313521,4000,0,3.3692007,-0.10559526,-6.602085,4000
33250316,-0.20181784,0.13977773,-1.7056689,4061,0,-2.6896026,2.1069586,-11.550236,4061
33254257,-0.38989472,0.28667924,-1.7859192,3941,0,-3.0707564,-0.6034001,-13.833702,3941
33258257,-0.47304204,0.2378959,-1.758306,4000,0,0.9492583,2.052489,-7.405765,4000
33262255,-0.11535743,0.18711337,-1.7609375,3998,0,-1.8006631,-1.983142,-11.100652,3998
33266258,-0.6109664,0.5339766,-1.7758726,4003,0,0.7805269,1.44148,-6.2937884,4003
33270259,-0.21531856,0.12476138,-1.7372524,4001,0,-2.579765,2.7693639,-10.779287,4001
33274309,-0.48104653,0.3978777,-1.7023197,4050,0,-0.004200041,-2.0794792,-12.1352,4050
33278261,-0.59756434,0.41617545,-1.6678251,3952,0,-0.30761376,3.8207538,-7.1212773,3952
33282263,-0.107169755,0.20578496,-1.6002092,4002,0,-1.7481402,-1.1450446,-10.87554,4002
33286257,-0.64968306,0.5697764,-1.5928078,3994,0,0.79174685,-0.56648904,-9.968046,3994
33290261,-0.444766,0.30129564,-1.6517549,4004,0,-2.387051,3.899696,-7.50823,4004
33294255,-0.25195438,0.4024767,-1.6053351,3994,0,0.6451966,-4.15977,-11.674318,3994
33298257,-0.7143905,0.5812682,-1.7206236,4002,0,-0.552249,3.227742,-8.342187,4002
33302281,-0.24125564,0.31154323,-1.7046483,4024,0,0.315351,3.0224268,-9.426741,4024
33306270,-0.428512,0.49875268,-1.6448178,3989,0,-2.5703568,-4.1408753,-10.8126745,3989
