timestamp,q[0],q[1],q[2],q[3],delta_q_reset[0],delta_q_reset[1],delta_q_reset[2],delta_q_reset[3],quat_reset_counter
30504657,0.9963071,0.031832423,-0.047310334,-0.06419358,0.992103,5.042346e-09,7.202665e-10,0.12542601,3
30508661,0.99630487,0.03178267,-0.04738326,-0.06419753,0.992103,5.042346e-09,7.202665e-10,0.12542601,3
30512655,0.99629563,0.031782396,-0.047541317,-0.06422532,0.992103,5.042346e-09,7.202665e-10,0.12542601,3
30516655,0.9962799,0.032030318,-0.04765937,-0.0642579,0.992103,5.042346e-09,7.202665e-10,0.12542601,3
30520663,0.99627,0.03213303,-0.047756992,-0.0642889,0.992103,5.042346e-09,7.202665e-10,0.12542601,3
30524655,0.99626464,0.032017674,-0.047871463,-0.06434276,0.992103,5.042346e-09,7.202665e-10,0.12542601,3
30528738,0.9962539,0.032177743,-0.047974862,-0.06435296,0.992103,5.042346e-09,7.202665e-10,0.12542601,3
30532655,0.99625075,0.032238442,-0.047998264,-0.06435339,0.992103,5.042346e-09,7.202665e-10,0.12542601,3
30536655,0.9962439,0.03219915,-0.048118077,-0.06439011,0.992103,5.042346e-09,7.202665e-10,0.12542601,3
30540661,0.9962285,0.03242116,-0.04824654,-0.064419016,0.992103,5.042346e-09,7.202665e-10,0.12542601,3
30544655,0.99621785,0.03260752,-0.048303477,-0.06444866,0.992103,5.042346e-09,7.202665e-10,0.12542601,3
30548667,0.9962148,0.032508567,-0.048367847,-0.06449681,0.992103,5.042346e-09,7.202665e-10,0.12542601,3
30552659,0.99620384,0.03260367,-0.048491135,-0.06452633,0.992103,5.042346e-09,7.202665e-10,0.12542601,3
30556673,0.9962003,0.032713704,-0.04848156,-0.06453163,0.992103,5.042346e-09,7.202665e-10,0.12542601,3
30560667,0.9961992,0.03265253,-0.04850694,-0.06456017,0.992103,5.042346e-09,7.202665e-10,0.12542601,3
30564655,0.9961837,0.032830626,-0.048660774,-0.064595364,0.992103,5.042346e-09,7.202665e-10,0.12542601,3
30568655,0.99617124,0.033020347,-0.048729815,-0.06463705,0.992103,5.042346e-09,7.202665e-10,0.12542601,3
30572655,0.9961722,0.03292148,-0.04869435,-0.06469992,0.992103,5.042346e-09,7.202665e-10,0.12542601,3
30576661,0.9961624,0.032920018,-0.04882088,-0.064756595,0.992103,5.042346e-09,7.202665e-10,0.12542601,3
30580712,0.99615407,0.033065706,-0.0488672,-0.06477423,0.992103,5.042346e-09,7.202665e-10,0.12542601,3
30584655,0.9961577,0.03297991,-0.04881328,-0.064802825,0.992103,5.042346e-09,7.202665e-10,0.12542601,3
30588655,0.9961463,0.033049516,-0.0489418,-0.0648472,0.992103,5.042346e-09,7.202665e-10,0.12542601,3
30592660,0.99613136,0.033256683,-0.049050823,-0.064886525,0.992103,5.042346e-09,7.202665e-10,0.12542601,3
30596666,0.9961359,0.03315494,-0.0489565,-0.06494091,0.992103,5.042346e-09,7.202665e-10,0.12542601,3
30600663,0.9961301,0.033062,-0.049054287,-0.065003656,0.992103,5.042346e-09,7.202665e-10,0.12542601,3
30604655,0.9961197,0.033201233,-0.049135473,-0.06503172,0.992103,5.042346e-09,7.202665e-10,0.12542601,3
30608657,0.9961292,0.03309197,-0.048986282,-0.06505254,0.992103,5.042346e-09,7.202665e-10,0.12542601,3
30612700,0.9961203,0.033075124,-0.049103595,-0.06510905,0.992103,5.042346e-09,7.202665e-10,0.12542601,3
30616655,0.99610555,0.033285834,-0.049210295,-0.06514845,0.992103,5.042346e-09,7.202665e-10,0.12542601,3
30620662,0.9961146,0.033157554,-0.049039457,-0.06520426,0.992103,5.042346e-09,7.202665e-10,0.12542601,3
30624655,0.99611545,0.032962848,-0.049057137,-0.06527668,0.992103,5.042346e-09,7.202665e-10,0.12542601,3
30628655,0.9961081,0.033033617,-0.04910589,-0.06531435,0.992103,5.042346e-09,7.202665e-10,0.12542601,3
30632710,0.9961206,0.03291567,-0.04888287,-0.0653525,0.992103,5.042346e-09,7.202665e-10,0.12542601,3
30636655,0.99612266,0.032783862,-0.048843723,-0.06541487,0.992103,5.042346e-09,7.202665e-10,0.12542601,3
30640664,0.99611896,0.03283517,-0.048828162,-0.06545728,0.992103,5.042346e-09,7.202665e-10,0.12542601,3
30644661,0.9961348,0.032655418,-0.04855486,-0.065509066,0.992103,5.042346e-09,7.202665e-10,0.12542601,3
30648655,0.9961526,0.03233234,-0.048326336,-0.06556949,0.992103,5.042346e-09,7.202665e-10,0.12542601,3
30652655,0.99616015,0.032244947,-0.0481812,-0.065604374,0.992103,5.042346e-09,7.202665e-10,0.12542601,3
30656655,0.9961815,0.03201251,-0.04781382,-0.06566287,0.992103,5.042346e-09,7.202665e-10,0.12542601,3
30660665,0.9962116,0.031620607,-0.04736739,-0.0657194,0.992103,5.042346e-09,7.202665e-10,0.12542601,3
30664655,0.99623203,0.031370353,-0.04704081,-0.0657639,0.992103,5.042346e-09,7.202665e-10,0.12542601,3
30668655,0.9962606,0.031104667,-0.04655122,-0.06580612,0.992103,5.042346e-09,7.202665e-10,0.12542601,3
30672655,0.9963034,0.030645436,-0.045856982,-0.06586102,0.992103,5.042346e-09,7.202665e-10,0.12542601,3
30676655,0.99633497,0.03018055,-0.04534242,-0.06595394,0.992103,5.042346e-09,7.202665e-10,0.12542601,3
30680655,0.9963847,0.029647077,-0.04449812,-0.066020474,0.992103,5.042346e-09,7.202665e-10,0.12542601,3
30684689,0.9964411,0.028945856,-0.043566056,-0.066099994,0.992103,5.042346e-09,7.202665e-10,0.12542601,3
30688657,0.9964828,0.02858174,-0.04278643,-0.066138975,0.992103,5.042346e-09,7.202665e-10,0.12542601,3
30692655,0.99653554,0.02802966,-0.041793846,-0.066217296,0.992103,5.042346e-09,7.202665e-10,0.12542601,3
30696705,0.99661547,0.026994165,-0.040435594,-0.06628773,0.992103,5.042346e-09,7.202665e-10,0.12542601,3
30700664,0.99666923,0.026340298,-0.03934244,-0.06639874,0.992103,5.042346e-09,7.202665e-10,0.12542601,3
30704655,0.9967378,0.025601316,-0.037957765,-0.0664665,0.992103,5.042346e-09,7.202665e-10,0.12542601,3
30708655,0.9968092,0.02474935,-0.036406603,-0.06658461,0.992103,5.042346e-09,7.202665e-10,0.12542601,3
30712660,0.99687845,0.023874344,-0.034927715,-0.0666593,0.992103,5.042346e-09,7.202665e-10,0.12542601,3
30716658,0.9969382,0.023182161,-0.033435583,-0.06677549,0.992103,5.042346e-09,7.202665e-10,0.12542601,3
30720663,0.99700767,0.022379538,-0.031651795,-0.066881806,0.992103,5.042346e-09,7.202665e-10,0.12542601,3
30724655,0.99706984,0.021403091,-0.029954413,-0.06705477,0.992103,5.042346e-09,7.202665e-10,0.12542601,3
30728655,0.9971278,0.02056538,-0.02821337,-0.06721116,0.992103,5.042346e-09,7.202665e-10,0.12542601,3
30732655,0.997175,0.019945685,-0.026581906,-0.06736335,0.992103,5.042346e-09,7.202665e-10,0.12542601,3
30736689,0.9972176,0.019346265,-0.024864255,-0.06756135,0.992103,5.042346e-09,7.202665e-10,0.12542601,3
30740657,0.99726236,0.018516267,-0.023010353,-0.06778983,0.992103,5.042346e-09,7.202665e-10,0.12542601,3
30744661,0.99730045,0.017654983,-0.021240206,-0.0680368,0.992103,5.042346e-09,7.202665e-10,0.12542601,3
30748655,0.99732393,0.017290717,-0.019610826,-0.0682747,0.992103,5.042346e-09,7.202665e-10,0.12542601,3
30752655,0.997342,0.016791318,-0.01800044,-0.068579756,0.992103,5.042346e-09,7.202665e-10,0.12542601,3
30756655,0.9973662,0.016004538,-0.016223032,-0.0688575,0.992103,5.042346e-09,7.202665e-10,0.12542601,3
30760666,0.9973766,0.015390768,-0.01466054,-0.0691959,0.992103,5.042346e-09,7.202665e-10,0.12542601,3
30764673,0.9973795,0.015189358,-0.013201344,-0.06949205,0.992103,5.042346e-09,7.202665e-10,0.12542601,3
30768657,0.9973783,0.01491988,-0.011883085,-0.0698062,0.992103,5.042346e-09,7.202665e-10,0.12542601,3
30772655,0.99738616,0.014079781,-0.01031011,-0.07011758,0.992103,5.042346e-09,7.202665e-10,0.12542601,3
30776655,0.997379,0.013560849,-0.009093912,-0.070489,0.992103,5.042346e-09,7.202665e-10,0.12542601,3
30780738,0.99736637,0.013486906,-0.008038263,-0.07080959,0.992103,5.042346e-09,7.202665e-10,0.12542601,3
30784682,0.99736583,0.013113015,-0.0069044176,-0.07100549,0.992103,5.042346e-09,7.202665e-10,0.12542601,3
30788689,0.99736017,0.012393013,-0.00589145,-0.071305126,0.992103,5.042346e-09,7.202665e-10,0.12542601,3
30792655,0.9973491,0.01206321,-0.005073232,-0.07157952,0.992103,5.042346e-09,7.202665e-10,0.12542601,3
30796657,0.99734294,0.011832392,-0.004354421,-0.07175172,0.992103,5.042346e-09,7.202665e-10,0.12542601,3
30800681,0.99734,0.011248112,-0.0035851463,-0.07192733,0.992103,5.042346e-09,7.202665e-10,0.12542601,3
30804665,0.99732697,0.010861828,-0.0030126486,-0.07219471,0.992103,5.042346e-09,7.202665e-10,0.12542601,3
30808655,0.9973171,0.010671583,-0.0025578437,-0.0723757,0.992103,5.042346e-09,7.202665e-10,0.12542601,3
30812655,0.99731845,0.010214099,-0.001973842,-0.07244253,0.992103,5.042346e-09,7.202665e-10,0.12542601,3
30816657,0.9973211,0.009785054,-0.0016085649,-0.07247239,0.992103,5.042346e-09,7.202665e-10,0.12542601,3
30820661,0.99733174,0.0096529825,-0.0014233246,-0.07234923,0.992103,5.042346e-09,7.202665e-10,0.12542601,3
30824666,0.9973585,0.009280452,-0.00095306843,-0.07203479,0.992103,5.042346e-09,7.202665e-10,0.12542601,3
30828655,0.9973809,0.008805387,-0.0007741807,-0.0717857,0.992103,5.042346e-09,7.202665e-10,0.12542601,3
30832655,0.997412,0.008787668,-0.00072620995,-0.07135452,0.992103,5.042346e-09,7.202665e-10,0.12542601,3
30836655,0.9974578,0.008393915,-0.00041943727,-0.070763126,0.992103,5.042346e-09,7.202665e-10,0.12542601,3
30840709,0.9975004,0.007969217,-0.00041983533,-0.070209846,0.992103,5.042346e-09,7.202665e-10,0.12542601,3
30844665,0.99754655,0.0078662345,-0.00047651975,-0.06956102,0.992103,5.042346e-09,7.202665e-10,0.12542601,3
30848655,0.9976036,0.0074222796,-0.00036613955,-0.06878995,0.992103,5.042346e-09,7.202665e-10,0.12542601,3
30852655,0.9976597,0.0071518924,-0.00040796257,-0.06799903,0.992103,5.042346e-09,7.202665e-10,0.12542601,3
30856655,0.99772406,0.0069716377,-0.0004683002,-0.067066476,0.992103,5.042346e-09,7.202665e-10,0.12542601,3
30860662,0.9977834,0.0065145767,-0.00047754028,-0.06622373,0.992103,5.042346e-09,7.202665e-10,0.12542601,3
30864697,0.9978523,0.0064807343,-0.00061264745,-0.06518053,0.992103,5.042346e-09,7.202665e-10,0.12542601,3
30868660,0.99792546,0.006299716,-0.0005214888,-0.06406967,0.992103,5.042346e-09,7.202665e-10,0.12542601,3
30872655,0.99799466,0.0058969473,-0.0007109857,-0.0630208,0.992103,5.042346e-09,7.202665e-10,0.12542601,3
30876655,0.9980716,0.006174053,-0.00095421943,-0.061758514,0.992103,5.042346e-09,7.202665e-10,0.12542601,3
30880664,0.9981511,0.005826211,-0.0008012685,-0.06049763,0.992103,5.042346e-09,7.202665e-10,0.12542601,3
30884683,0.99823344,0.0058396016,-0.0011726923,-0.05911579,0.992103,5.042346e-09,7.202665e-10,0.12542601,3
30888661,0.99831784,0.0060579632,-0.0013464296,-0.057646878,0.992103,5.042346e-09,7.202665e-10,0.12542601,3
30892689,0.998399,0.0057752705,-0.0014714637,-0.056247905,0.992103,5.042346e-09,7.202665e-10,0.12542601,3
30896655,0.99848956,0.006191389,-0.0017325426,-0.05456577,0.992103,5.042346e-09,7.202665e-10,0.12542601,3
30900679,0.9985773,0.006137895,-0.0017126844,-0.052942853,0.992103,5.042346e-09,7.202665e-10,0.12542601,3
30905455,0.9986808,0.006564504,-0.002093828,-0.05088404,0.992103,5.042346e-09,7.202665e-10,0.12542601,3
30909455,0.9987718,0.0065380144,-0.0019132408,-0.049078856,0.992103,5.042346e-09,7.202665e-10,0.12542601,3
30913488,0.99886006,0.006452508,-0.001943972,-0.047255687,0.992103,5.042346e-09,7.202665e-10,0.12542601,3
30917455,0.9989515,0.006749958,-0.0020014304,-0.04523835,0.992103,5.042346e-09,7.202665e-10,0.12542601,3
30922255,0.9990552,0.006503978,-0.0018546078,-0.042929754,0.992103,5.042346e-09,7.202665e-10,0.12542601,3
30926257,0.9991474,0.0066660764,-0.0018460961,-0.040700953,0.992103,5.042346e-09,7.202665e-10,0.12542601,3
30930276,0.9992354,0.0063558095,-0.0014165612,-0.038553625,0.992103,5.042346e-09,7.202665e-10,0.12542601,3
30934299,0.99932164,0.006310005,-0.0014860273,-0.036253307,0.992103,5.042346e-09,7.202665e-10,0.12542601,3
30938263,0.99940544,0.0062030773,-0.0012270681,-0.033892628,0.992103,5.042346e-09,7.202665e-10,0.12542601,3
30942257,0.99948514,0.0056359633,-0.00089754746,-0.03157619,0.992103,5.042346e-09,7.202665e-10,0.12542601,3
30946255,0.99956566,0.0056826244,-0.0007185388,-0.028910065,0.992103,5.042346e-09,7.202665e-10,0.12542601,3
30950269,0.99963695,0.005302263,-0.00037124223,-0.026416928,0.992103,5.042346e-09,7.202665e-10,0.12542601,3
30954257,0.99970436,0.0054559433,-0.00018346557,-0.023695862,0.992103,5.042346e-09,7.202665e-10,0.12542601,3
30958257,0.9997656,0.0051512904,0.0004189391,-0.021026019,0.992103,5.042346e-09,7.202665e-10,0.12542601,3
30962266,0.9998191,0.005132339,0.00074435386,-0.01830121,0.992103,5.042346e-09,7.202665e-10,0.12542601,3
30966296,0.9998673,0.005328441,0.0011046864,-0.015362189,0.992103,5.042346e-09,7.202665e-10,0.12542601,3
30970255,0.999906,0.0051114084,0.0013933788,-0.012646049,0.992103,5.042346e-09,7.202665e-10,0.12542601,3
30974263,0.99993753,0.0054478836,0.0017000415,-0.009610451,0.992103,5.042346e-09,7.202665e-10,0.12542601,3
30978255,0.99996144,0.0052182283,0.0021412561,-0.0067328033,0.992103,5.042346e-09,7.202665e-10,0.12542601,3
30982297,0.99997467,0.0056865127,0.0022468395,-0.0036373641,0.992103,5.042346e-09,7.202665e-10,0.12542601,3
30986292,0.99997944,0.00584799,0.0025935306,-0.0005739596,0.992103,5.042346e-09,7.202665e-10,0.12542601,3
30990257,0.99997604,0.0058540963,0.0027673228,0.0024689843,0.992103,5.042346e-09,7.202665e-10,0.12542601,3
30994255,0.99996,0.006172564,0.0029836262,0.0057614227,0.992103,5.042346e-09,7.202665e-10,0.12542601,3
30998263,0.99993664,0.006132161,0.00307342,0.00893573,0.992103,5.042346e-09,7.202665e-10,0.12542601,3
31002286,0.9998973,0.006494497,0.003028045,0.012409537,0.992103,5.042346e-09,7.202665e-10,0.12542601,3
31006255,0.9998491,0.0064203944,0.0031418754,0.015839446,0.992103,5.042346e-09,7.202665e-10,0.12542601,3
31010255,0.9997859,0.006546219,0.0030338564,0.019394614,0.992103,5.042346e-09,7.202665e-10,0.12542601,3
31014260,0.9997072,0.0066829035,0.0030216726,0.023058696,0.992103,5.042346e-09,7.202665e-10,0.12542601,3
31018257,0.9996165,0.00676943,0.0027252769,0.026713656,0.992103,5.042346e-09,7.202665e-10,0.12542601,3
31022261,0.99950385,0.0068628327,0.0027214978,0.030620422,0.992103,5.042346e-09,7.202665e-10,0.12542601,3
31026255,0.9993805,0.006721539,0.0025357774,0.03445261,0.992103,5.042346e-09,7.202665e-10,0.12542601,3
31030261,0.9992381,0.00681574,0.0021852027,0.038367122,0.992103,5.042346e-09,7.202665e-10,0.12542601,3
31034280,0.9990763,0.0066885026,0.0019539483,0.04240475,0.992103,5.042346e-09,7.202665e-10,0.12542601,3
31038289,0.99889517,0.0066306754,0.0016213133,0.046496943,0.992103,5.042346e-09,7.202665e-10,0.12542601,3
31042257,0.9986948,0.0062888563,0.001433107,0.050668184,0.992103,5.042346e-09,7.202665e-10,0.12542601,3
31046264,0.9984759,0.006364095,0.0010271113,0.054810613,0.992103,5.042346e-09,7.202665e-10,0.12542601,3
31050255,0.9982383,0.006095311,0.0010255228,0.05900994,0.992103,5.042346e-09,7.202665e-10,0.12542601,3
31054257,0.99797565,0.005865128,0.00076094514,0.06332239,0.992103,5.042346e-09,7.202665e-10,0.12542601,3
31058257,0.9976926,0.0056233774,0.00077878946,0.06765587,0.992103,5.042346e-09,7.202665e-10,0.12542601,3
31062255,0.9973899,0.005297974,0.0006756535,0.07200616,0.992103,5.042346e-09,7.202665e-10,0.12542601,3
31066313,0.9970606,0.005327334,0.0005394524,0.07642974,0.992103,5.042346e-09,7.202665e-10,0.12542601,3
31070261,0.996723,0.0047392417,0.00078957755,0.08074865,0.992103,5.042346e-09,7.202665e-10,0.12542601,3
31074257,0.99635965,0.0047276616,0.0006373497,0.08511611,0.992103,5.042346e-09,7.202665e-10,0.12542601,3
31078257,0.99598837,0.004335251,0.000915616,0.08937331,0.992103,5.042346e-09,7.202665e-10,0.12542601,3
31082282,0.99558765,0.00418132,0.00072491734,0.09374023,0.992103,5.042346e-09,7.202665e-10,0.12542601,3
31086281,0.9951658,0.0040830206,0.000940279,0.098119214,0.992103,5.042346e-09,7.202665e-10,0.12542601,3
31090297,0.9947217,0.0036832942,0.0010036577,0.10253924,0.992103,5.042346e-09,7.202665e-10,0.12542601,3
31094258,0.9942627,0.003914803,0.0008452606,0.10689091,0.992103,5.042346e-09,7.202665e-10,0.12542601,3
31098258,0.99377704,0.0035228364,0.0010959681,0.1113265,0.992103,5.042346e-09,7.202665e-10,0.12542601,3
31102255,0.99325866,0.0036303785,0.0008514768,0.115860105,0.992103,5.042346e-09,7.202665e-10,0.12542601,3
31106257,0.99272907,0.0036595287,0.00083135796,0.120312154,0.992103,5.042346e-09,7.202665e-10,0.12542601,3
31110261,0.99217683,0.0036822886,0.0005594546,0.12478562,0.992103,5.042346e-09,7.202665e-10,0.12542601,3
31114258,0.9916039,0.0040783393,0.00035534127,0.12924743,0.992103,5.042346e-09,7.202665e-10,0.12542601,3
31118262,0.9910263,0.0039770207,0.00022197035,0.13360849,0.992103,5.042346e-09,7.202665e-10,0.12542601,3
31122264,0.99042827,0.0045593344,-0.0003601713,0.13795306,0.992103,5.042346e-09,7.202665e-10,0.12542601,3
31126260,0.98982096,0.0044979495,-0.0004455132,0.14224687,0.992103,5.042346e-09,7.202665e-10,0.12542601,3
31130255,0.989177,0.0046984106,-0.0009682843,0.14664908,0.992103,5.042346e-09,7.202665e-10,0.12542601,3
31134257,0.98851055,0.005397771,-0.00146931,0.15104808,0.992103,5.042346e-09,7.202665e-10,0.12542601,3
31138261,0.9878276,0.005091835,-0.0017069968,0.15546,0.992103,5.042346e-09,7.202665e-10,0.12542601,3
31142313,0.987085,0.0056014596,-0.002348859,0.16008236,0.992103,5.042346e-09,7.202665e-10,0.12542601,3
31146257,0.9863574,0.005834461,-0.0027513928,0.16449192,0.992103,5.042346e-09,7.202665e-10,0.12542601,3
31150300,0.9855754,0.006067849,-0.003495244,0.1690922,0.992103,5.042346e-09,7.202665e-10,0.12542601,3
31154257,0.98479867,0.006382296,-0.0038821558,0.17353913,0.992103,5.042346e-09,7.202665e-10,0.12542601,3
31158257,0.9840189,0.0063551203,-0.0043230853,0.17789763,0.992103,5.042346e-09,7.202665e-10,0.12542601,3
31162263,0.98320967,0.007021968,-0.0051613175,0.18227136,0.992103,5.042346e-09,7.202665e-10,0.12542601,3
31166257,0.9824167,0.0065703895,-0.005358193,0.18650918,0.992103,5.042346e-09,7.202665e-10,0.12542601,3
31170303,0.9815737,0.0068152463,-0.006141621,0.19086418,0.992103,5.042346e-09,7.202665e-10,0.12542601,3
31174257,0.98072153,0.0072809677,-0.0067039514,0.1951602,0.992103,5.042346e-09,7.202665e-10,0.12542601,3
31178255,0.9798635,0.006609659,-0.0069603208,0.19943759,0.992103,5.042346e-09,7.202665e-10,0.12542601,3
31182268,0.9789246,0.007212157,-0.0075640893,0.20395459,0.992103,5.042346e-09,7.202665e-10,0.12542601,3
31186255,0.9779917,0.0072273267,-0.007877468,0.20836979,0.992103,5.042346e-09,7.202665e-10,0.12542601,3
31190255,0.97702694,0.0070266053,-0.008301493,0.2128387,0.992103,5.042346e-09,7.202665e-10,0.12542601,3
31194301,0.9760104,0.0074151466,-0.008530728,0.2174306,0.992103,5.042346e-09,7.202665e-10,0.12542601,3
31198257,0.9750561,0.007329381,-0.008896022,0.22165923,0.992103,5.042346e-09,7.202665e-10,0.12542601,3
31202263,0.9740473,0.007826221,-0.00920926,0.22602184,0.992103,5.042346e-09,7.202665e-10,0.12542601,3
31206262,0.97305167,0.007831023,-0.009219095,0.23026994,0.992103,5.042346e-09,7.202665e-10,0.12542601,3
31210255,0.97206354,0.008217902,-0.009767253,0.23437053,0.992103,5.042346e-09,7.202665e-10,0.12542601,3
31214257,0.97101814,0.008762506,-0.009883534,0.23864102,0.992103,5.042346e-09,7.202665e-10,0.12542601,3
31218257,0.969983,0.008612739,-0.0100351535,0.24281302,0.992103,5.042346e-09,7.202665e-10,0.12542601,3
31222260,0.9688815,0.00965702,-0.010550632,0.24711172,0.992103,5.042346e-09,7.202665e-10,0.12542601,3
31226258,0.96775967,0.009797833,-0.010679917,0.2514583,0.992103,5.042346e-09,7.202665e-10,0.12542601,3
31230257,0.9666308,0.009931338,-0.011160077,0.25573748,0.992103,5.042346e-09,7.202665e-10,0.12542601,3
31234302,0.96541566,0.011300082,-0.011739894,0.260206,0.992103,5.042346e-09,7.202665e-10,0.12542601,3
31238260,0.96426195,0.011279449,-0.011987017,0.2644393,0.992103,5.042346e-09,7.202665e-10,0.12542601,3
31242261,0.9630978,0.01182623,-0.0125401765,0.26859942,0.992103,5.042346e-09,7.202665e-10,0.12542601,3
31246291,0.9618981,0.01279584,-0.013126415,0.27279305,0.992103,5.042346e-09,7.202665e-10,0.12542601,3
31250265,0.96076256,0.012714284,-0.013644698,0.2767443,0.992103,5.042346e-09,7.202665e-10,0.12542601,3
31254264,0.9595677,0.013550018,-0.014207221,0.2807926,0.992103,5.042346e-09,7.202665e-10,0.12542601,3
31258257,0.9583452,0.014318558,-0.014799541,0.2848694,0.992103,5.042346e-09,7.202665e-10,0.12542601,3
31262258,0.95712996,0.014496167,-0.015455683,0.28888294,0.992103,5.042346e-09,7.202665e-10,0.12542601,3
31266257,0.9558448,0.015103849,-0.01624752,0.29303354,0.992103,5.042346e-09,7.202665e-10,0.12542601,3
31270257,0.95452887,0.015944775,-0.017159173,0.29719684,0.992103,5.042346e-09,7.202665e-10,0.12542601,3
31274284,0.95319873,0.016305618,-0.017922293,0.30137196,0.992103,5.042346e-09,7.202665e-10,0.12542601,3
31278255,0.951863,0.016818708,-0.018856065,0.30548063,0.992103,5.042346e-09,7.202665e-10,0.12542601,3
31282275,0.95050704,0.017534092,-0.020146023,0.3095533,0.992103,5.042346e-09,7.202665e-10,0.12542601,3
31286257,0.94919735,0.017784283,-0.021080308,0.31347084,0.992103,5.042346e-09,7.202665e-10,0.12542601,3
31290257,0.9478735,0.01829512,-0.022206023,0.3173455,0.992103,5.042346e-09,7.202665e-10,0.12542601,3
31294261,0.9465388,0.018907761,-0.02342863,0.32118216,0.992103,5.042346e-09,7.202665e-10,0.12542601,3
31298293,0.94523644,0.018782435,-0.024407806,0.32493016,0.992103,5.042346e-09,7.202665e-10,0.12542601,3
31302257,0.9438792,0.01953613,-0.02581987,0.32870004,0.992103,5.042346e-09,7.202665e-10,0.12542601,3
31306259,0.94248587,0.020078799,-0.026968906,0.3325506,0.992103,5.042346e-09,7.202665e-10,0.12542601,3
31310258,0.94109803,0.020092204,-0.027970143,0.3363755,0.992103,5.042346e-09,7.202665e-10,0.12542601,3
31314257,0.9396089,0.021213928,-0.029213212,0.34034064,0.992103,5.042346e-09,7.202665e-10,0.12542601,3
31318307,0.9381352,0.021352462,-0.030227723,0.34428582,0.992103,5.042346e-09,7.202665e-10,0.12542601,3
31323055,0.93639034,0.022092255,-0.03158882,0.34883705,0.992103,5.042346e-09,7.202665e-10,0.12542601,3
31327055,0.9348882,0.02321286,-0.032510404,0.35268736,0.992103,5.042346e-09,7.202665e-10,0.12542601,3
31331855,0.93319434,0.023465237,-0.033433374,0.35704327,0.992103,5.042346e-09,7.202665e-10,0.12542601,3
31335855,0.93173015,0.024938878,-0.034188967,0.36067727,0.992103,5.042346e-09,7.202665e-10,0.12542601,3
31339889,0.9303151,0.02539182,-0.03471495,0.36423063,0.992103,5.042346e-09,7.202665e-10,0.12542601,3
31343855,0.9289402,0.025950488,-0.035350133,0.36762387,0.992103,5.042346e-09,7.202665e-10,0.12542601,3
31347855,0.9274698,0.027601985,-0.0356849,0.3711667,0.992103,5.042346e-09,7.202665e-10,0.12542601,3
31351897,0.9260054,0.027970547,-0.035864018,0.37476048,0.992103,5.042346e-09,7.202665e-10,0.12542601,3
31355855,0.92452353,0.0288597,-0.03628274,0.37829486,0.992103,5.042346e-09,7.202665e-10,0.12542601,3
31359855,0.9229656,0.030383846,-0.036503293,0.38194102,0.992103,5.042346e-09,7.202665e-10,0.12542601,3
31363863,0.92142665,0.030799627,-0.03646719,0.38560933,0.992103,5.042346e-09,7.202665e-10,0.12542601,3
31367860,0.919876,0.032176264,-0.036582395,0.3891718,0.992103,5.042346e-09,7.202665e-10,0.12542601,3
31379858,0.915394,0.035249226,-0.036547232,0.39934388,0.992103,5.042346e-09,7.202665e-10,0.12542601,3
31383857,0.91394573,0.036014512,-0.036394402,0.40259385,0.992103,5.042346e-09,7.202665e-10,0.12542601,3
31419889,0.9006138,0.04131044,-0.036398463,0.4311189,0.992103,5.042346e-09,7.202665e-10,0.12542601,3
31423855,0.89917,0.04254662,-0.03638777,0.43400362,0.992103,5.042346e-09,7.202665e-10,0.12542601,3
31427855,0.8978297,0.042410694,-0.036503013,0.43677306,0.992103,5.042346e-09,7.202665e-10,0.12542601,3
31431855,0.896471,0.042605,-0.03678946,0.4395124,0.992103,5.042346e-09,7.202665e-10,0.12542601,3
31435901,0.8950378,0.043369032,-0.0368063,0.4423483,0.992103,5.042346e-09,7.202665e-10,0.12542601,3
31439855,0.89372754,0.04273285,-0.036831472,0.44504896,0.992103,5.042346e-09,7.202665e-10,0.12542601,3
31443910,0.8922726,0.0432704,-0.036800068,0.44790977,0.992103,5.042346e-09,7.202665e-10,0.12542601,3
31447855,0.8908606,0.043265954,-0.0367892,0.45071277,0.992103,5.042346e-09,7.202665e-10,0.12542601,3
31451855,0.8894703,0.04254196,-0.03678767,0.45351914,0.992103,5.042346e-09,7.202665e-10,0.12542601,3
31455867,0.8879982,0.043270763,-0.036380306,0.45635882,0.992103,5.042346e-09,7.202665e-10,0.12542601,3
31459864,0.8866696,0.04269484,-0.036148272,0.45900726,0.992103,5.042346e-09,7.202665e-10,0.12542601,3
31463855,0.88536817,0.042333428,-0.03604776,0.4615534,0.992103,5.042346e-09,7.202665e-10,0.12542601,3
31467868,0.88404125,0.04283865,-0.035640426,0.4640751,0.992103,5.042346e-09,7.202665e-10,0.12542601,3
31471873,0.8828577,0.04183161,-0.035324458,0.46643826,0.992103,5.042346e-09,7.202665e-10,0.12542601,3
31475855,0.8816447,0.04190875,-0.03494339,0.46874854,0.992103,5.042346e-09,7.202665e-10,0.12542601,3
31479855,0.88041264,0.041933473,-0.034524955,0.47108728,0.992103,5.042346e-09,7.202665e-10,0.12542601,3
31483865,0.8792425,0.04085994,-0.034380596,0.47337213,0.992103,5.042346e-09,7.202665e-10,0.12542601,3
31487857,0.87797654,0.04128761,-0.03405689,0.47570243,0.992103,5.042346e-09,7.202665e-10,0.12542601,3
31491855,0.87670517,0.040663183,-0.0337036,0.47812012,0.992103,5.042346e-09,7.202665e-10,0.12542601,3
31495889,0.8754799,0.040081564,-0.033535924,0.48042044,0.992103,5.042346e-09,7.202665e-10,0.12542601,3
31499863,0.8742101,0.040481757,-0.033338595,0.48270765,0.992103,5.042346e-09,7.202665e-10,0.12542601,3
31503855,0.8730239,0.0396065,-0.03313539,0.48493573,0.992103,5.042346e-09,7.202665e-10,0.12542601,3
31507855,0.8718512,0.03962566,-0.032972924,0.48705053,0.992103,5.042346e-09,7.202665e-10,0.12542601,3
31511856,0.87068564,0.039748874,-0.03282342,0.48913112,0.992103,5.042346e-09,7.202665e-10,0.12542601,3
31515855,0.86966956,0.038863502,-0.032720465,0.49101326,0.992103,5.042346e-09,7.202665e-10,0.12542601,3
31519897,0.8685831,0.039336417,-0.032526094,0.492908,0.992103,5.042346e-09,7.202665e-10,0.12542601,3
31523860,0.8674981,0.03899981,-0.03233535,0.49485412,0.992103,5.042346e-09,7.202665e-10,0.12542601,3
31527855,0.86644626,0.03856364,-0.032330446,0.49672768,0.992103,5.042346e-09,7.202665e-10,0.12542601,3
31531858,0.86527693,0.039110523,-0.03214664,0.49873114,0.992103,5.042346e-09,7.202665e-10,0.12542601,3
31535857,0.86413985,0.038395014,-0.031949103,0.500767,0.992103,5.042346e-09,7.202665e-10,0.12542601,3
31539868,0.86299527,0.03853095,-0.03188775,0.50273025,0.992103,5.042346e-09,7.202665e-10,0.12542601,3
31543855,0.86180454,0.03899982,-0.03172872,0.5047429,0.992103,5.042346e-09,7.202665e-10,0.12542601,3
31547889,0.86073095,0.038329363,-0.031576946,0.5066321,0.992103,5.042346e-09,7.202665e-10,0.12542601,3
31551855,0.8596503,0.038962428,-0.03148214,0.5084213,0.992103,5.042346e-09,7.202665e-10,0.12542601,3
31555855,0.85861313,0.03887144,-0.03134986,0.5101861,0.992103,5.042346e-09,7.202665e-10,0.12542601,3
31559855,0.8576829,0.03842626,-0.03134883,0.5117821,0.992103,5.042346e-09,7.202665e-10,0.12542601,3
31563855,0.856668,0.0392685,-0.031337075,0.51341593,0.992103,5.042346e-09,7.202665e-10,0.12542601,3
31567855,0.8557225,0.038698845,-0.031173542,0.51504326,0.992103,5.042346e-09,7.202665e-10,0.12542601,3
31571855,0.8547802,0.038817227,-0.031227946,0.51659364,0.992103,5.042346e-09,7.202665e-10,0.12542601,3
31575873,0.8537109,0.039358437,-0.031234724,0.51831764,0.992103,5.042346e-09,7.202665e-10,0.12542601,3
31579854,0.85271305,0.03859398,-0.031238735,0.52001464,0.992103,5.042346e-09,7.202665e-10,0.12542601,3
31583855,0.8516284,0.039219115,-0.031261418,0.52174085,0.992103,5.042346e-09,7.202665e-10,0.12542601,3
31587855,0.85055095,0.039345067,-0.031035744,0.5234997,0.992103,5.042346e-09,7.202665e-10,0.12542601,3
31591858,0.8495825,0.03906344,-0.03096824,0.525095,0.992103,5.042346e-09,7.202665e-10,0.12542601,3
31595858,0.848536,0.04007056,-0.03100038,0.5267067,0.992103,5.042346e-09,7.202665e-10,0.12542601,3
31599912,0.8476136,0.03965551,-0.030791944,0.5282334,0.992103,5.042346e-09,7.202665e-10,0.12542601,3
31603901,0.846737,0.039979767,-0.030728765,0.5296168,0.992103,5.042346e-09,7.202665e-10,0.12542601,3
31607855,0.8457864,0.040910713,-0.030791232,0.531059,0.992103,5.042346e-09,7.202665e-10,0.12542601,3
31611855,0.8449412,0.040539652,-0.030708361,0.5324358,0.992103,5.042346e-09,7.202665e-10,0.12542601,3
31615857,0.84400505,0.041458126,-0.030744636,0.53384614,0.992103,5.042346e-09,7.202665e-10,0.12542601,3
31619868,0.8430282,0.042203423,-0.030655019,0.5353341,0.992103,5.042346e-09,7.202665e-10,0.12542601,3
31623869,0.8420871,0.04235585,-0.03072192,0.53679746,0.992103,5.042346e-09,7.202665e-10,0.12542601,3
31627873,0.8409869,0.043890428,-0.03071267,0.53839725,0.992103,5.042346e-09,7.202665e-10,0.12542601,3
31631855,0.8400014,0.044440452,-0.030546227,0.5398979,0.992103,5.042346e-09,7.202665e-10,0.12542601,3
31635872,0.8390318,0.04551496,-0.03052756,0.54131514,0.992103,5.042346e-09,7.202665e-10,0.12542601,3
31639855,0.83800095,0.047382314,-0.030438196,0.542755,0.992103,5.042346e-09,7.202665e-10,0.12542601,3
31643884,0.83713484,0.047966108,-0.030207133,0.54405165,0.992103,5.042346e-09,7.202665e-10,0.12542601,3
31647855,0.8362189,0.04984665,-0.030075701,0.5452971,0.992103,5.042346e-09,7.202665e-10,0.12542601,3
31651890,0.8353105,0.051632352,-0.029928476,0.54652977,0.992103,5.042346e-09,7.202665e-10,0.12542601,3
31655861,0.83451146,0.05255955,-0.02996477,0.547659,0.992103,5.042346e-09,7.202665e-10,0.12542601,3
31659864,0.83351064,0.055055648,-0.029809685,0.5489447,0.992103,5.042346e-09,7.202665e-10,0.12542601,3
31663855,0.8326064,0.056246795,-0.02959258,0.55020654,0.992103,5.042346e-09,7.202665e-10,0.12542601,3
31667855,0.8317081,0.057746556,-0.02985136,0.5513946,0.992103,5.042346e-09,7.202665e-10,0.12542601,3
31671855,0.8306373,0.06002999,-0.029876107,0.5527618,0.992103,5.042346e-09,7.202665e-10,0.12542601,3
31675855,0.8297778,0.060647562,-0.029951805,0.5539798,0.992103,5.042346e-09,7.202665e-10,0.12542601,3
31679860,0.8288258,0.062545136,-0.030190123,0.5551798,0.992103,5.042346e-09,7.202665e-10,0.12542601,3
31683861,0.82791406,0.063778475,-0.030398387,0.55638707,0.992103,5.042346e-09,7.202665e-10,0.12542601,3
31687897,0.82720536,0.06420405,-0.030955398,0.55736065,0.992103,5.042346e-09,7.202665e-10,0.12542601,3
31691855,0.8263221,0.065725155,-0.03119558,0.55847913,0.992103,5.042346e-09,7.202665e-10,0.12542601,3
31695855,0.82561016,0.06582389,-0.03141162,0.5595073,0.992103,5.042346e-09,7.202665e-10,0.12542601,3
31699884,0.8248721,0.06639713,-0.032022655,0.56049263,0.992103,5.042346e-09,7.202665e-10,0.12542601,3
31703889,0.8240444,0.06694413,-0.03238855,0.5616229,0.992103,5.042346e-09,7.202665e-10,0.12542601,3
31707883,0.82332176,0.066595234,-0.0329217,0.5626923,0.992103,5.042346e-09,7.202665e-10,0.12542601,3
31711855,0.82249105,0.06699102,-0.033256583,0.56383914,0.992103,5.042346e-09,7.202665e-10,0.12542601,3
31715855,0.8217046,0.06683058,-0.033785924,0.5649724,0.992103,5.042346e-09,7.202665e-10,0.12542601,3
31719857,0.8209234,0.06663896,-0.03433566,0.5660964,0.992103,5.042346e-09,7.202665e-10,0.12542601,3
31723855,0.8201405,0.06654678,-0.03465655,0.56722134,0.992103,5.042346e-09,7.202665e-10,0.12542601,3
31727855,0.81939685,0.066426635,-0.035215806,0.56827474,0.992103,5.042346e-09,7.202665e-10,0.12542601,3
31731873,0.8187512,0.06599171,-0.035759266,0.5692213,0.992103,5.042346e-09,7.202665e-10,0.12542601,3
31735855,0.81807536,0.06603087,-0.036394984,0.5701475,0.992103,5.042346e-09,7.202665e-10,0.12542601,3
31740668,0.8172697,0.065892935,-0.036911283,0.5712846,0.992103,5.042346e-09,7.202665e-10,0.12542601,3
31744655,0.8166542,0.065655544,-0.037641197,0.5721437,0.992103,5.042346e-09,7.202665e-10,0.12542601,3
31748655,0.8158635,0.06626975,-0.0384047,0.5731495,0.992103,5.042346e-09,7.202665e-10,0.12542601,3
31752673,0.8152193,0.06568267,-0.039073948,0.5740877,0.992103,5.042346e-09,7.202665e-10,0.12542601,3
31757455,0.81423986,0.06661796,-0.040050406,0.5753014,0.992103,5.042346e-09,7.202665e-10,0.12542601,3
31761478,0.8134824,0.06684707,-0.040800873,0.57629263,0.992103,5.042346e-09,7.202665e-10,0.12542601,3
31765455,0.81282073,0.06693491,-0.041775804,0.57714564,0.992103,5.042346e-09,7.202665e-10,0.12542601,3
31769464,0.8119407,0.06856707,-0.042329125,0.5781515,0.992103,5.042346e-09,7.202665e-10,0.12542601,3
31773461,0.8113658,0.0684726,-0.043197554,0.57890505,0.992103,5.042346e-09,7.202665e-10,0.12542601,3
31777457,0.81069344,0.069550276,-0.044263937,0.57963747,0.992103,5.042346e-09,7.202665e-10,0.12542601,3
31781457,0.80997866,0.07089594,-0.04490655,0.5804237,0.992103,5.042346e-09,7.202665e-10,0.12542601,3
31785461,0.8094571,0.07124806,-0.045954213,0.5810261,0.992103,5.042346e-09,7.202665e-10,0.12542601,3
31789455,0.8087129,0.072937995,-0.046930064,0.581774,0.992103,5.042346e-09,7.202665e-10,0.12542601,3
31793464,0.80804133,0.0736591,-0.04794555,0.5825332,0.992103,5.042346e-09,7.202665e-10,0.12542601,3
31797495,0.8073624,0.074624404,-0.049157374,0.5832501,0.992103,5.042346e-09,7.202665e-10,0.12542601,3
31801461,0.80657494,0.07601364,-0.05003195,0.5840854,0.992103,5.042346e-09,7.202665e-10,0.12542601,3
31805497,0.80590457,0.076485485,-0.05134342,0.5848349,0.992103,5.042346e-09,7.202665e-10,0.12542601,3
31809455,0.80517066,0.07770561,-0.052422967,0.5855884,0.992103,5.042346e-09,7.202665e-10,0.12542601,3
31813455,0.80453086,0.07822573,-0.053310085,0.58631814,0.992103,5.042346e-09,7.202665e-10,0.12542601,3
31817455,0.80396265,0.07884698,-0.054555446,0.5868995,0.992103,5.042346e-09,7.202665e-10,0.12542601,3
31821464,0.8033936,0.079626605,-0.055584252,0.5874766,0.992103,5.042346e-09,7.202665e-10,0.12542601,3
31825506,0.8029177,0.07977769,-0.056599632,0.5880095,0.992103,5.042346e-09,7.202665e-10,0.12542601,3
31829461,0.8024119,0.08040852,-0.05737694,0.5885384,0.992103,5.042346e-09,7.202665e-10,0.12542601,3
31833478,0.8019696,0.08052739,-0.058352225,0.58902913,0.992103,5.042346e-09,7.202665e-10,0.12542601,3
31837479,0.80143756,0.08096292,-0.059339527,0.5895944,0.992103,5.042346e-09,7.202665e-10,0.12542601,3
31841455,0.80094314,0.08098929,-0.06006897,0.59018874,0.992103,5.042346e-09,7.202665e-10,0.12542601,3
31845457,0.8004705,0.08108083,-0.060997643,0.5907219,0.992103,5.042346e-09,7.202665e-10,0.12542601,3
31849489,0.7998555,0.081782885,-0.061767153,0.59137785,0.992103,5.042346e-09,7.202665e-10,0.12542601,3
31853462,0.79948217,0.08125043,-0.06263311,0.59186476,0.992103,5.042346e-09,7.202665e-10,0.12542601,3
31857455,0.7989792,0.08204038,-0.06334714,0.5923587,0.992103,5.042346e-09,7.202665e-10,0.12542601,3
31861455,0.79857683,0.08235577,-0.06396598,0.5927909,0.992103,5.042346e-09,7.202665e-10,0.12542601,3
31865461,0.79837394,0.082042955,-0.06491264,0.59300464,0.992103,5.042346e-09,7.202665e-10,0.12542601,3
31869455,0.7979371,0.08328204,-0.06548775,0.5933564,0.992103,5.042346e-09,7.202665e-10,0.12542601,3
31873456,0.79779327,0.08277876,-0.066284694,0.5935319,0.992103,5.042346e-09,7.202665e-10,0.12542601,3
31877473,0.79755783,0.08318687,-0.06722284,0.59368557,0.992103,5.042346e-09,7.202665e-10,0.12542601,3
31881462,0.7971222,0.084229596,-0.06774168,0.5940646,0.992103,5.042346e-09,7.202665e-10,0.12542601,3
31885455,0.79700464,0.083375596,-0.06864947,0.5942386,0.992103,5.042346e-09,7.202665e-10,0.12542601,3
31889503,0.79661477,0.08437224,-0.06941606,0.59453136,0.992103,5.042346e-09,7.202665e-10,0.12542601,3
31893455,0.7963428,0.08454198,-0.0701376,0.594787,0.992103,5.042346e-09,7.202665e-10,0.12542601,3
31897457,0.7961751,0.08413302,-0.071051784,0.594961,0.992103,5.042346e-09,7.202665e-10,0.12542601,3
31901510,0.7958031,0.08540753,-0.071361974,0.5952399,0.992103,5.042346e-09,7.202665e-10,0.12542601,3
31905455,0.79573363,0.0850672,-0.07194843,0.5953109,0.992103,5.042346e-09,7.202665e-10,0.12542601,3
31909467,0.79562813,0.08541896,-0.072591074,0.5953236,0.992103,5.042346e-09,7.202665e-10,0.12542601,3
31913455,0.79548454,0.0863332,-0.07279046,0.595359,0.992103,5.042346e-09,7.202665e-10,0.12542601,3
31917455,0.7955663,0.0858412,-0.073303334,0.5952582,0.992103,5.042346e-09,7.202665e-10,0.12542601,3
31921465,0.79546905,0.086779565,-0.07350283,0.59522736,0.992103,5.042346e-09,7.202665e-10,0.12542601,3
31925455,0.7954258,0.08695743,-0.07365816,0.5952401,0.992103,5.042346e-09,7.202665e-10,0.12542601,3
31929475,0.7954104,0.08673322,-0.074145585,0.59523296,0.992103,5.042346e-09,7.202665e-10,0.12542601,3
31933464,0.7952301,0.08776161,-0.07432297,0.59530085,0.992103,5.042346e-09,7.202665e-10,0.12542601,3
31937462,0.7952309,0.08728694,-0.07468541,0.5953242,0.992103,5.042346e-09,7.202665e-10,0.12542601,3
31941463,0.7951808,0.08765708,-0.07497883,0.59529984,0.992103,5.042346e-09,7.202665e-10,0.12542601,3
31945463,0.7951752,0.08804683,-0.07531212,0.59520775,0.992103,5.042346e-09,7.202665e-10,0.12542601,3
31949457,0.7953564,0.087549165,-0.07584277,0.59497166,0.992103,5.042346e-09,7.202665e-10,0.12542601,3
31953495,0.79547113,0.08823377,-0.07615577,0.5946771,0.992103,5.042346e-09,7.202665e-10,0.12542601,3
31957455,0.7957205,0.088145256,-0.07657322,0.59430283,0.992103,5.042346e-09,7.202665e-10,0.12542601,3
31961455,0.7959958,0.08802117,-0.077082805,0.5938867,0.992103,5.042346e-09,7.202665e-10,0.12542601,3
31965464,0.7962035,0.08842929,-0.07746942,0.59349716,0.992103,5.042346e-09,7.202665e-10,0.12542601,3
31969455,0.7964623,0.08811967,-0.07807272,0.5931168,0.992103,5.042346e-09,7.202665e-10,0.12542601,3
31973510,0.79660505,0.08863299,-0.07846671,0.5927963,0.992103,5.042346e-09,7.202665e-10,0.12542601,3
31977455,0.79676104,0.08869785,-0.07888203,0.592522,0.992103,5.042346e-09,7.202665e-10,0.12542601,3
31981489,0.7969392,0.0885004,-0.07945113,0.5922356,0.992103,5.042346e-09,7.202665e-10,0.12542601,3
31985455,0.7970923,0.08890339,-0.07976556,0.59192693,0.992103,5.042346e-09,7.202665e-10,0.12542601,3
31989455,0.79735804,0.088725686,-0.08021999,0.5915344,0.992103,5.042346e-09,7.202665e-10,0.12542601,3
31993486,0.7976434,0.08882349,-0.08050086,0.5910964,0.992103,5.042346e-09,7.202665e-10,0.12542601,3
31997457,0.7980469,0.08869237,-0.08076176,0.59053576,0.992103,5.042346e-09,7.202665e-10,0.12542601,3
32001455,0.79844475,0.088350676,-0.08096727,0.59002084,0.992103,5.042346e-09,7.202665e-10,0.12542601,3
32005488,0.79887605,0.088145845,-0.08093777,0.5894713,0.992103,5.042346e-09,7.202665e-10,0.12542601,3
32009455,0.79936874,0.08746863,-0.08117187,0.58887184,0.992103,5.042346e-09,7.202665e-10,0.12542601,3
32013458,0.7997662,0.087045364,-0.08106395,0.5884098,0.992103,5.042346e-09,7.202665e-10,0.12542601,3
32017455,0.80031544,0.086125284,-0.08091652,0.58781826,0.992103,5.042346e-09,7.202665e-10,0.12542601,3
32021474,0.8007622,0.08505173,-0.08087498,0.5873716,0.992103,5.042346e-09,7.202665e-10,0.12542601,3
32025457,0.80120766,0.08408739,-0.08031458,0.58697975,0.992103,5.042346e-09,7.202665e-10,0.12542601,3
32029455,0.8018537,0.08240433,-0.080015555,0.58637685,0.992103,5.042346e-09,7.202665e-10,0.12542601,3
32033494,0.80234694,0.08126899,-0.07934261,0.5859517,0.992103,5.042346e-09,7.202665e-10,0.12542601,3
32037457,0.803056,0.07940489,-0.078463644,0.58535403,0.992103,5.042346e-09,7.202665e-10,0.12542601,3
32041463,0.8037659,0.07752012,-0.07777819,0.58472353,0.992103,5.042346e-09,7.202665e-10,0.12542601,3
32045455,0.8044296,0.07594365,-0.07634666,0.58420616,0.992103,5.042346e-09,7.202665e-10,0.12542601,3
32049462,0.8053277,0.0730253,-0.07516962,0.5834931,0.992103,5.042346e-09,7.202665e-10,0.12542601,3
32053455,0.8060257,0.07146354,-0.07365288,0.5829158,0.992103,5.042346e-09,7.202665e-10,0.12542601,3
32057539,0.8069063,0.0684749,-0.071749605,0.58229333,0.992103,5.042346e-09,7.202665e-10,0.12542601,3
32061471,0.80770785,0.06565286,-0.0700018,0.58171946,0.992103,5.042346e-09,7.202665e-10,0.12542601,3
32065457,0.80842984,0.06370794,-0.06740493,0.5812394,0.992103,5.042346e-09,7.202665e-10,0.12542601,3
32069455,0.80936885,0.059816506,-0.06511397,0.5806069,0.992103,5.042346e-09,7.202665e-10,0.12542601,3
32073455,0.81009376,0.05753691,-0.062437166,0.5801201,0.992103,5.042346e-09,7.202665e-10,0.12542601,3
32077481,0.8110139,0.05419469,-0.059554785,0.57945895,0.992103,5.042346e-09,7.202665e-10,0.12542601,3
32081461,0.81184965,0.05109294,-0.056749694,0.57885176,0.992103,5.042346e-09,7.202665e-10,0.12542601,3
32085491,0.81271297,0.048291486,-0.053321257,0.5782062,0.992103,5.042346e-09,7.202665e-10,0.12542601,3
32089455,0.8137188,0.04496447,-0.050369427,0.57732403,0.992103,5.042346e-09,7.202665e-10,0.12542601,3
32093455,0.8145764,0.042654384,-0.04704723,0.5765697,0.992103,5.042346e-09,7.202665e-10,0.12542601,3
32097465,0.8156101,0.039107647,-0.044018086,0.5755982,0.992103,5.042346e-09,7.202665e-10,0.12542601,3
32101461,0.81647694,0.036829542,-0.041114897,0.57473356,0.992103,5.042346e-09,7.202665e-10,0.12542601,3
32105464,0.81737363,0.034423795,-0.037802387,0.57383466,0.992103,5.042346e-09,7.202665e-10,0.12542601,3
32109496,0.81840885,0.031373173,-0.03497974,0.57271206,0.992103,5.042346e-09,7.202665e-10,0.12542601,3
32113455,0.8192233,0.02989624,-0.032258693,0.5717858,0.992103,5.042346e-09,7.202665e-10,0.12542601,3
32117455,0.82017756,0.027154842,-0.029803008,0.57068664,0.992103,5.042346e-09,7.202665e-10,0.12542601,3
32121461,0.8210163,0.025375977,-0.027471831,0.5696786,0.992103,5.042346e-09,7.202665e-10,0.12542601,3
32125455,0.8218043,0.024002342,-0.025048928,0.56871283,0.992103,5.042346e-09,7.202665e-10,0.12542601,3
32129457,0.82266444,0.021814212,-0.023262419,0.567632,0.992103,5.042346e-09,7.202665e-10,0.12542601,3
32133462,0.8233664,0.020804498,-0.021491393,0.56672126,0.992103,5.042346e-09,7.202665e-10,0.12542601,3
32137457,0.82412475,0.019284861,-0.019784864,0.5657342,0.992103,5.042346e-09,7.202665e-10,0.12542601,3
32141488,0.82485753,0.018132446,-0.018597199,0.5647438,0.992103,5.042346e-09,7.202665e-10,0.12542601,3
32145457,0.8255663,0.01686,-0.017388385,0.5637851,0.992103,5.042346e-09,7.202665e-10,0.12542601,3
32149455,0.82629055,0.015766768,-0.01628823,0.5627877,0.992103,5.042346e-09,7.202665e-10,0.12542601,3
32153455,0.8269488,0.015027122,-0.015395669,0.5618656,0.992103,5.042346e-09,7.202665e-10,0.12542601,3
32158301,0.82784325,0.013259962,-0.014441704,0.5606169,0.992103,5.042346e-09,7.202665e-10,0.12542601,3
32163055,0.82861775,0.0126723405,-0.013651026,0.55950505,0.992103,5.042346e-09,7.202665e-10,0.12542601,3
32167061,0.8292947,0.011081392,-0.012943136,0.55855185,0.992103,5.042346e-09,7.202665e-10,0.12542601,3
32171066,0.82993937,0.010548411,-0.012626178,0.55761105,0.992103,5.042346e-09,7.202665e-10,0.12542601,3
32175134,0.8305512,0.0098999115,-0.012128788,0.5567221,0.992103,5.042346e-09,7.202665e-10,0.12542601,3
32179086,0.8311924,0.008616197,-0.011770287,0.55579364,0.992103,5.042346e-09,7.202665e-10,0.12542601,3
32183066,0.83177274,0.008339021,-0.011545321,0.55493367,0.992103,5.042346e-09,7.202665e-10,0.12542601,3
32187055,0.83233243,0.0073402314,-0.011205795,0.5541149,0.992103,5.042346e-09,7.202665e-10,0.12542601,3
32191055,0.8329627,0.006725943,-0.0109337475,0.55318034,0.992103,5.042346e-09,7.202665e-10,0.12542601,3
32195067,0.833558,0.0061025014,-0.010576534,0.55229706,0.992103,5.042346e-09,7.202665e-10,0.12542601,3
32199055,0.83418643,0.005357079,-0.010355022,0.5513594,0.992103,5.042346e-09,7.202665e-10,0.12542601,3
32203089,0.8348686,0.0047658975,-0.009970437,0.55033845,0.992103,5.042346e-09,7.202665e-10,0.12542601,3
32207058,0.83545375,0.0040972577,-0.00964101,0.549461,0.992103,5.042346e-09,7.202665e-10,0.12542601,3
32211055,0.83611923,0.0038287016,-0.009318132,0.5484553,0.992103,5.042346e-09,7.202665e-10,0.12542601,3
32215056,0.8368043,0.003031911,-0.008772202,0.5474235,0.992103,5.042346e-09,7.202665e-10,0.12542601,3
32219064,0.8374511,0.002579818,-0.008463626,0.54644066,0.992103,5.042346e-09,7.202665e-10,0.12542601,3
32223055,0.838141,0.0022134918,-0.008045563,0.54538995,0.992103,5.042346e-09,7.202665e-10,0.12542601,3
32227055,0.8388039,0.0015647671,-0.007583748,0.54437876,0.992103,5.042346e-09,7.202665e-10,0.12542601,3
32231073,0.8394944,0.0013014573,-0.007129743,0.54332006,0.992103,5.042346e-09,7.202665e-10,0.12542601,3
32235058,0.84022874,0.00087547826,-0.0067179427,0.5421898,0.992103,5.042346e-09,7.202665e-10,0.12542601,3
32239055,0.8410141,0.00054333487,-0.0064366255,0.5409748,0.992103,5.042346e-09,7.202665e-10,0.12542601,3
32243055,0.8418514,0.00022706506,-0.005860081,0.53967756,0.992103,5.042346e-09,7.202665e-10,0.12542601,3
32247056,0.8427406,-6.8842346e-05,-0.005515708,0.5382918,0.992103,5.042346e-09,7.202665e-10,0.12542601,3
32251055,0.84368026,-0.00034438726,-0.0053426307,0.53681934,0.992103,5.042346e-09,7.202665e-10,0.12542601,3
32255088,0.8446661,-0.0005025989,-0.0047052028,0.5352728,0.992103,5.042346e-09,7.202665e-10,0.12542601,3
32259125,0.8457056,-0.0006546937,-0.004373513,0.5336315,0.992103,5.042346e-09,7.202665e-10,0.12542601,3
32263065,0.84674144,-0.0010663938,-0.0043130694,0.53198624,0.992103,5.042346e-09,7.202665e-10,0.12542601,3
32267055,0.8477622,-0.0010282715,-0.0038254242,0.5303616,0.992103,5.042346e-09,7.202665e-10,0.12542601,3
32271055,0.84881157,-0.0012847536,-0.003451459,0.52868277,0.992103,5.042346e-09,7.202665e-10,0.12542601,3
32275055,0.8499724,-0.0014954385,-0.0032309892,0.5268153,0.992103,5.042346e-09,7.202665e-10,0.12542601,3
32279062,0.8511322,-0.0013843438,-0.002889379,0.5249417,0.992103,5.042346e-09,7.202665e-10,0.12542601,3
32283065,0.85234576,-0.0018827982,-0.0026742623,0.5229686,0.992103,5.042346e-09,7.202665e-10,0.12542601,3
32287055,0.85365105,-0.0016636883,-0.0021677203,0.52083814,0.992103,5.042346e-09,7.202665e-10,0.12542601,3
32291058,0.8549671,-0.0018725963,-0.0018161357,0.5186758,0.992103,5.042346e-09,7.202665e-10,0.12542601,3
32295055,0.8563637,-0.002354898,-0.0017327034,0.516365,0.992103,5.042346e-09,7.202665e-10,0.12542601,3
32299058,0.8578214,-0.0020501376,-0.0013547544,0.5139421,0.992103,5.042346e-09,7.202665e-10,0.12542601,3
32303063,0.85925686,-0.0026432977,-0.0009901329,0.51153666,0.992103,5.042346e-09,7.202665e-10,0.12542601,3
32307089,0.86076444,-0.0026898382,-0.00073451595,0.50899595,0.992103,5.042346e-09,7.202665e-10,0.12542601,3
32311055,0.8622631,-0.0027570128,-0.00056715915,0.5064528,0.992103,5.042346e-09,7.202665e-10,0.12542601,3
32315055,0.8637757,-0.0032714256,-0.00037695077,0.5038658,0.992103,5.042346e-09,7.202665e-10,0.12542601,3
32319058,0.8653327,-0.0029950177,-0.00020741865,0.5011889,0.992103,5.042346e-09,7.202665e-10,0.12542601,3
32323055,0.8669621,-0.0035391462,-0.00015470947,0.4983617,0.992103,5.042346e-09,7.202665e-10,0.12542601,3
32327055,0.86857367,-0.0033605336,9.0479225e-05,0.49554884,0.992103,5.042346e-09,7.202665e-10,0.12542601,3
32331061,0.8702168,-0.003591994,-3.801367e-05,0.49265587,0.992103,5.042346e-09,7.202665e-10,0.12542601,3
32335102,0.87193465,-0.0040518637,-0.00014906251,0.4896055,0.992103,5.042346e-09,7.202665e-10,0.12542601,3
32339055,0.87358266,-0.0037366142,-2.5321293e-05,0.48666152,0.992103,5.042346e-09,7.202665e-10,0.12542601,3
32343165,0.8753596,-0.004379627,-0.00020993773,0.48345256,0.992103,5.042346e-09,7.202665e-10,0.12542601,3
32347058,0.8770608,-0.004286432,-0.00027588542,0.48036045,0.992103,5.042346e-09,7.202665e-10,0.12542601,3
32351055,0.8787875,-0.0045004315,-0.0002821791,0.4771919,0.992103,5.042346e-09,7.202665e-10,0.12542601,3
32355055,0.88046485,-0.005026656,-0.00046143396,0.47408456,0.992103,5.042346e-09,7.202665e-10,0.12542601,3
32359109,0.88219255,-0.0050010313,-0.0005502077,0.47086215,0.992103,5.042346e-09,7.202665e-10,0.12542601,3
32363083,0.8839255,-0.0055141416,-0.0006026391,0.46759498,0.992103,5.042346e-09,7.202665e-10,0.12542601,3
32367055,0.88562644,-0.0053644343,-0.0005035977,0.46436718,0.992103,5.042346e-09,7.202665e-10,0.12542601,3
32371055,0.8874223,-0.005900113,-0.0006173776,0.46091926,0.992103,5.042346e-09,7.202665e-10,0.12542601,3
32375062,0.88921505,-0.0062266104,-0.00068029895,0.45744663,0.992103,5.042346e-09,7.202665e-10,0.12542601,3
32379058,0.8910007,-0.006101941,-0.00054334465,0.4539607,0.992103,5.042346e-09,7.202665e-10,0.12542601,3
32383066,0.8928636,-0.00695271,-0.00047385602,0.45027345,0.992103,5.042346e-09,7.202665e-10,0.12542601,3
32387065,0.89472055,-0.006846748,-0.00039439937,0.4465738,0.992103,5.042346e-09,7.202665e-10,0.12542601,3
32391055,0.8965921,-0.007101805,-0.00016021132,0.4428004,0.992103,5.042346e-09,7.202665e-10,0.12542601,3
32395055,0.89840865,-0.007511936,-7.427142e-05,0.4390963,0.992103,5.042346e-09,7.202665e-10,0.12542601,3
32399055,0.90022063,-0.007661194,-4.747984e-06,0.43536675,0.992103,5.042346e-09,7.202665e-10,0.12542601,3
32403064,0.9020011,-0.008128456,0.0002743566,0.43165717,0.992103,5.042346e-09,7.202665e-10,0.12542601,3
32407064,0.9037641,-0.007927462,0.0006732273,0.42795688,0.992103,5.042346e-09,7.202665e-10,0.12542601,3
32411089,0.90558755,-0.008460486,0.0009119391,0.42407414,0.992103,5.042346e-09,7.202665e-10,0.12542601,3
32415055,0.9073381,-0.008622886,0.0012591707,0.42031166,0.992103,5.042346e-09,7.202665e-10,0.12542601,3
32419072,0.9091548,-0.008384875,0.0017253278,0.41637045,0.992103,5.042346e-09,7.202665e-10,0.12542601,3
32423061,0.9109791,-0.008896212,0.0021785453,0.41235083,0.992103,5.042346e-09,7.202665e-10,0.12542601,3
32427132,0.91284055,-0.008630689,0.0026709258,0.40821624,0.992103,5.042346e-09,7.202665e-10,0.12542601,3
32431055,0.9146872,-0.00872822,0.0031454132,0.40405607,0.992103,5.042346e-09,7.202665e-10,0.12542601,3
32435057,0.9164874,-0.0088348575,0.0034587646,0.39995098,0.992103,5.042346e-09,7.202665e-10,0.12542601,3
32439065,0.9182791,-0.008352082,0.0038160693,0.39582735,0.992103,5.042346e-09,7.202665e-10,0.12542601,3
32443062,0.92003953,-0.008459354,0.004253104,0.39171132,0.992103,5.042346e-09,7.202665e-10,0.12542601,3
32447067,0.9217248,-0.008109246,0.004569134,0.38773304,0.992103,5.042346e-09,7.202665e-10,0.12542601,3
32451055,0.92340237,-0.0077262,0.0047507556,0.38372627,0.992103,5.042346e-09,7.202665e-10,0.12542601,3
32455055,0.92507243,-0.0076833167,0.004951253,0.3796809,0.992103,5.042346e-09,7.202665e-10,0.12542601,3
32459065,0.926747,-0.006863156,0.0052557006,0.37558672,0.992103,5.042346e-09,7.202665e-10,0.12542601,3
32463091,0.92845684,-0.006663078,0.0052887863,0.3713431,0.992103,5.042346e-09,7.202665e-10,0.12542601,3
32467055,0.93015534,-0.0063662594,0.005289936,0.3670731,0.992103,5.042346e-09,7.202665e-10,0.12542601,3
32471055,0.93187416,-0.00554712,0.0055261743,0.36269748,0.992103,5.042346e-09,7.202665e-10,0.12542601,3
32475055,0.93357897,-0.0055580223,0.0055842227,0.3582851,0.992103,5.042346e-09,7.202665e-10,0.12542601,3
32479055,0.9352847,-0.0050573847,0.0055864598,0.35381606,0.992103,5.042346e-09,7.202665e-10,0.12542601,3
32483061,0.936918,-0.004719138,0.005651594,0.34947157,0.992103,5.042346e-09,7.202665e-10,0.12542601,3
32487058,0.93847096,-0.004836709,0.0056541907,0.3452783,0.992103,5.042346e-09,7.202665e-10,0.12542601,3
32491065,0.9400262,-0.004173491,0.0057076514,0.34102893,0.992103,5.042346e-09,7.202665e-10,0.12542601,3
32495055,0.9415087,-0.0042678625,0.0056887097,0.33691356,0.992103,5.042346e-09,7.202665e-10,0.12542601,3
32499084,0.94300574,-0.0042943605,0.0055408804,0.33270267,0.992103,5.042346e-09,7.202665e-10,0.12542601,3
32503061,0.9444985,-0.0037632287,0.0054404866,0.32844928,0.992103,5.042346e-09,7.202665e-10,0.12542601,3
32507055,0.9459719,-0.004070425,0.0055945693,0.324175,0.992103,5.042346e-09,7.202665e-10,0.12542601,3
32511125,0.94752663,-0.003826406,0.005502507,0.31960666,0.992103,5.042346e-09,7.202665e-10,0.12542601,3
32515105,0.94904405,-0.003592822,0.005346772,0.31507772,0.992103,5.042346e-09,7.202665e-10,0.12542601,3
32519064,0.95051503,-0.0038683154,0.005644184,0.31060332,0.992103,5.042346e-09,7.202665e-10,0.12542601,3
32523055,0.9519847,-0.0034249304,0.005613056,0.30607495,0.992103,5.042346e-09,7.202665e-10,0.12542601,3
32527061,0.95340663,-0.0035060945,0.0057599116,0.30161306,0.992103,5.042346e-09,7.202665e-10,0.12542601,3
32531083,0.95477575,-0.003356783,0.0059945923,0.2972477,0.992103,5.042346e-09,7.202665e-10,0.12542601,3
32535060,0.95609725,-0.0027905582,0.005933303,0.2929762,0.992103,5.042346e-09,7.202665e-10,0.12542601,3
32539055,0.9573879,-0.0028877524,0.006381942,0.2887201,0.992103,5.042346e-09,7.202665e-10,0.12542601,3
32543093,0.9586779,-0.0021813859,0.006493243,0.28441164,0.992103,5.042346e-09,7.202665e-10,0.12542601,3
32547067,0.9599602,-0.0017091112,0.0064514773,0.28005677,0.992103,5.042346e-09,7.202665e-10,0.12542601,3
32551055,0.96124196,-0.0015577062,0.006837469,0.27561727,0.992103,5.042346e-09,7.202665e-10,0.12542601,3
32555055,0.9625408,-0.00066029595,0.0067044958,0.27105328,0.992103,5.042346e-09,7.202665e-10,0.12542601,3
32559055,0.96385527,-0.00022478918,0.0066102566,0.26634437,0.992103,5.042346e-09,7.202665e-10,0.12542601,3
32563061,0.9651336,-7.501788e-05,0.0066281697,0.26167387,0.992103,5.042346e-09,7.202665e-10,0.12542601,3
32567110,0.966393,0.0007096366,0.0062719644,0.25699192,0.992103,5.042346e-09,7.202665e-10,0.12542601,3
32571071,0.9675925,0.00080665154,0.006261271,0.25243822,0.992103,5.042346e-09,7.202665e-10,0.12542601,3
32575055,0.9687366,0.0012249099,0.0059079854,0.24801846,0.992103,5.042346e-09,7.202665e-10,0.12542601,3
32579885,0.97008467,0.0018359429,0.00539987,0.2427,0.992103,5.042346e-09,7.202665e-10,0.12542601,3
32583862,0.97115123,0.0015781327,0.0053250627,0.23839952,0.992103,5.042346e-09,7.202665e-10,0.12542601,3
32587906,0.9721965,0.0024709767,0.0049719834,0.23410104,0.992103,5.042346e-09,7.202665e-10,0.12542601,3
32591858,0.97324145,0.002352275,0.0048421076,0.22972189,0.992103,5.042346e-09,7.202665e-10,0.12542601,3
32596655,0.97448945,0.0026387323,0.0045967274,0.22437094,0.992103,5.042346e-09,7.202665e-10,0.12542601,3
32600678,0.9755283,0.00314802,0.0043324223,0.2198087,0.992103,5.042346e-09,7.202665e-10,0.12542601,3
32604655,0.9765599,0.0025881173,0.0046138032,0.21518125,0.992103,5.042346e-09,7.202665e-10,0.12542601,3
32608708,0.97755766,0.0033193522,0.0044308123,0.21059527,0.992103,5.042346e-09,7.202665e-10,0.12542601,3
32612655,0.97852355,0.0030862074,0.004448319,0.20606431,0.992103,5.042346e-09,7.202665e-10,0.12542601,3
32616655,0.97946596,0.0026376673,0.0043327045,0.20154601,0.992103,5.042346e-09,7.202665e-10,0.12542601,3
32620657,0.98033744,0.0032829607,0.004318408,0.19725423,0.992103,5.042346e-09,7.202665e-10,0.12542601,3
32624662,0.9812173,0.0024530438,0.0046630893,0.19283348,0.992103,5.042346e-09,7.202665e-10,0.12542601,3
32628697,0.9820602,0.0024339703,0.0044004484,0.18850054,0.992103,5.042346e-09,7.202665e-10,0.12542601,3
32632655,0.98286855,0.0023505567,0.004327478,0.1842426,0.992103,5.042346e-09,7.202665e-10,0.12542601,3
32636665,0.98370993,0.0013085704,0.0044432865,0.1797033,0.992103,5.042346e-09,7.202665e-10,0.12542601,3
32640657,0.9845,0.0018015639,0.004202127,0.17532563,0.992103,5.042346e-09,7.202665e-10,0.12542601,3
32644655,0.9853197,0.0010210024,0.0042690397,0.170663,0.992103,5.042346e-09,7.202665e-10,0.12542601,3
32648667,0.9861313,0.00036870886,0.004092565,0.16591612,0.992103,5.042346e-09,7.202665e-10,0.12542601,3
32652660,0.98688614,0.00064459146,0.0040188637,0.16136655,0.992103,5.042346e-09,7.202665e-10,0.12542601,3
32656655,0.98764926,-0.0004474723,0.0041141165,0.15662654,0.992103,5.042346e-09,7.202665e-10,0.12542601,3
32660754,0.9883653,-0.00043288321,0.0037774602,0.15205148,0.992103,5.042346e-09,7.202665e-10,0.12542601,3
32664657,0.9890181,-0.0005331862,0.0038730889,0.14774296,0.992103,5.042346e-09,7.202665e-10,0.12542601,3
32668663,0.9896793,-0.0014419755,0.003770543,0.1432432,0.992103,5.042346e-09,7.202665e-10,0.12542601,3
32672655,0.99028575,-0.0010538092,0.00340662,0.13900153,0.992103,5.042346e-09,7.202665e-10,0.12542601,3
32676655,0.99089724,-0.0015331986,0.0034745473,0.13456693,0.992103,5.042346e-09,7.202665e-10,0.12542601,3
32680657,0.9914901,-0.0015537335,0.0031248084,0.1301352,0.992103,5.042346e-09,7.202665e-10,0.12542601,3
32684658,0.99206275,-0.0011738966,0.002819308,0.12570709,0.992103,5.042346e-09,7.202665e-10,0.12542601,3
32688669,0.9926452,-0.0016915203,0.0023873106,0.12102504,0.992103,5.042346e-09,7.202665e-10,0.12542601,3
32692655,0.99318457,-0.0011466753,0.001750506,0.11653388,0.992103,5.042346e-09,7.202665e-10,0.12542601,3
32696659,0.9937142,-0.0010464097,0.0013939101,0.11193293,0.992103,5.042346e-09,7.202665e-10,0.12542601,3
32700657,0.9942197,-0.0009305518,0.0003728353,0.10736063,0.992103,5.042346e-09,7.202665e-10,0.12542601,3
32704664,0.99468774,-0.00052027113,-0.00058941334,0.10293606,0.992103,5.042346e-09,7.202665e-10,0.12542601,3
32708655,0.9951344,-0.00040558097,-0.0013205877,0.09851773,0.992103,5.042346e-09,7.202665e-10,0.12542601,3
32712745,0.9955571,0.00017740608,-0.0026445012,0.094121926,0.992103,5.042346e-09,7.202665e-10,0.12542601,3
32716661,0.9959437,0.00017918978,-0.003660007,0.08990459,0.992103,5.042346e-09,7.202665e-10,0.12542601,3
32720665,0.9963133,0.0006055598,-0.0051155407,0.08563467,0.992103,5.042346e-09,7.202665e-10,0.12542601,3
32724655,0.9966605,0.0013295059,-0.0065782745,0.08138144,0.992103,5.042346e-09,7.202665e-10,0.12542601,3
32728655,0.99700296,0.0011994293,-0.007663835,0.07697394,0.992103,5.042346e-09,7.202665e-10,0.12542601,3
32732681,0.9973153,0.0019975854,-0.009517578,0.072578646,0.992103,5.042346e-09,7.202665e-10,0.12542601,3
32736655,0.99761164,0.0023359398,-0.010965176,0.06815712,0.992103,5.042346e-09,7.202665e-10,0.12542601,3
32740670,0.9978893,0.0022975353,-0.012573482,0.06366885,0.992103,5.042346e-09,7.202665e-10,0.12542601,3
32744655,0.9981199,0.003332885,-0.014609645,0.059432447,0.992103,5.042346e-09,7.202665e-10,0.12542601,3
32748655,0.9983514,0.0032398817,-0.015891686,0.05505835,0.992103,5.042346e-09,7.202665e-10,0.12542601,3
32752655,0.9985384,0.0036345269,-0.01796545,0.050844025,0.992103,5.042346e-09,7.202665e-10,0.12542601,3
32756655,0.9986977,0.004261651,-0.02005227,0.046719003,0.992103,5.042346e-09,7.202665e-10,0.12542601,3
32760665,0.9988554,0.0039452594,-0.021667466,0.042459153,0.992103,5.042346e-09,7.202665e-10,0.12542601,3
32764702,0.99896604,0.0046701785,-0.023860129,0.038415436,0.992103,5.042346e-09,7.202665e-10,0.12542601,3
32768657,0.99907213,0.0047138752,-0.025678145,0.034254704,0.992103,5.042346e-09,7.202665e-10,0.12542601,3
32772655,0.99915165,0.004823302,-0.027827708,0.029972192,0.992103,5.042346e-09,7.202665e-10,0.12542601,3
32776655,0.9992071,0.00515392,-0.029864896,0.025821159,0.992103,5.042346e-09,7.202665e-10,0.12542601,3
32780663,0.99925303,0.004729962,-0.031839706,0.021385597,0.992103,5.042346e-09,7.202665e-10,0.12542601,3
32784658,0.9992574,0.005079096,-0.034104448,0.01719806,0.992103,5.042346e-09,7.202665e-10,0.12542601,3
32788655,0.9992673,0.0047690766,-0.035714384,0.012906253,0.992103,5.042346e-09,7.202665e-10,0.12542601,3
32792665,0.99922746,0.0046100267,-0.0380589,0.008649193,0.992103,5.042346e-09,7.202665e-10,0.12542601,3
32796697,0.9991756,0.0045243837,-0.040077966,0.0046541644,0.992103,5.042346e-09,7.202665e-10,0.12542601,3
32800663,0.9991234,0.0040518693,-0.04166197,0.00058085256,0.992103,5.042346e-09,7.202665e-10,0.12542601,3
32804655,0.9990173,0.00449401,-0.043973073,-0.003263653,0.992103,5.042346e-09,7.202665e-10,0.12542601,3
32808655,0.99893224,0.0037673751,-0.045465656,-0.0072876,0.992103,5.042346e-09,7.202665e-10,0.12542601,3
32812657,0.99881035,0.0037416979,-0.047294922,-0.011280318,0.992103,5.042346e-09,7.202665e-10,0.12542601,3
32816717,0.99866974,0.0039781313,-0.049085673,-0.015279637,0.992103,5.042346e-09,7.202665e-10,0.12542601,3
32820669,0.99853116,0.003022089,-0.05044129,-0.01954644,0.992103,5.042346e-09,7.202665e-10,0.12542601,3
32824668,0.99834067,0.0037037863,-0.052440457,-0.023499949,0.992103,5.042346e-09,7.202665e-10,0.12542601,3
32828655,0.99818397,0.0033515806,-0.053440813,-0.027602091,0.992103,5.042346e-09,7.202665e-10,0.12542601,3
32832655,0.99798083,0.0029743882,-0.05492988,-0.031750873,0.992103,5.042346e-09,7.202665e-10,0.12542601,3
32836655,0.99775803,0.003452042,-0.056564353,-0.03560173,0.992103,5.042346e-09,7.202665e-10,0.12542601,3
32840657,0.99756026,0.0026136136,-0.05738625,-0.03966708,0.992103,5.042346e-09,7.202665e-10,0.12542601,3
32844665,0.9973184,0.0030479147,-0.05886009,-0.04338423,0.992103,5.042346e-09,7.202665e-10,0.12542601,3
32848655,0.9970888,0.002942252,-0.05984921,-0.04715284,0.992103,5.042346e-09,7.202665e-10,0.12542601,3
32852657,0.9968431,0.002446236,-0.060747482,-0.051065043,0.992103,5.042346e-09,7.202665e-10,0.12542601,3
32856655,0.996582,0.0029295096,-0.061770476,-0.05477457,0.992103,5.042346e-09,7.202665e-10,0.12542601,3
32860660,0.9963065,0.0023836775,-0.062557764,-0.05877408,0.992103,5.042346e-09,7.202665e-10,0.12542601,3
